{
  "vehicleId": "47794727",
  "vehicleName": "SLC-MOTO-03",
  "month": "2025_07",
  "pagination": {
    "endCursor": "trip_47794727_20250708_940",
    "hasNextPage": false
  },
  "trips": [
    {
      "id": "trip_47794727_20250701_25706",
      "vehicleId": "47794727",
      "driverId": "20000035",
      "startMs": 1751339852000,
      "endMs": 1751341292000,
      "startAddress": "57697 Angel Mountain",
      "endAddress": "3000 Martin Village",
      "startCoords": {
        "latitude": 40.767797,
        "longitude": -111.845971
      },
      "endCoords": {
        "latitude": 40.734373,
        "longitude": -111.842224
      },
      "distanceMeters": 8781.6,
      "durationMs": 1440000,
      "drivingDurationMs": 1131162,
      "idlingDurationMs": 308838,
      "fuelConsumedMl": 397,
      "fuelConsumedGallons": 0.105,
      "maxSpeedMph": 41.6,
      "averageSpeedMph": 13.6,
      "safetyEvents": []
    },
    {
      "id": "trip_47794727_20250701_047",
      "vehicleId": "47794727",
      "driverId": "20000037",
      "startMs": 1751386194000,
      "endMs": 1751387634000,
      "startAddress": "93781 Powers Causeway",
      "endAddress": "6143 Wagner Pike Suite 437",
      "startCoords": {
        "latitude": 40.680149,
        "longitude": -111.878458
      },
      "endCoords": {
        "latitude": 40.720579,
        "longitude": -111.825206
      },
      "distanceMeters": 8907.7,
      "durationMs": 1440000,
      "drivingDurationMs": 1199682,
      "idlingDurationMs": 240318,
      "fuelConsumedMl": 401,
      "fuelConsumedGallons": 0.106,
      "maxSpeedMph": 42.6,
      "averageSpeedMph": 13.8,
      "safetyEvents": []
    },
    {
      "id": "trip_47794727_20250701_086",
      "vehicleId": "47794727",
      "driverId": "20000036",
      "startMs": 1751406126000,
      "endMs": 1751407806000,
      "startAddress": "39091 Brian Streets",
      "endAddress": "025 Andrew Greens",
      "startCoords": {
        "latitude": 40.754253,
        "longitude": -111.810742
      },
      "endCoords": {
        "latitude": 40.694234,
        "longitude": -111.870878
      },
      "distanceMeters": 11456.6,
      "durationMs": 1680000,
      "drivingDurationMs": 1341681,
      "idlingDurationMs": 338319,
      "fuelConsumedMl": 519,
      "fuelConsumedGallons": 0.137,
      "maxSpeedMph": 45.0,
      "averageSpeedMph": 15.3,
      "safetyEvents": []
    },
    {
      "id": "trip_47794727_20250702_129",
      "vehicleId": "47794727",
      "driverId": "20000034",
      "startMs": 1751439478000,
      "endMs": 1751441578000,
      "startAddress": "3295 Robinson Parks",
      "endAddress": "59757 Carolyn Squares",
      "startCoords": {
        "latitude": 40.702487,
        "longitude": -111.908736
      },
      "endCoords": {
        "latitude": 40.723335,
        "longitude": -111.839905
      },
      "distanceMeters": 16307.3,
      "durationMs": 2100000,
      "drivingDurationMs": 1765061,
      "idlingDurationMs": 334939,
      "fuelConsumedMl": 738,
      "fuelConsumedGallons": 0.195,
      "maxSpeedMph": 34.7,
      "averageSpeedMph": 17.4,
      "safetyEvents": []
    },
    {
      "id": "trip_47794727_20250702_175",
      "vehicleId": "47794727",
      "driverId": "20000035",
      "startMs": 1751459814000,
      "endMs": 1751466477000,
      "startAddress": "690 Howard Drives Suite 061",
      "endAddress": "5673 Shaun Groves",
      "startCoords": {
        "latitude": 40.757571,
        "longitude": -111.812181
      },
      "endCoords": {
        "latitude": 40.739349,
        "longitude": -111.811523
      },
      "distanceMeters": 35448.9,
      "durationMs": 6663000,
      "drivingDurationMs": 5782022,
      "idlingDurationMs": 880978,
      "fuelConsumedMl": 1605,
      "fuelConsumedGallons": 0.424,
      "maxSpeedMph": 35.3,
      "averageSpeedMph": 11.9,
      "safetyEvents": []
    },
    {
      "id": "trip_47794727_20250702_216",
      "vehicleId": "47794727",
      "driverId": "20000039",
      "startMs": 1751483890000,
      "endMs": 1751485510000,
      "startAddress": "46051 Anita Junction",
      "endAddress": "27163 Natasha Square Apt. 356",
      "startCoords": {
        "latitude": 40.66406,
        "longitude": -111.836638
      },
      "endCoords": {
        "latitude": 40.750982,
        "longitude": -111.928955
      },
      "distanceMeters": 14613.5,
      "durationMs": 1620000,
      "drivingDurationMs": 1429815,
      "idlingDurationMs": 190185,
      "fuelConsumedMl": 662,
      "fuelConsumedGallons": 0.175,
      "maxSpeedMph": 40.8,
      "averageSpeedMph": 20.2,
      "safetyEvents": []
    },
    {
      "id": "trip_47794727_20250703_259",
      "vehicleId": "47794727",
      "driverId": "20000037",
      "startMs": 1751510866000,
      "endMs": 1751512486000,
      "startAddress": "21711 Payne Lodge Suite 658",
      "endAddress": "981 Ryan Park",
      "startCoords": {
        "latitude": 40.744255,
        "longitude": -111.841614
      },
      "endCoords": {
        "latitude": 40.671135,
        "longitude": -111.868618
      },
      "distanceMeters": 9554.8,
      "durationMs": 1620000,
      "drivingDurationMs": 1380673,
      "idlingDurationMs": 239327,
      "fuelConsumedMl": 432,
      "fuelConsumedGallons": 0.114,
      "maxSpeedMph": 44.1,
      "averageSpeedMph": 13.2,
      "safetyEvents": []
    },
    {
      "id": "trip_47794727_20250703_304",
      "vehicleId": "47794727",
      "driverId": "20000036",
      "startMs": 1751536077000,
      "endMs": 1751543162000,
      "startAddress": "691 Brian Terrace Apt. 242",
      "endAddress": "8268 Edwin Corner",
      "startCoords": {
        "latitude": 40.740535,
        "longitude": -111.874722
      },
      "endCoords": {
        "latitude": 40.673105,
        "longitude": -111.951914
      },
      "distanceMeters": 43362.7,
      "durationMs": 7085000,
      "drivingDurationMs": 5434007,
      "idlingDurationMs": 1650993,
      "fuelConsumedMl": 1961,
      "fuelConsumedGallons": 0.518,
      "maxSpeedMph": 36.8,
      "averageSpeedMph": 13.7,
      "safetyEvents": []
    },
    {
      "id": "trip_47794727_20250703_348",
      "vehicleId": "47794727",
      "driverId": "20000039",
      "startMs": 1751563118000,
      "endMs": 1751568645000,
      "startAddress": "9351 Nancy Street Apt. 401",
      "endAddress": "331 Richardson Roads",
      "startCoords": {
        "latitude": 40.783903,
        "longitude": -111.865586
      },
      "endCoords": {
        "latitude": 40.777652,
        "longitude": -111.858901
      },
      "distanceMeters": 47081.1,
      "durationMs": 5527000,
      "drivingDurationMs": 4859742,
      "idlingDurationMs": 667258,
      "fuelConsumedMl": 2131,
      "fuelConsumedGallons": 0.563,
      "maxSpeedMph": 40.7,
      "averageSpeedMph": 19.1,
      "safetyEvents": []
    },
    {
      "id": "trip_47794727_20250703_387",
      "vehicleId": "47794727",
      "driverId": "20000036",
      "startMs": 1751585957000,
      "endMs": 1751587937000,
      "startAddress": "851 Cantu Ranch Apt. 509",
      "endAddress": "6882 Mendoza Pine Apt. 072",
      "startCoords": {
        "latitude": 40.78472,
        "longitude": -111.802095
      },
      "endCoords": {
        "latitude": 40.747173,
        "longitude": -111.80905
      },
      "distanceMeters": 14955.6,
      "durationMs": 1980000,
      "drivingDurationMs": 1595894,
      "idlingDurationMs": 384106,
      "fuelConsumedMl": 678,
      "fuelConsumedGallons": 0.179,
      "maxSpeedMph": 42.7,
      "averageSpeedMph": 16.9,
      "safetyEvents": []
    },
    {
      "id": "trip_47794727_20250704_423",
      "vehicleId": "47794727",
      "driverId": "20000037",
      "startMs": 1751610616000,
      "endMs": 1751612536000,
      "startAddress": "2964 Turner Pike",
      "endAddress": "68681 Charles Tunnel Apt. 306",
      "startCoords": {
        "latitude": 40.794947,
        "longitude": -111.876416
      },
      "endCoords": {
        "latitude": 40.714356,
        "longitude": -111.961142
      },
      "distanceMeters": 11430.6,
      "durationMs": 1920000,
      "drivingDurationMs": 1493132,
      "idlingDurationMs": 426868,
      "fuelConsumedMl": 519,
      "fuelConsumedGallons": 0.137,
      "maxSpeedMph": 34.4,
      "averageSpeedMph": 13.3,
      "safetyEvents": []
    },
    {
      "id": "trip_47794727_20250704_472",
      "vehicleId": "47794727",
      "driverId": "20000037",
      "startMs": 1751634874000,
      "endMs": 1751636494000,
      "startAddress": "321 Michael Ports Suite 183",
      "endAddress": "734 Natalie Canyon",
      "startCoords": {
        "latitude": 40.795898,
        "longitude": -111.819042
      },
      "endCoords": {
        "latitude": 40.664784,
        "longitude": -111.895097
      },
      "distanceMeters": 10760.5,
      "durationMs": 1620000,
      "drivingDurationMs": 1291315,
      "idlingDurationMs": 328685,
      "fuelConsumedMl": 488,
      "fuelConsumedGallons": 0.129,
      "maxSpeedMph": 36.3,
      "averageSpeedMph": 14.9,
      "safetyEvents": []
    },
    {
      "id": "trip_47794727_20250704_511",
      "vehicleId": "47794727",
      "driverId": "20000033",
      "startMs": 1751653399000,
      "endMs": 1751654779000,
      "startAddress": "436 Charles Plain",
      "endAddress": "14603 Jones Path Apt. 605",
      "startCoords": {
        "latitude": 40.708051,
        "longitude": -111.941709
      },
      "endCoords": {
        "latitude": 40.698289,
        "longitude": -111.79573
      },
      "distanceMeters": 9993.8,
      "durationMs": 1380000,
      "drivingDurationMs": 1104763,
      "idlingDurationMs": 275237,
      "fuelConsumedMl": 450,
      "fuelConsumedGallons": 0.119,
      "maxSpeedMph": 45.8,
      "averageSpeedMph": 16.2,
      "safetyEvents": []
    },
    {
      "id": "trip_47794727_20250705_550",
      "vehicleId": "47794727",
      "driverId": "20000035",
      "startMs": 1751680313000,
      "endMs": 1751682653000,
      "startAddress": "35286 Smith Via",
      "endAddress": "550 Gary Junction",
      "startCoords": {
        "latitude": 40.698,
        "longitude": -111.925584
      },
      "endCoords": {
        "latitude": 40.673167,
        "longitude": -111.87451
      },
      "distanceMeters": 17423.4,
      "durationMs": 2340000,
      "drivingDurationMs": 1795834,
      "idlingDurationMs": 544166,
      "fuelConsumedMl": 787,
      "fuelConsumedGallons": 0.208,
      "maxSpeedMph": 34.5,
      "averageSpeedMph": 16.7,
      "safetyEvents": []
    },
    {
      "id": "trip_47794727_20250705_590",
      "vehicleId": "47794727",
      "driverId": "20000039",
      "startMs": 1751709270000,
      "endMs": 1751711370000,
      "startAddress": "58699 Pollard Grove",
      "endAddress": "715 Herman Mills Apt. 277",
      "startCoords": {
        "latitude": 40.745966,
        "longitude": -111.876485
      },
      "endCoords": {
        "latitude": 40.717263,
        "longitude": -111.807651
      },
      "distanceMeters": 16847.5,
      "durationMs": 2100000,
      "drivingDurationMs": 1670952,
      "idlingDurationMs": 429048,
      "fuelConsumedMl": 761,
      "fuelConsumedGallons": 0.201,
      "maxSpeedMph": 46.1,
      "averageSpeedMph": 17.9,
      "safetyEvents": []
    },
    {
      "id": "trip_47794727_20250705_634",
      "vehicleId": "47794727",
      "driverId": "20000033",
      "startMs": 1751730131000,
      "endMs": 1751732111000,
      "startAddress": "659 Matthew Curve Suite 025",
      "endAddress": "14358 Bradley Ways Apt. 775",
      "startCoords": {
        "latitude": 40.675353,
        "longitude": -111.813114
      },
      "endCoords": {
        "latitude": 40.747255,
        "longitude": -111.891217
      },
      "distanceMeters": 11701.6,
      "durationMs": 1980000,
      "drivingDurationMs": 1709638,
      "idlingDurationMs": 270362,
      "fuelConsumedMl": 530,
      "fuelConsumedGallons": 0.14,
      "maxSpeedMph": 40.3,
      "averageSpeedMph": 13.2,
      "safetyEvents": []
    },
    {
      "id": "trip_47794727_20250706_683",
      "vehicleId": "47794727",
      "driverId": "20000038",
      "startMs": 1751767472000,
      "endMs": 1751769932000,
      "startAddress": "8510 David Parkway Apt. 414",
      "endAddress": "170 April Manors",
      "startCoords": {
        "latitude": 40.715832,
        "longitude": -111.804745
      },
      "endCoords": {
        "latitude": 40.742317,
        "longitude": -111.93498
      },
      "distanceMeters": 17597.3,
      "durationMs": 2460000,
      "drivingDurationMs": 1882740,
      "idlingDurationMs": 577260,
      "fuelConsumedMl": 795,
      "fuelConsumedGallons": 0.21,
      "maxSpeedMph": 42.7,
      "averageSpeedMph": 16.0,
      "safetyEvents": []
    },
    {
      "id": "trip_47794727_20250706_732",
      "vehicleId": "47794727",
      "driverId": "20000036",
      "startMs": 1751808086000,
      "endMs": 1751811188000,
      "startAddress": "54176 Smith Island Suite 893",
      "endAddress": "64576 Knapp Viaduct",
      "startCoords": {
        "latitude": 40.772107,
        "longitude": -111.844451
      },
      "endCoords": {
        "latitude": 40.79421,
        "longitude": -111.82692
      },
      "distanceMeters": 19342.6,
      "durationMs": 3102000,
      "drivingDurationMs": 2653457,
      "idlingDurationMs": 448543,
      "fuelConsumedMl": 874,
      "fuelConsumedGallons": 0.231,
      "maxSpeedMph": 40.2,
      "averageSpeedMph": 13.9,
      "safetyEvents": []
    },
    {
      "id": "trip_47794727_20250707_778",
      "vehicleId": "47794727",
      "driverId": "20000037",
      "startMs": 1751863069000,
      "endMs": 1751865409000,
      "startAddress": "74711 Williams Lock",
      "endAddress": "579 Gaines Point Suite 312",
      "startCoords": {
        "latitude": 40.685495,
        "longitude": -111.908537
      },
      "endCoords": {
        "latitude": 40.776482,
        "longitude": -111.820853
      },
      "distanceMeters": 19123.2,
      "durationMs": 2340000,
      "drivingDurationMs": 2054033,
      "idlingDurationMs": 285967,
      "fuelConsumedMl": 867,
      "fuelConsumedGallons": 0.229,
      "maxSpeedMph": 36.5,
      "averageSpeedMph": 18.3,
      "safetyEvents": []
    },
    {
      "id": "trip_47794727_20250707_829",
      "vehicleId": "47794727",
      "driverId": "20000033",
      "startMs": 1751899630000,
      "endMs": 1751901730000,
      "startAddress": "577 Boyer Club Apt. 886",
      "endAddress": "500 Heidi Ranch Suite 678",
      "startCoords": {
        "latitude": 40.686937,
        "longitude": -111.865703
      },
      "endCoords": {
        "latitude": 40.701137,
        "longitude": -111.897884
      },
      "distanceMeters": 17297.9,
      "durationMs": 2100000,
      "drivingDurationMs": 1726052,
      "idlingDurationMs": 373948,
      "fuelConsumedMl": 784,
      "fuelConsumedGallons": 0.207,
      "maxSpeedMph": 39.6,
      "averageSpeedMph": 18.4,
      "safetyEvents": []
    },
    {
      "id": "trip_47794727_20250707_871",
      "vehicleId": "47794727",
      "driverId": "20000036",
      "startMs": 1751922081000,
      "endMs": 1751927065000,
      "startAddress": "036 Walter Drives",
      "endAddress": "89404 Beverly Trail Suite 160",
      "startCoords": {
        "latitude": 40.727168,
        "longitude": -111.829491
      },
      "endCoords": {
        "latitude": 40.743483,
        "longitude": -111.960675
      },
      "distanceMeters": 39382.3,
      "durationMs": 4984000,
      "drivingDurationMs": 3762449,
      "idlingDurationMs": 1221551,
      "fuelConsumedMl": 1783,
      "fuelConsumedGallons": 0.471,
      "maxSpeedMph": 31.3,
      "averageSpeedMph": 17.7,
      "safetyEvents": []
    },
    {
      "id": "trip_47794727_20250708_906",
      "vehicleId": "47794727",
      "driverId": "20000033",
      "startMs": 1751945655000,
      "endMs": 1751946975000,
      "startAddress": "399 Sanford Roads",
      "endAddress": "022 Christopher Motorway Suite 106",
      "startCoords": {
        "latitude": 40.731872,
        "longitude": -111.871044
      },
      "endCoords": {
        "latitude": 40.793894,
        "longitude": -111.87284
      },
      "distanceMeters": 9701.4,
      "durationMs": 1320000,
      "drivingDurationMs": 1152558,
      "idlingDurationMs": 167442,
      "fuelConsumedMl": 439,
      "fuelConsumedGallons": 0.116,
      "maxSpeedMph": 42.5,
      "averageSpeedMph": 16.4,
      "safetyEvents": []
    },
    {
      "id": "trip_47794727_20250708_940",
      "vehicleId": "47794727",
      "driverId": "20000036",
      "startMs": 1751977686000,
      "endMs": 1751979666000,
      "startAddress": "29000 Lawrence Island",
      "endAddress": "1736 Pierce Haven Apt. 591",
      "startCoords": {
        "latitude": 40.784804,
        "longitude": -111.86182
      },
      "endCoords": {
        "latitude": 40.719848,
        "longitude": -111.953028
      },
      "distanceMeters": 13953.5,
      "durationMs": 1980000,
      "drivingDurationMs": 1729152,
      "idlingDurationMs": 250848,
      "fuelConsumedMl": 632,
      "fuelConsumedGallons": 0.167,
      "maxSpeedMph": 42.5,
      "averageSpeedMph": 15.8,
      "safetyEvents": []
    }
  ]
}