{
  "vehicleId": "47794727",
  "vehicleName": "SLC-MOTO-03",
  "month": "2025_07",
  "pagination": {
    "endCursor": "trip_47794727_20250715_944",
    "hasNextPage": false
  },
  "trips": [
    {
      "id": "trip_47794727_20250701_25706",
      "vehicleId": "47794727",
      "driverId": "20000035",
      "startMs": 1751339852000,
      "endMs": 1751341292000,
      "startAddress": "57697 Angel Mountain",
      "endAddress": "3000 Martin Village",
      "startCoords": {
        "latitude": 40.767797,
        "longitude": -111.845971
      },
      "endCoords": {
        "latitude": 40.734373,
        "longitude": -111.842224
      },
      "distanceMeters": 8781.6,
      "durationMs": 1440000,
      "drivingDurationMs": 1131162,
      "idlingDurationMs": 308838,
      "fuelConsumedMl": 397,
      "fuelConsumedGallons": 0.105,
      "maxSpeedMph": 41.6,
      "averageSpeedMph": 13.6,
      "safetyEvents": []
    },
    {
      "id": "trip_47794727_20250701_047",
      "vehicleId": "47794727",
      "driverId": "20000037",
      "startMs": 1751386194000,
      "endMs": 1751387634000,
      "startAddress": "93781 Powers Causeway",
      "endAddress": "6143 Wagner Pike Suite 437",
      "startCoords": {
        "latitude": 40.680149,
        "longitude": -111.878458
      },
      "endCoords": {
        "latitude": 40.720579,
        "longitude": -111.825206
      },
      "distanceMeters": 8907.7,
      "durationMs": 1440000,
      "drivingDurationMs": 1199682,
      "idlingDurationMs": 240318,
      "fuelConsumedMl": 401,
      "fuelConsumedGallons": 0.106,
      "maxSpeedMph": 42.6,
      "averageSpeedMph": 13.8,
      "safetyEvents": []
    },
    {
      "id": "trip_47794727_20250701_086",
      "vehicleId": "47794727",
      "driverId": "20000036",
      "startMs": 1751406126000,
      "endMs": 1751407806000,
      "startAddress": "39091 Brian Streets",
      "endAddress": "025 Andrew Greens",
      "startCoords": {
        "latitude": 40.754253,
        "longitude": -111.810742
      },
      "endCoords": {
        "latitude": 40.694234,
        "longitude": -111.870878
      },
      "distanceMeters": 11456.6,
      "durationMs": 1680000,
      "drivingDurationMs": 1341681,
      "idlingDurationMs": 338319,
      "fuelConsumedMl": 519,
      "fuelConsumedGallons": 0.137,
      "maxSpeedMph": 45.0,
      "averageSpeedMph": 15.3,
      "safetyEvents": []
    },
    {
      "id": "trip_47794727_20250702_129",
      "vehicleId": "47794727",
      "driverId": "20000034",
      "startMs": 1751439478000,
      "endMs": 1751441578000,
      "startAddress": "3295 Robinson Parks",
      "endAddress": "59757 Carolyn Squares",
      "startCoords": {
        "latitude": 40.702487,
        "longitude": -111.908736
      },
      "endCoords": {
        "latitude": 40.723335,
        "longitude": -111.839905
      },
      "distanceMeters": 16307.3,
      "durationMs": 2100000,
      "drivingDurationMs": 1765061,
      "idlingDurationMs": 334939,
      "fuelConsumedMl": 738,
      "fuelConsumedGallons": 0.195,
      "maxSpeedMph": 34.7,
      "averageSpeedMph": 17.4,
      "safetyEvents": []
    },
    {
      "id": "trip_47794727_20250702_175",
      "vehicleId": "47794727",
      "driverId": "20000035",
      "startMs": 1751459814000,
      "endMs": 1751466477000,
      "startAddress": "690 Howard Drives Suite 061",
      "endAddress": "5673 Shaun Groves",
      "startCoords": {
        "latitude": 40.757571,
        "longitude": -111.812181
      },
      "endCoords": {
        "latitude": 40.739349,
        "longitude": -111.811523
      },
      "distanceMeters": 35448.9,
      "durationMs": 6663000,
      "drivingDurationMs": 5782022,
      "idlingDurationMs": 880978,
      "fuelConsumedMl": 1605,
      "fuelConsumedGallons": 0.424,
      "maxSpeedMph": 35.3,
      "averageSpeedMph": 11.9,
      "safetyEvents": []
    },
    {
      "id": "trip_47794727_20250702_216",
      "vehicleId": "47794727",
      "driverId": "20000039",
      "startMs": 1751483890000,
      "endMs": 1751485510000,
      "startAddress": "46051 Anita Junction",
      "endAddress": "27163 Natasha Square Apt. 356",
      "startCoords": {
        "latitude": 40.66406,
        "longitude": -111.836638
      },
      "endCoords": {
        "latitude": 40.750982,
        "longitude": -111.928955
      },
      "distanceMeters": 14613.5,
      "durationMs": 1620000,
      "drivingDurationMs": 1429815,
      "idlingDurationMs": 190185,
      "fuelConsumedMl": 662,
      "fuelConsumedGallons": 0.175,
      "maxSpeedMph": 40.8,
      "averageSpeedMph": 20.2,
      "safetyEvents": []
    },
    {
      "id": "trip_47794727_20250703_259",
      "vehicleId": "47794727",
      "driverId": "20000037",
      "startMs": 1751510866000,
      "endMs": 1751512486000,
      "startAddress": "21711 Payne Lodge Suite 658",
      "endAddress": "981 Ryan Park",
      "startCoords": {
        "latitude": 40.744255,
        "longitude": -111.841614
      },
      "endCoords": {
        "latitude": 40.671135,
        "longitude": -111.868618
      },
      "distanceMeters": 9554.8,
      "durationMs": 1620000,
      "drivingDurationMs": 1380673,
      "idlingDurationMs": 239327,
      "fuelConsumedMl": 432,
      "fuelConsumedGallons": 0.114,
      "maxSpeedMph": 44.1,
      "averageSpeedMph": 13.2,
      "safetyEvents": []
    },
    {
      "id": "trip_47794727_20250703_304",
      "vehicleId": "47794727",
      "driverId": "20000036",
      "startMs": 1751536077000,
      "endMs": 1751543162000,
      "startAddress": "691 Brian Terrace Apt. 242",
      "endAddress": "8268 Edwin Corner",
      "startCoords": {
        "latitude": 40.740535,
        "longitude": -111.874722
      },
      "endCoords": {
        "latitude": 40.673105,
        "longitude": -111.951914
      },
      "distanceMeters": 43362.7,
      "durationMs": 7085000,
      "drivingDurationMs": 5434007,
      "idlingDurationMs": 1650993,
      "fuelConsumedMl": 1961,
      "fuelConsumedGallons": 0.518,
      "maxSpeedMph": 36.8,
      "averageSpeedMph": 13.7,
      "safetyEvents": []
    },
    {
      "id": "trip_47794727_20250703_348",
      "vehicleId": "47794727",
      "driverId": "20000039",
      "startMs": 1751563118000,
      "endMs": 1751568645000,
      "startAddress": "9351 Nancy Street Apt. 401",
      "endAddress": "331 Richardson Roads",
      "startCoords": {
        "latitude": 40.783903,
        "longitude": -111.865586
      },
      "endCoords": {
        "latitude": 40.777652,
        "longitude": -111.858901
      },
      "distanceMeters": 47081.1,
      "durationMs": 5527000,
      "drivingDurationMs": 4859742,
      "idlingDurationMs": 667258,
      "fuelConsumedMl": 2131,
      "fuelConsumedGallons": 0.563,
      "maxSpeedMph": 40.7,
      "averageSpeedMph": 19.1,
      "safetyEvents": []
    },
    {
      "id": "trip_47794727_20250703_387",
      "vehicleId": "47794727",
      "driverId": "20000036",
      "startMs": 1751585957000,
      "endMs": 1751587937000,
      "startAddress": "851 Cantu Ranch Apt. 509",
      "endAddress": "6882 Mendoza Pine Apt. 072",
      "startCoords": {
        "latitude": 40.78472,
        "longitude": -111.802095
      },
      "endCoords": {
        "latitude": 40.747173,
        "longitude": -111.80905
      },
      "distanceMeters": 14955.6,
      "durationMs": 1980000,
      "drivingDurationMs": 1595894,
      "idlingDurationMs": 384106,
      "fuelConsumedMl": 678,
      "fuelConsumedGallons": 0.179,
      "maxSpeedMph": 42.7,
      "averageSpeedMph": 16.9,
      "safetyEvents": []
    },
    {
      "id": "trip_47794727_20250704_423",
      "vehicleId": "47794727",
      "driverId": "20000037",
      "startMs": 1751610616000,
      "endMs": 1751612536000,
      "startAddress": "2964 Turner Pike",
      "endAddress": "68681 Charles Tunnel Apt. 306",
      "startCoords": {
        "latitude": 40.794947,
        "longitude": -111.876416
      },
      "endCoords": {
        "latitude": 40.714356,
        "longitude": -111.961142
      },
      "distanceMeters": 11430.6,
      "durationMs": 1920000,
      "drivingDurationMs": 1493132,
      "idlingDurationMs": 426868,
      "fuelConsumedMl": 519,
      "fuelConsumedGallons": 0.137,
      "maxSpeedMph": 34.4,
      "averageSpeedMph": 13.3,
      "safetyEvents": []
    },
    {
      "id": "trip_47794727_20250704_472",
      "vehicleId": "47794727",
      "driverId": "20000037",
      "startMs": 1751634874000,
      "endMs": 1751636494000,
      "startAddress": "321 Michael Ports Suite 183",
      "endAddress": "734 Natalie Canyon",
      "startCoords": {
        "latitude": 40.795898,
        "longitude": -111.819042
      },
      "endCoords": {
        "latitude": 40.664784,
        "longitude": -111.895097
      },
      "distanceMeters": 10760.5,
      "durationMs": 1620000,
      "drivingDurationMs": 1291315,
      "idlingDurationMs": 328685,
      "fuelConsumedMl": 488,
      "fuelConsumedGallons": 0.129,
      "maxSpeedMph": 36.3,
      "averageSpeedMph": 14.9,
      "safetyEvents": []
    },
    {
      "id": "trip_47794727_20250704_511",
      "vehicleId": "47794727",
      "driverId": "20000033",
      "startMs": 1751653399000,
      "endMs": 1751654779000,
      "startAddress": "436 Charles Plain",
      "endAddress": "14603 Jones Path Apt. 605",
      "startCoords": {
        "latitude": 40.708051,
        "longitude": -111.941709
      },
      "endCoords": {
        "latitude": 40.698289,
        "longitude": -111.79573
      },
      "distanceMeters": 9993.8,
      "durationMs": 1380000,
      "drivingDurationMs": 1104763,
      "idlingDurationMs": 275237,
      "fuelConsumedMl": 450,
      "fuelConsumedGallons": 0.119,
      "maxSpeedMph": 45.8,
      "averageSpeedMph": 16.2,
      "safetyEvents": []
    },
    {
      "id": "trip_47794727_20250705_550",
      "vehicleId": "47794727",
      "driverId": "20000035",
      "startMs": 1751680313000,
      "endMs": 1751682653000,
      "startAddress": "35286 Smith Via",
      "endAddress": "550 Gary Junction",
      "startCoords": {
        "latitude": 40.698,
        "longitude": -111.925584
      },
      "endCoords": {
        "latitude": 40.673167,
        "longitude": -111.87451
      },
      "distanceMeters": 17423.4,
      "durationMs": 2340000,
      "drivingDurationMs": 1795834,
      "idlingDurationMs": 544166,
      "fuelConsumedMl": 787,
      "fuelConsumedGallons": 0.208,
      "maxSpeedMph": 34.5,
      "averageSpeedMph": 16.7,
      "safetyEvents": []
    },
    {
      "id": "trip_47794727_20250705_590",
      "vehicleId": "47794727",
      "driverId": "20000039",
      "startMs": 1751709270000,
      "endMs": 1751711370000,
      "startAddress": "58699 Pollard Grove",
      "endAddress": "715 Herman Mills Apt. 277",
      "startCoords": {
        "latitude": 40.745966,
        "longitude": -111.876485
      },
      "endCoords": {
        "latitude": 40.717263,
        "longitude": -111.807651
      },
      "distanceMeters": 16847.5,
      "durationMs": 2100000,
      "drivingDurationMs": 1670952,
      "idlingDurationMs": 429048,
      "fuelConsumedMl": 761,
      "fuelConsumedGallons": 0.201,
      "maxSpeedMph": 46.1,
      "averageSpeedMph": 17.9,
      "safetyEvents": []
    },
    {
      "id": "trip_47794727_20250705_634",
      "vehicleId": "47794727",
      "driverId": "20000033",
      "startMs": 1751730131000,
      "endMs": 1751732111000,
      "startAddress": "659 Matthew Curve Suite 025",
      "endAddress": "14358 Bradley Ways Apt. 775",
      "startCoords": {
        "latitude": 40.675353,
        "longitude": -111.813114
      },
      "endCoords": {
        "latitude": 40.747255,
        "longitude": -111.891217
      },
      "distanceMeters": 11701.6,
      "durationMs": 1980000,
      "drivingDurationMs": 1709638,
      "idlingDurationMs": 270362,
      "fuelConsumedMl": 530,
      "fuelConsumedGallons": 0.14,
      "maxSpeedMph": 40.3,
      "averageSpeedMph": 13.2,
      "safetyEvents": []
    },
    {
      "id": "trip_47794727_20250706_683",
      "vehicleId": "47794727",
      "driverId": "20000038",
      "startMs": 1751767472000,
      "endMs": 1751769932000,
      "startAddress": "8510 David Parkway Apt. 414",
      "endAddress": "170 April Manors",
      "startCoords": {
        "latitude": 40.715832,
        "longitude": -111.804745
      },
      "endCoords": {
        "latitude": 40.742317,
        "longitude": -111.93498
      },
      "distanceMeters": 17597.3,
      "durationMs": 2460000,
      "drivingDurationMs": 1882740,
      "idlingDurationMs": 577260,
      "fuelConsumedMl": 795,
      "fuelConsumedGallons": 0.21,
      "maxSpeedMph": 42.7,
      "averageSpeedMph": 16.0,
      "safetyEvents": []
    },
    {
      "id": "trip_47794727_20250706_732",
      "vehicleId": "47794727",
      "driverId": "20000036",
      "startMs": 1751808086000,
      "endMs": 1751811188000,
      "startAddress": "54176 Smith Island Suite 893",
      "endAddress": "64576 Knapp Viaduct",
      "startCoords": {
        "latitude": 40.772107,
        "longitude": -111.844451
      },
      "endCoords": {
        "latitude": 40.79421,
        "longitude": -111.82692
      },
      "distanceMeters": 19342.6,
      "durationMs": 3102000,
      "drivingDurationMs": 2653457,
      "idlingDurationMs": 448543,
      "fuelConsumedMl": 874,
      "fuelConsumedGallons": 0.231,
      "maxSpeedMph": 40.2,
      "averageSpeedMph": 13.9,
      "safetyEvents": []
    },
    {
      "id": "trip_47794727_20250707_778",
      "vehicleId": "47794727",
      "driverId": "20000037",
      "startMs": 1751863069000,
      "endMs": 1751865409000,
      "startAddress": "74711 Williams Lock",
      "endAddress": "579 Gaines Point Suite 312",
      "startCoords": {
        "latitude": 40.685495,
        "longitude": -111.908537
      },
      "endCoords": {
        "latitude": 40.776482,
        "longitude": -111.820853
      },
      "distanceMeters": 19123.2,
      "durationMs": 2340000,
      "drivingDurationMs": 2054033,
      "idlingDurationMs": 285967,
      "fuelConsumedMl": 867,
      "fuelConsumedGallons": 0.229,
      "maxSpeedMph": 36.5,
      "averageSpeedMph": 18.3,
      "safetyEvents": []
    },
    {
      "id": "trip_47794727_20250707_829",
      "vehicleId": "47794727",
      "driverId": "20000033",
      "startMs": 1751899630000,
      "endMs": 1751901730000,
      "startAddress": "577 Boyer Club Apt. 886",
      "endAddress": "500 Heidi Ranch Suite 678",
      "startCoords": {
        "latitude": 40.686937,
        "longitude": -111.865703
      },
      "endCoords": {
        "latitude": 40.701137,
        "longitude": -111.897884
      },
      "distanceMeters": 17297.9,
      "durationMs": 2100000,
      "drivingDurationMs": 1726052,
      "idlingDurationMs": 373948,
      "fuelConsumedMl": 784,
      "fuelConsumedGallons": 0.207,
      "maxSpeedMph": 39.6,
      "averageSpeedMph": 18.4,
      "safetyEvents": []
    },
    {
      "id": "trip_47794727_20250707_871",
      "vehicleId": "47794727",
      "driverId": "20000036",
      "startMs": 1751922081000,
      "endMs": 1751927065000,
      "startAddress": "036 Walter Drives",
      "endAddress": "89404 Beverly Trail Suite 160",
      "startCoords": {
        "latitude": 40.727168,
        "longitude": -111.829491
      },
      "endCoords": {
        "latitude": 40.743483,
        "longitude": -111.960675
      },
      "distanceMeters": 39382.3,
      "durationMs": 4984000,
      "drivingDurationMs": 3762449,
      "idlingDurationMs": 1221551,
      "fuelConsumedMl": 1783,
      "fuelConsumedGallons": 0.471,
      "maxSpeedMph": 31.3,
      "averageSpeedMph": 17.7,
      "safetyEvents": []
    },
    {
      "id": "trip_47794727_20250708_906",
      "vehicleId": "47794727",
      "driverId": "20000033",
      "startMs": 1751945655000,
      "endMs": 1751946975000,
      "startAddress": "399 Sanford Roads",
      "endAddress": "022 Christopher Motorway Suite 106",
      "startCoords": {
        "latitude": 40.731872,
        "longitude": -111.871044
      },
      "endCoords": {
        "latitude": 40.793894,
        "longitude": -111.87284
      },
      "distanceMeters": 9701.4,
      "durationMs": 1320000,
      "drivingDurationMs": 1152558,
      "idlingDurationMs": 167442,
      "fuelConsumedMl": 439,
      "fuelConsumedGallons": 0.116,
      "maxSpeedMph": 42.5,
      "averageSpeedMph": 16.4,
      "safetyEvents": []
    },
    {
      "id": "trip_47794727_20250708_940",
      "vehicleId": "47794727",
      "driverId": "20000036",
      "startMs": 1751977686000,
      "endMs": 1751979666000,
      "startAddress": "29000 Lawrence Island",
      "endAddress": "1736 Pierce Haven Apt. 591",
      "startCoords": {
        "latitude": 40.784804,
        "longitude": -111.86182
      },
      "endCoords": {
        "latitude": 40.719848,
        "longitude": -111.953028
      },
      "distanceMeters": 13953.5,
      "durationMs": 1980000,
      "drivingDurationMs": 1729152,
      "idlingDurationMs": 250848,
      "fuelConsumedMl": 632,
      "fuelConsumedGallons": 0.167,
      "maxSpeedMph": 42.5,
      "averageSpeedMph": 15.8,
      "safetyEvents": []
    },
    {
      "id": "trip_47794727_20250708_051",
      "vehicleId": "47794727",
      "driverId": "20000037",
      "startMs": 1751990994000,
      "endMs": 1751992434000,
      "startAddress": "788 Murphy Parkway",
      "endAddress": "906 Walton Ports Suite 342",
      "startCoords": {
        "latitude": 40.720119,
        "longitude": -111.947545
      },
      "endCoords": {
        "latitude": 40.675976,
        "longitude": -111.892945
      },
      "distanceMeters": 8143.6,
      "durationMs": 1440000,
      "drivingDurationMs": 1198817,
      "idlingDurationMs": 241183,
      "fuelConsumedMl": 367,
      "fuelConsumedGallons": 0.097,
      "maxSpeedMph": 36.8,
      "averageSpeedMph": 12.7,
      "safetyEvents": []
    },
    {
      "id": "trip_47794727_20250708_090",
      "vehicleId": "47794727",
      "driverId": "20000036",
      "startMs": 1752010926000,
      "endMs": 1752012606000,
      "startAddress": "2660 James Union Apt. 585",
      "endAddress": "53017 Erin Roads",
      "startCoords": {
        "latitude": 40.789319,
        "longitude": -111.838541
      },
      "endCoords": {
        "latitude": 40.763852,
        "longitude": -111.921738
      },
      "distanceMeters": 8006.5,
      "durationMs": 1680000,
      "drivingDurationMs": 1271261,
      "idlingDurationMs": 408739,
      "fuelConsumedMl": 363,
      "fuelConsumedGallons": 0.096,
      "maxSpeedMph": 32.0,
      "averageSpeedMph": 10.7,
      "safetyEvents": []
    },
    {
      "id": "trip_47794727_20250709_133",
      "vehicleId": "47794727",
      "driverId": "20000034",
      "startMs": 1752044278000,
      "endMs": 1752046378000,
      "startAddress": "9814 Jeremy Track",
      "endAddress": "7609 Roth Ford Suite 740",
      "startCoords": {
        "latitude": 40.704786,
        "longitude": -111.818326
      },
      "endCoords": {
        "latitude": 40.72656,
        "longitude": -111.825819
      },
      "distanceMeters": 12364.7,
      "durationMs": 2100000,
      "drivingDurationMs": 1716548,
      "idlingDurationMs": 383452,
      "fuelConsumedMl": 560,
      "fuelConsumedGallons": 0.148,
      "maxSpeedMph": 46.3,
      "averageSpeedMph": 13.2,
      "safetyEvents": []
    },
    {
      "id": "trip_47794727_20250709_179",
      "vehicleId": "47794727",
      "driverId": "20000035",
      "startMs": 1752064614000,
      "endMs": 1752071277000,
      "startAddress": "2796 Fernando Expressway",
      "endAddress": "0333 Christine Junction Suite 523",
      "startCoords": {
        "latitude": 40.712123,
        "longitude": -111.849749
      },
      "endCoords": {
        "latitude": 40.738983,
        "longitude": -111.882387
      },
      "distanceMeters": 37289.4,
      "durationMs": 6663000,
      "drivingDurationMs": 5623599,
      "idlingDurationMs": 1039401,
      "fuelConsumedMl": 1688,
      "fuelConsumedGallons": 0.446,
      "maxSpeedMph": 33.0,
      "averageSpeedMph": 12.5,
      "safetyEvents": []
    },
    {
      "id": "trip_47794727_20250709_220",
      "vehicleId": "47794727",
      "driverId": "20000039",
      "startMs": 1752088690000,
      "endMs": 1752090310000,
      "startAddress": "470 Pruitt Forges Apt. 105",
      "endAddress": "309 Crawford Flats",
      "startCoords": {
        "latitude": 40.680183,
        "longitude": -111.932406
      },
      "endCoords": {
        "latitude": 40.767599,
        "longitude": -111.793685
      },
      "distanceMeters": 12107.0,
      "durationMs": 1620000,
      "drivingDurationMs": 1444528,
      "idlingDurationMs": 175472,
      "fuelConsumedMl": 549,
      "fuelConsumedGallons": 0.145,
      "maxSpeedMph": 44.9,
      "averageSpeedMph": 16.7,
      "safetyEvents": []
    },
    {
      "id": "trip_47794727_20250710_263",
      "vehicleId": "47794727",
      "driverId": "20000037",
      "startMs": 1752115666000,
      "endMs": 1752117286000,
      "startAddress": "903 Chambers Rapid Suite 458",
      "endAddress": "356 Erin Radial Apt. 274",
      "startCoords": {
        "latitude": 40.775596,
        "longitude": -111.813551
      },
      "endCoords": {
        "latitude": 40.739451,
        "longitude": -111.819289
      },
      "distanceMeters": 13767.8,
      "durationMs": 1620000,
      "drivingDurationMs": 1372651,
      "idlingDurationMs": 247349,
      "fuelConsumedMl": 625,
      "fuelConsumedGallons": 0.165,
      "maxSpeedMph": 36.9,
      "averageSpeedMph": 19.0,
      "safetyEvents": []
    },
    {
      "id": "trip_47794727_20250710_308",
      "vehicleId": "47794727",
      "driverId": "20000036",
      "startMs": 1752140877000,
      "endMs": 1752147962000,
      "startAddress": "9509 Jonathan Corner Suite 664",
      "endAddress": "16556 Jeffrey Points",
      "startCoords": {
        "latitude": 40.721289,
        "longitude": -111.922604
      },
      "endCoords": {
        "latitude": 40.76763,
        "longitude": -111.853542
      },
      "distanceMeters": 63432.8,
      "durationMs": 7085000,
      "drivingDurationMs": 6043419,
      "idlingDurationMs": 1041581,
      "fuelConsumedMl": 2869,
      "fuelConsumedGallons": 0.758,
      "maxSpeedMph": 31.7,
      "averageSpeedMph": 20.0,
      "safetyEvents": []
    },
    {
      "id": "trip_47794727_20250710_352",
      "vehicleId": "47794727",
      "driverId": "20000039",
      "startMs": 1752167918000,
      "endMs": 1752173445000,
      "startAddress": "7451 Kevin Harbors Apt. 947",
      "endAddress": "81560 Bruce Estates",
      "startCoords": {
        "latitude": 40.717012,
        "longitude": -111.959614
      },
      "endCoords": {
        "latitude": 40.671475,
        "longitude": -111.890324
      },
      "distanceMeters": 45696.7,
      "durationMs": 5527000,
      "drivingDurationMs": 4531668,
      "idlingDurationMs": 995332,
      "fuelConsumedMl": 2067,
      "fuelConsumedGallons": 0.546,
      "maxSpeedMph": 45.2,
      "averageSpeedMph": 18.5,
      "safetyEvents": []
    },
    {
      "id": "trip_47794727_20250710_391",
      "vehicleId": "47794727",
      "driverId": "20000036",
      "startMs": 1752190757000,
      "endMs": 1752192737000,
      "startAddress": "739 Allen Bypass",
      "endAddress": "8565 John Mountains",
      "startCoords": {
        "latitude": 40.679079,
        "longitude": -111.855409
      },
      "endCoords": {
        "latitude": 40.737686,
        "longitude": -111.79784
      },
      "distanceMeters": 14250.4,
      "durationMs": 1980000,
      "drivingDurationMs": 1557110,
      "idlingDurationMs": 422890,
      "fuelConsumedMl": 644,
      "fuelConsumedGallons": 0.17,
      "maxSpeedMph": 33.0,
      "averageSpeedMph": 16.1,
      "safetyEvents": []
    },
    {
      "id": "trip_47794727_20250711_427",
      "vehicleId": "47794727",
      "driverId": "20000037",
      "startMs": 1752215416000,
      "endMs": 1752217336000,
      "startAddress": "741 Caleb Spring Apt. 670",
      "endAddress": "862 Long Shoal",
      "startCoords": {
        "latitude": 40.687895,
        "longitude": -111.830032
      },
      "endCoords": {
        "latitude": 40.771467,
        "longitude": -111.884385
      },
      "distanceMeters": 11740.3,
      "durationMs": 1920000,
      "drivingDurationMs": 1617790,
      "idlingDurationMs": 302210,
      "fuelConsumedMl": 530,
      "fuelConsumedGallons": 0.14,
      "maxSpeedMph": 43.7,
      "averageSpeedMph": 13.7,
      "safetyEvents": []
    },
    {
      "id": "trip_47794727_20250711_476",
      "vehicleId": "47794727",
      "driverId": "20000037",
      "startMs": 1752239674000,
      "endMs": 1752241294000,
      "startAddress": "887 Rivera Harbors Suite 847",
      "endAddress": "34019 Jennifer Prairie Apt. 605",
      "startCoords": {
        "latitude": 40.742424,
        "longitude": -111.80003
      },
      "endCoords": {
        "latitude": 40.67924,
        "longitude": -111.862039
      },
      "distanceMeters": 10148.1,
      "durationMs": 1620000,
      "drivingDurationMs": 1344180,
      "idlingDurationMs": 275820,
      "fuelConsumedMl": 458,
      "fuelConsumedGallons": 0.121,
      "maxSpeedMph": 45.0,
      "averageSpeedMph": 14.0,
      "safetyEvents": []
    },
    {
      "id": "trip_47794727_20250711_515",
      "vehicleId": "47794727",
      "driverId": "20000033",
      "startMs": 1752258199000,
      "endMs": 1752259579000,
      "startAddress": "93409 Richard Lake Apt. 811",
      "endAddress": "4034 Hoffman Field",
      "startCoords": {
        "latitude": 40.665066,
        "longitude": -111.913513
      },
      "endCoords": {
        "latitude": 40.711936,
        "longitude": -111.773791
      },
      "distanceMeters": 10953.3,
      "durationMs": 1380000,
      "drivingDurationMs": 1039432,
      "idlingDurationMs": 340568,
      "fuelConsumedMl": 496,
      "fuelConsumedGallons": 0.131,
      "maxSpeedMph": 35.3,
      "averageSpeedMph": 17.8,
      "safetyEvents": []
    },
    {
      "id": "trip_47794727_20250712_554",
      "vehicleId": "47794727",
      "driverId": "20000035",
      "startMs": 1752285113000,
      "endMs": 1752287453000,
      "startAddress": "9522 Anna Wall",
      "endAddress": "03717 Cox Point Suite 627",
      "startCoords": {
        "latitude": 40.789069,
        "longitude": -111.871833
      },
      "endCoords": {
        "latitude": 40.724524,
        "longitude": -111.955324
      },
      "distanceMeters": 19989.9,
      "durationMs": 2340000,
      "drivingDurationMs": 2037901,
      "idlingDurationMs": 302099,
      "fuelConsumedMl": 905,
      "fuelConsumedGallons": 0.239,
      "maxSpeedMph": 44.5,
      "averageSpeedMph": 19.1,
      "safetyEvents": []
    },
    {
      "id": "trip_47794727_20250712_594",
      "vehicleId": "47794727",
      "driverId": "20000039",
      "startMs": 1752314070000,
      "endMs": 1752316170000,
      "startAddress": "1553 Nash Glen Suite 024",
      "endAddress": "3772 Angie Groves",
      "startCoords": {
        "latitude": 40.744066,
        "longitude": -111.915856
      },
      "endCoords": {
        "latitude": 40.747034,
        "longitude": -111.837079
      },
      "distanceMeters": 12699.8,
      "durationMs": 2100000,
      "drivingDurationMs": 1727161,
      "idlingDurationMs": 372839,
      "fuelConsumedMl": 575,
      "fuelConsumedGallons": 0.152,
      "maxSpeedMph": 39.3,
      "averageSpeedMph": 13.5,
      "safetyEvents": []
    },
    {
      "id": "trip_47794727_20250712_638",
      "vehicleId": "47794727",
      "driverId": "20000033",
      "startMs": 1752334931000,
      "endMs": 1752336911000,
      "startAddress": "75100 Berger Vista",
      "endAddress": "706 Luis Club Apt. 218",
      "startCoords": {
        "latitude": 40.716493,
        "longitude": -111.857037
      },
      "endCoords": {
        "latitude": 40.68379,
        "longitude": -111.776304
      },
      "distanceMeters": 9991.0,
      "durationMs": 1980000,
      "drivingDurationMs": 1536534,
      "idlingDurationMs": 443466,
      "fuelConsumedMl": 450,
      "fuelConsumedGallons": 0.119,
      "maxSpeedMph": 35.7,
      "averageSpeedMph": 11.3,
      "safetyEvents": []
    },
    {
      "id": "trip_47794727_20250713_687",
      "vehicleId": "47794727",
      "driverId": "20000038",
      "startMs": 1752372272000,
      "endMs": 1752374732000,
      "startAddress": "1387 Douglas Crossroad Apt. 981",
      "endAddress": "720 Hunter Fork",
      "startCoords": {
        "latitude": 40.770178,
        "longitude": -111.933025
      },
      "endCoords": {
        "latitude": 40.699396,
        "longitude": -111.841443
      },
      "distanceMeters": 16124.0,
      "durationMs": 2460000,
      "drivingDurationMs": 1940993,
      "idlingDurationMs": 519007,
      "fuelConsumedMl": 731,
      "fuelConsumedGallons": 0.193,
      "maxSpeedMph": 34.4,
      "averageSpeedMph": 14.7,
      "safetyEvents": []
    },
    {
      "id": "trip_47794727_20250713_736",
      "vehicleId": "47794727",
      "driverId": "20000036",
      "startMs": 1752412886000,
      "endMs": 1752415988000,
      "startAddress": "14303 Amy Field",
      "endAddress": "01118 Barnett Locks",
      "startCoords": {
        "latitude": 40.774889,
        "longitude": -111.785434
      },
      "endCoords": {
        "latitude": 40.694749,
        "longitude": -111.841937
      },
      "distanceMeters": 17763.5,
      "durationMs": 3102000,
      "drivingDurationMs": 2559521,
      "idlingDurationMs": 542479,
      "fuelConsumedMl": 803,
      "fuelConsumedGallons": 0.212,
      "maxSpeedMph": 41.6,
      "averageSpeedMph": 12.8,
      "safetyEvents": []
    },
    {
      "id": "trip_47794727_20250714_782",
      "vehicleId": "47794727",
      "driverId": "20000037",
      "startMs": 1752467869000,
      "endMs": 1752470209000,
      "startAddress": "72993 Courtney Junction Suite 024",
      "endAddress": "398 Wade Flat",
      "startCoords": {
        "latitude": 40.746702,
        "longitude": -111.911322
      },
      "endCoords": {
        "latitude": 40.750976,
        "longitude": -111.900008
      },
      "distanceMeters": 15151.6,
      "durationMs": 2340000,
      "drivingDurationMs": 1857595,
      "idlingDurationMs": 482405,
      "fuelConsumedMl": 685,
      "fuelConsumedGallons": 0.181,
      "maxSpeedMph": 38.6,
      "averageSpeedMph": 14.5,
      "safetyEvents": []
    },
    {
      "id": "trip_47794727_20250714_833",
      "vehicleId": "47794727",
      "driverId": "20000033",
      "startMs": 1752504430000,
      "endMs": 1752506530000,
      "startAddress": "6574 Brianna Overpass",
      "endAddress": "54673 Charles Glen Apt. 954",
      "startCoords": {
        "latitude": 40.791269,
        "longitude": -111.836743
      },
      "endCoords": {
        "latitude": 40.777857,
        "longitude": -111.918001
      },
      "distanceMeters": 16087.6,
      "durationMs": 2100000,
      "drivingDurationMs": 1706798,
      "idlingDurationMs": 393202,
      "fuelConsumedMl": 727,
      "fuelConsumedGallons": 0.192,
      "maxSpeedMph": 42.5,
      "averageSpeedMph": 17.1,
      "safetyEvents": []
    },
    {
      "id": "trip_47794727_20250714_875",
      "vehicleId": "47794727",
      "driverId": "20000036",
      "startMs": 1752526881000,
      "endMs": 1752531865000,
      "startAddress": "475 Luna Flats Suite 704",
      "endAddress": "678 Carrie Lakes",
      "startCoords": {
        "latitude": 40.754244,
        "longitude": -111.795787
      },
      "endCoords": {
        "latitude": 40.65641,
        "longitude": -111.88162
      },
      "distanceMeters": 41465.9,
      "durationMs": 4984000,
      "drivingDurationMs": 3978926,
      "idlingDurationMs": 1005074,
      "fuelConsumedMl": 1874,
      "fuelConsumedGallons": 0.495,
      "maxSpeedMph": 40.9,
      "averageSpeedMph": 18.6,
      "safetyEvents": []
    },
    {
      "id": "trip_47794727_20250715_910",
      "vehicleId": "47794727",
      "driverId": "20000033",
      "startMs": 1752550455000,
      "endMs": 1752551775000,
      "startAddress": "334 Dean Forest Apt. 922",
      "endAddress": "57772 Bryant Lake Suite 502",
      "startCoords": {
        "latitude": 40.709103,
        "longitude": -111.868362
      },
      "endCoords": {
        "latitude": 40.695482,
        "longitude": -111.957365
      },
      "distanceMeters": 8356.6,
      "durationMs": 1320000,
      "drivingDurationMs": 1098672,
      "idlingDurationMs": 221328,
      "fuelConsumedMl": 379,
      "fuelConsumedGallons": 0.1,
      "maxSpeedMph": 37.8,
      "averageSpeedMph": 14.2,
      "safetyEvents": []
    },
    {
      "id": "trip_47794727_20250715_944",
      "vehicleId": "47794727",
      "driverId": "20000036",
      "startMs": 1752582486000,
      "endMs": 1752584466000,
      "startAddress": "2962 Gina Brook",
      "endAddress": "322 Kelly Mission Apt. 546",
      "startCoords": {
        "latitude": 40.76049,
        "longitude": -111.953733
      },
      "endCoords": {
        "latitude": 40.730002,
        "longitude": -111.808488
      },
      "distanceMeters": 10032.3,
      "durationMs": 1980000,
      "drivingDurationMs": 1533891,
      "idlingDurationMs": 446109,
      "fuelConsumedMl": 454,
      "fuelConsumedGallons": 0.12,
      "maxSpeedMph": 41.7,
      "averageSpeedMph": 11.3,
      "safetyEvents": []
    }
  ]
}