{
  "vehicleId": "49375627",
  "vehicleName": "DEN-MOTO-06",
  "month": "2025_07",
  "pagination": {
    "endCursor": "trip_49375627_20250715_928",
    "hasNextPage": false
  },
  "trips": [
    {
      "id": "trip_49375627_20250701_25704",
      "vehicleId": "49375627",
      "driverId": "20000009",
      "startMs": 1751338338000,
      "endMs": 1751340198000,
      "startAddress": "727 Montgomery Summit",
      "endAddress": "35861 Hendrix Shoals",
      "startCoords": {
        "latitude": 39.756821,
        "longitude": -105.037541
      },
      "endCoords": {
        "latitude": 39.720457,
        "longitude": -105.044138
      },
      "distanceMeters": 13656.9,
      "durationMs": 1860000,
      "drivingDurationMs": 1624185,
      "idlingDurationMs": 235815,
      "fuelConsumedMl": 617,
      "fuelConsumedGallons": 0.163,
      "maxSpeedMph": 42.5,
      "averageSpeedMph": 16.4,
      "safetyEvents": []
    },
    {
      "id": "trip_49375627_20250701_25731",
      "vehicleId": "49375627",
      "driverId": "20000016",
      "startMs": 1751362630000,
      "endMs": 1751365030000,
      "startAddress": "307 Kelly Squares Suite 311",
      "endAddress": "27706 Vaughn Place Apt. 644",
      "startCoords": {
        "latitude": 39.794996,
        "longitude": -105.002055
      },
      "endCoords": {
        "latitude": 39.738415,
        "longitude": -104.903902
      },
      "distanceMeters": 20920.8,
      "durationMs": 2400000,
      "drivingDurationMs": 2004716,
      "idlingDurationMs": 395284,
      "fuelConsumedMl": 946,
      "fuelConsumedGallons": 0.25,
      "maxSpeedMph": 37.7,
      "averageSpeedMph": 19.5,
      "safetyEvents": []
    },
    {
      "id": "trip_49375627_20250701_025",
      "vehicleId": "49375627",
      "driverId": "20000014",
      "startMs": 1751373181000,
      "endMs": 1751382123000,
      "startAddress": "67560 Bradley Branch Apt. 929",
      "endAddress": "21543 Joshua Plains",
      "startCoords": {
        "latitude": 39.690026,
        "longitude": -105.019144
      },
      "endCoords": {
        "latitude": 39.787452,
        "longitude": -104.905207
      },
      "distanceMeters": 60766.0,
      "durationMs": 8942000,
      "drivingDurationMs": 6837068,
      "idlingDurationMs": 2104932,
      "fuelConsumedMl": 2748,
      "fuelConsumedGallons": 0.726,
      "maxSpeedMph": 42.6,
      "averageSpeedMph": 15.2,
      "safetyEvents": []
    },
    {
      "id": "trip_49375627_20250701_054",
      "vehicleId": "49375627",
      "driverId": "20000020",
      "startMs": 1751390195000,
      "endMs": 1751407354000,
      "startAddress": "69420 Jennifer Ramp Apt. 135",
      "endAddress": "901 Howard Port Suite 706",
      "startCoords": {
        "latitude": 39.708615,
        "longitude": -104.953436
      },
      "endCoords": {
        "latitude": 39.827477,
        "longitude": -104.93515
      },
      "distanceMeters": 105668.3,
      "durationMs": 17159000,
      "drivingDurationMs": 15093755,
      "idlingDurationMs": 2065245,
      "fuelConsumedMl": 4781,
      "fuelConsumedGallons": 1.263,
      "maxSpeedMph": 31.9,
      "averageSpeedMph": 13.8,
      "safetyEvents": []
    },
    {
      "id": "trip_49375627_20250701_088",
      "vehicleId": "49375627",
      "driverId": "20000021",
      "startMs": 1751408216000,
      "endMs": 1751418032000,
      "startAddress": "453 David Brook Apt. 896",
      "endAddress": "583 Mercado Vista Suite 566",
      "startCoords": {
        "latitude": 39.764519,
        "longitude": -104.911815
      },
      "endCoords": {
        "latitude": 39.787752,
        "longitude": -105.033546
      },
      "distanceMeters": 74480.7,
      "durationMs": 9816000,
      "drivingDurationMs": 8114392,
      "idlingDurationMs": 1701608,
      "fuelConsumedMl": 3369,
      "fuelConsumedGallons": 0.89,
      "maxSpeedMph": 38.6,
      "averageSpeedMph": 17.0,
      "safetyEvents": []
    },
    {
      "id": "trip_49375627_20250702_118",
      "vehicleId": "49375627",
      "driverId": "20000010",
      "startMs": 1751433438000,
      "endMs": 1751440312000,
      "startAddress": "1817 Kenneth Drive",
      "endAddress": "5946 Sarah Drives Apt. 272",
      "startCoords": {
        "latitude": 39.809452,
        "longitude": -105.04165
      },
      "endCoords": {
        "latitude": 39.690104,
        "longitude": -105.005089
      },
      "distanceMeters": 50109.8,
      "durationMs": 6874000,
      "drivingDurationMs": 5726275,
      "idlingDurationMs": 1147725,
      "fuelConsumedMl": 2267,
      "fuelConsumedGallons": 0.599,
      "maxSpeedMph": 41.8,
      "averageSpeedMph": 16.3,
      "safetyEvents": []
    },
    {
      "id": "trip_49375627_20250702_146",
      "vehicleId": "49375627",
      "driverId": "20000011",
      "startMs": 1751448239000,
      "endMs": 1751452419000,
      "startAddress": "90113 Ferguson Fords",
      "endAddress": "133 Michael Path",
      "startCoords": {
        "latitude": 39.81762,
        "longitude": -105.031383
      },
      "endCoords": {
        "latitude": 39.765019,
        "longitude": -104.981045
      },
      "distanceMeters": 21926.5,
      "durationMs": 4180000,
      "drivingDurationMs": 3247427,
      "idlingDurationMs": 932573,
      "fuelConsumedMl": 992,
      "fuelConsumedGallons": 0.262,
      "maxSpeedMph": 44.3,
      "averageSpeedMph": 11.7,
      "safetyEvents": []
    },
    {
      "id": "trip_49375627_20250702_174",
      "vehicleId": "49375627",
      "driverId": "20000005",
      "startMs": 1751459352000,
      "endMs": 1751474238000,
      "startAddress": "699 Luis Isle",
      "endAddress": "7599 Wolfe Brooks Suite 290",
      "startCoords": {
        "latitude": 39.790018,
        "longitude": -104.921488
      },
      "endCoords": {
        "latitude": 39.748532,
        "longitude": -105.006861
      },
      "distanceMeters": 82786.1,
      "durationMs": 14886000,
      "drivingDurationMs": 11929697,
      "idlingDurationMs": 2956303,
      "fuelConsumedMl": 3744,
      "fuelConsumedGallons": 0.989,
      "maxSpeedMph": 37.2,
      "averageSpeedMph": 12.4,
      "safetyEvents": []
    },
    {
      "id": "trip_49375627_20250702_205",
      "vehicleId": "49375627",
      "driverId": "20000022",
      "startMs": 1751475270000,
      "endMs": 1751485848000,
      "startAddress": "217 Rogers Cape Apt. 584",
      "endAddress": "8793 Lisa Trail Apt. 028",
      "startCoords": {
        "latitude": 39.816325,
        "longitude": -104.97175
      },
      "endCoords": {
        "latitude": 39.747495,
        "longitude": -105.046825
      },
      "distanceMeters": 70444.9,
      "durationMs": 10578000,
      "drivingDurationMs": 9182145,
      "idlingDurationMs": 1395855,
      "fuelConsumedMl": 3187,
      "fuelConsumedGallons": 0.842,
      "maxSpeedMph": 43.1,
      "averageSpeedMph": 14.9,
      "safetyEvents": []
    },
    {
      "id": "trip_49375627_20250702_236",
      "vehicleId": "49375627",
      "driverId": "20000017",
      "startMs": 1751493267000,
      "endMs": 1751496667000,
      "startAddress": "042 Howard Mount Suite 286",
      "endAddress": "51085 Walker Fields Suite 545",
      "startCoords": {
        "latitude": 39.705108,
        "longitude": -104.953853
      },
      "endCoords": {
        "latitude": 39.823317,
        "longitude": -105.01313
      },
      "distanceMeters": 25940.7,
      "durationMs": 3400000,
      "drivingDurationMs": 2950339,
      "idlingDurationMs": 449661,
      "fuelConsumedMl": 1173,
      "fuelConsumedGallons": 0.31,
      "maxSpeedMph": 44.9,
      "averageSpeedMph": 17.1,
      "safetyEvents": []
    },
    {
      "id": "trip_49375627_20250703_264",
      "vehicleId": "49375627",
      "driverId": "20000018",
      "startMs": 1751513616000,
      "endMs": 1751522514000,
      "startAddress": "225 Rodriguez Valleys",
      "endAddress": "92581 Collier Ways Suite 212",
      "startCoords": {
        "latitude": 39.688544,
        "longitude": -105.083938
      },
      "endCoords": {
        "latitude": 39.721368,
        "longitude": -105.068005
      },
      "distanceMeters": 52683.1,
      "durationMs": 8898000,
      "drivingDurationMs": 7405867,
      "idlingDurationMs": 1492133,
      "fuelConsumedMl": 2385,
      "fuelConsumedGallons": 0.63,
      "maxSpeedMph": 43.9,
      "averageSpeedMph": 13.2,
      "safetyEvents": []
    },
    {
      "id": "trip_49375627_20250703_292",
      "vehicleId": "49375627",
      "driverId": "20000006",
      "startMs": 1751532235000,
      "endMs": 1751534695000,
      "startAddress": "1181 Shaw Summit Suite 466",
      "endAddress": "4776 William Track",
      "startCoords": {
        "latitude": 39.713527,
        "longitude": -104.965066
      },
      "endCoords": {
        "latitude": 39.757714,
        "longitude": -104.924964
      },
      "distanceMeters": 15061.9,
      "durationMs": 2460000,
      "drivingDurationMs": 2132321,
      "idlingDurationMs": 327679,
      "fuelConsumedMl": 681,
      "fuelConsumedGallons": 0.18,
      "maxSpeedMph": 34.4,
      "averageSpeedMph": 13.7,
      "safetyEvents": []
    },
    {
      "id": "trip_49375627_20250703_323",
      "vehicleId": "49375627",
      "driverId": "20000002",
      "startMs": 1751545214000,
      "endMs": 1751564706000,
      "startAddress": "62643 Sanders Row",
      "endAddress": "6078 Marie Village Suite 199",
      "startCoords": {
        "latitude": 39.824599,
        "longitude": -105.038
      },
      "endCoords": {
        "latitude": 39.690947,
        "longitude": -104.934649
      },
      "distanceMeters": 158661.4,
      "durationMs": 19492000,
      "drivingDurationMs": 15658888,
      "idlingDurationMs": 3833112,
      "fuelConsumedMl": 7177,
      "fuelConsumedGallons": 1.896,
      "maxSpeedMph": 38.2,
      "averageSpeedMph": 18.2,
      "safetyEvents": []
    },
    {
      "id": "trip_49375627_20250703_353",
      "vehicleId": "49375627",
      "driverId": "20000019",
      "startMs": 1751565036000,
      "endMs": 1751575027000,
      "startAddress": "79959 Lang Loop Apt. 110",
      "endAddress": "764 Cox Spring Suite 657",
      "startCoords": {
        "latitude": 39.796958,
        "longitude": -104.902582
      },
      "endCoords": {
        "latitude": 39.782235,
        "longitude": -105.060155
      },
      "distanceMeters": 56532.8,
      "durationMs": 9991000,
      "drivingDurationMs": 8907069,
      "idlingDurationMs": 1083931,
      "fuelConsumedMl": 2559,
      "fuelConsumedGallons": 0.676,
      "maxSpeedMph": 35.1,
      "averageSpeedMph": 12.7,
      "safetyEvents": []
    },
    {
      "id": "trip_49375627_20250703_385",
      "vehicleId": "49375627",
      "driverId": "20000021",
      "startMs": 1751584756000,
      "endMs": 1751587036000,
      "startAddress": "360 Julie Ramp",
      "endAddress": "01461 Jessica Rapid",
      "startCoords": {
        "latitude": 39.75291,
        "longitude": -105.003886
      },
      "endCoords": {
        "latitude": 39.795406,
        "longitude": -104.996052
      },
      "distanceMeters": 14026.9,
      "durationMs": 2280000,
      "drivingDurationMs": 1819584,
      "idlingDurationMs": 460416,
      "fuelConsumedMl": 636,
      "fuelConsumedGallons": 0.168,
      "maxSpeedMph": 36.2,
      "averageSpeedMph": 13.8,
      "safetyEvents": []
    },
    {
      "id": "trip_49375627_20250704_417",
      "vehicleId": "49375627",
      "driverId": "20000013",
      "startMs": 1751604783000,
      "endMs": 1751606823000,
      "startAddress": "56161 Lee Green",
      "endAddress": "981 Stacey Walk Apt. 008",
      "startCoords": {
        "latitude": 39.721651,
        "longitude": -105.017913
      },
      "endCoords": {
        "latitude": 39.771516,
        "longitude": -104.951342
      },
      "distanceMeters": 13561.3,
      "durationMs": 2040000,
      "drivingDurationMs": 1652325,
      "idlingDurationMs": 387675,
      "fuelConsumedMl": 613,
      "fuelConsumedGallons": 0.162,
      "maxSpeedMph": 32.2,
      "averageSpeedMph": 14.9,
      "safetyEvents": []
    },
    {
      "id": "trip_49375627_20250704_445",
      "vehicleId": "49375627",
      "driverId": "20000015",
      "startMs": 1751622507000,
      "endMs": 1751625027000,
      "startAddress": "5744 Rodriguez Cape Suite 692",
      "endAddress": "65434 Greer Port Apt. 604",
      "startCoords": {
        "latitude": 39.74815,
        "longitude": -105.072959
      },
      "endCoords": {
        "latitude": 39.772184,
        "longitude": -105.000423
      },
      "distanceMeters": 15679.0,
      "durationMs": 2520000,
      "drivingDurationMs": 2075052,
      "idlingDurationMs": 444948,
      "fuelConsumedMl": 708,
      "fuelConsumedGallons": 0.187,
      "maxSpeedMph": 43.5,
      "averageSpeedMph": 13.9,
      "safetyEvents": []
    },
    {
      "id": "trip_49375627_20250704_476",
      "vehicleId": "49375627",
      "driverId": "20000020",
      "startMs": 1751637188000,
      "endMs": 1751639408000,
      "startAddress": "887 Rivera Harbors Suite 847",
      "endAddress": "34019 Jennifer Prairie Apt. 605",
      "startCoords": {
        "latitude": 39.770024,
        "longitude": -104.92573
      },
      "endCoords": {
        "latitude": 39.70684,
        "longitude": -104.987739
      },
      "distanceMeters": 13906.7,
      "durationMs": 2220000,
      "drivingDurationMs": 1842025,
      "idlingDurationMs": 377975,
      "fuelConsumedMl": 628,
      "fuelConsumedGallons": 0.166,
      "maxSpeedMph": 45.0,
      "averageSpeedMph": 14.0,
      "safetyEvents": []
    },
    {
      "id": "trip_49375627_20250704_506",
      "vehicleId": "49375627",
      "driverId": "20000009",
      "startMs": 1751651000000,
      "endMs": 1751653040000,
      "startAddress": "65874 Keith Plains",
      "endAddress": "237 Greene Avenue",
      "startCoords": {
        "latitude": 39.696098,
        "longitude": -104.948502
      },
      "endCoords": {
        "latitude": 39.718762,
        "longitude": -104.970823
      },
      "distanceMeters": 16375.4,
      "durationMs": 2040000,
      "drivingDurationMs": 1788267,
      "idlingDurationMs": 251733,
      "fuelConsumedMl": 742,
      "fuelConsumedGallons": 0.196,
      "maxSpeedMph": 42.7,
      "averageSpeedMph": 18.0,
      "safetyEvents": []
    },
    {
      "id": "trip_49375627_20250704_538",
      "vehicleId": "49375627",
      "driverId": "20000019",
      "startMs": 1751672307000,
      "endMs": 1751674347000,
      "startAddress": "9986 Douglas Prairie",
      "endAddress": "910 Allison Ferry Suite 276",
      "startCoords": {
        "latitude": 39.691124,
        "longitude": -105.029729
      },
      "endCoords": {
        "latitude": 39.788976,
        "longitude": -104.90683
      },
      "distanceMeters": 12240.6,
      "durationMs": 2040000,
      "drivingDurationMs": 1791750,
      "idlingDurationMs": 248250,
      "fuelConsumedMl": 553,
      "fuelConsumedGallons": 0.146,
      "maxSpeedMph": 43.4,
      "averageSpeedMph": 13.4,
      "safetyEvents": []
    },
    {
      "id": "trip_49375627_20250705_570",
      "vehicleId": "49375627",
      "driverId": "20000019",
      "startMs": 1751692114000,
      "endMs": 1751695415000,
      "startAddress": "5789 Cochran Springs",
      "endAddress": "8774 Camacho Mall Apt. 488",
      "startCoords": {
        "latitude": 39.747993,
        "longitude": -105.020777
      },
      "endCoords": {
        "latitude": 39.731632,
        "longitude": -105.050419
      },
      "distanceMeters": 26784.5,
      "durationMs": 3301000,
      "drivingDurationMs": 2659218,
      "idlingDurationMs": 641782,
      "fuelConsumedMl": 1211,
      "fuelConsumedGallons": 0.32,
      "maxSpeedMph": 42.1,
      "averageSpeedMph": 18.2,
      "safetyEvents": []
    },
    {
      "id": "trip_49375627_20250705_598",
      "vehicleId": "49375627",
      "driverId": "20000004",
      "startMs": 1751713191000,
      "endMs": 1751715231000,
      "startAddress": "660 Jeffery Walks Apt. 739",
      "endAddress": "1592 Jeanne Trace Suite 101",
      "startCoords": {
        "latitude": 39.778333,
        "longitude": -105.032799
      },
      "endCoords": {
        "latitude": 39.790017,
        "longitude": -105.082579
      },
      "distanceMeters": 14779.2,
      "durationMs": 2040000,
      "drivingDurationMs": 1659089,
      "idlingDurationMs": 380911,
      "fuelConsumedMl": 670,
      "fuelConsumedGallons": 0.177,
      "maxSpeedMph": 40.2,
      "averageSpeedMph": 16.2,
      "safetyEvents": []
    },
    {
      "id": "trip_49375627_20250705_626",
      "vehicleId": "49375627",
      "driverId": "20000004",
      "startMs": 1751725195000,
      "endMs": 1751730572000,
      "startAddress": "8714 Cruz Ridge Apt. 995",
      "endAddress": "55664 James Harbors",
      "startCoords": {
        "latitude": 39.823054,
        "longitude": -105.084627
      },
      "endCoords": {
        "latitude": 39.732634,
        "longitude": -105.024147
      },
      "distanceMeters": 33836.1,
      "durationMs": 5377000,
      "drivingDurationMs": 4061016,
      "idlingDurationMs": 1315984,
      "fuelConsumedMl": 1529,
      "fuelConsumedGallons": 0.404,
      "maxSpeedMph": 44.1,
      "averageSpeedMph": 14.1,
      "safetyEvents": []
    },
    {
      "id": "trip_49375627_20250705_660",
      "vehicleId": "49375627",
      "driverId": "20000011",
      "startMs": 1751745676000,
      "endMs": 1751754287000,
      "startAddress": "9210 Melissa Union Apt. 889",
      "endAddress": "913 Kathryn Wall Apt. 575",
      "startCoords": {
        "latitude": 39.761513,
        "longitude": -104.965546
      },
      "endCoords": {
        "latitude": 39.790017,
        "longitude": -104.946113
      },
      "distanceMeters": 72298.4,
      "durationMs": 8611000,
      "drivingDurationMs": 7571128,
      "idlingDurationMs": 1039872,
      "fuelConsumedMl": 3271,
      "fuelConsumedGallons": 0.864,
      "maxSpeedMph": 36.2,
      "averageSpeedMph": 18.8,
      "safetyEvents": []
    },
    {
      "id": "trip_49375627_20250706_686",
      "vehicleId": "49375627",
      "driverId": "20000012",
      "startMs": 1751769504000,
      "endMs": 1751773097000,
      "startAddress": "07223 Henderson Wall Suite 217",
      "endAddress": "89898 Espinoza Vista Suite 767",
      "startCoords": {
        "latitude": 39.754443,
        "longitude": -104.932838
      },
      "endCoords": {
        "latitude": 39.727258,
        "longitude": -104.977561
      },
      "distanceMeters": 19486.8,
      "durationMs": 3593000,
      "drivingDurationMs": 2785141,
      "idlingDurationMs": 807859,
      "fuelConsumedMl": 882,
      "fuelConsumedGallons": 0.233,
      "maxSpeedMph": 35.5,
      "averageSpeedMph": 12.1,
      "safetyEvents": []
    },
    {
      "id": "trip_49375627_20250706_709",
      "vehicleId": "49375627",
      "driverId": "20000001",
      "startMs": 1751791287000,
      "endMs": 1751795885000,
      "startAddress": "73174 Scott Coves",
      "endAddress": "24023 Phillip Shores",
      "startCoords": {
        "latitude": 39.725281,
        "longitude": -104.951786
      },
      "endCoords": {
        "latitude": 39.695583,
        "longitude": -104.994783
      },
      "distanceMeters": 31968.1,
      "durationMs": 4598000,
      "drivingDurationMs": 3796236,
      "idlingDurationMs": 801764,
      "fuelConsumedMl": 1446,
      "fuelConsumedGallons": 0.382,
      "maxSpeedMph": 36.7,
      "averageSpeedMph": 15.6,
      "safetyEvents": []
    },
    {
      "id": "trip_49375627_20250706_742",
      "vehicleId": "49375627",
      "driverId": "20000019",
      "startMs": 1751816209000,
      "endMs": 1751821254000,
      "startAddress": "12151 Cynthia Knoll Suite 244",
      "endAddress": "220 Peter Manors Suite 339",
      "startCoords": {
        "latitude": 39.689815,
        "longitude": -104.951723
      },
      "endCoords": {
        "latitude": 39.796482,
        "longitude": -105.077303
      },
      "distanceMeters": 30291.7,
      "durationMs": 5045000,
      "drivingDurationMs": 4123753,
      "idlingDurationMs": 921247,
      "fuelConsumedMl": 1370,
      "fuelConsumedGallons": 0.362,
      "maxSpeedMph": 41.3,
      "averageSpeedMph": 13.4,
      "safetyEvents": []
    },
    {
      "id": "trip_49375627_20250706_771",
      "vehicleId": "49375627",
      "driverId": "20000009",
      "startMs": 1751841433000,
      "endMs": 1751843533000,
      "startAddress": "41832 Lopez Mission",
      "endAddress": "52021 Daniel Mews Suite 954",
      "startCoords": {
        "latitude": 39.812337,
        "longitude": -105.079976
      },
      "endCoords": {
        "latitude": 39.709583,
        "longitude": -105.055743
      },
      "distanceMeters": 17550.4,
      "durationMs": 2100000,
      "drivingDurationMs": 1678552,
      "idlingDurationMs": 421448,
      "fuelConsumedMl": 795,
      "fuelConsumedGallons": 0.21,
      "maxSpeedMph": 32.9,
      "averageSpeedMph": 18.7,
      "safetyEvents": []
    },
    {
      "id": "trip_49375627_20250707_797",
      "vehicleId": "49375627",
      "driverId": "20000010",
      "startMs": 1751882334000,
      "endMs": 1751886101000,
      "startAddress": "10184 Pedro Shore",
      "endAddress": "4418 Nancy Curve",
      "startCoords": {
        "latitude": 39.685646,
        "longitude": -104.964273
      },
      "endCoords": {
        "latitude": 39.750058,
        "longitude": -105.011465
      },
      "distanceMeters": 27173.6,
      "durationMs": 3767000,
      "drivingDurationMs": 3380177,
      "idlingDurationMs": 386823,
      "fuelConsumedMl": 1230,
      "fuelConsumedGallons": 0.325,
      "maxSpeedMph": 37.2,
      "averageSpeedMph": 16.1,
      "safetyEvents": []
    },
    {
      "id": "trip_49375627_20250707_826",
      "vehicleId": "49375627",
      "driverId": "20000001",
      "startMs": 1751898739000,
      "endMs": 1751907048000,
      "startAddress": "071 Jacqueline Trail Suite 524",
      "endAddress": "918 Moore Stream Apt. 882",
      "startCoords": {
        "latitude": 39.813488,
        "longitude": -104.972819
      },
      "endCoords": {
        "latitude": 39.704897,
        "longitude": -105.011682
      },
      "distanceMeters": 52906.1,
      "durationMs": 8309000,
      "drivingDurationMs": 7049159,
      "idlingDurationMs": 1259841,
      "fuelConsumedMl": 2392,
      "fuelConsumedGallons": 0.632,
      "maxSpeedMph": 44.4,
      "averageSpeedMph": 14.2,
      "safetyEvents": []
    },
    {
      "id": "trip_49375627_20250707_856",
      "vehicleId": "49375627",
      "driverId": "20000012",
      "startMs": 1751913704000,
      "endMs": 1751917859000,
      "startAddress": "3163 Allen Plaza",
      "endAddress": "0172 Ponce Drive Apt. 336",
      "startCoords": {
        "latitude": 39.763457,
        "longitude": -105.075396
      },
      "endCoords": {
        "latitude": 39.687895,
        "longitude": -104.968463
      },
      "distanceMeters": 36897.0,
      "durationMs": 4155000,
      "drivingDurationMs": 3571667,
      "idlingDurationMs": 583333,
      "fuelConsumedMl": 1669,
      "fuelConsumedGallons": 0.441,
      "maxSpeedMph": 36.0,
      "averageSpeedMph": 19.9,
      "safetyEvents": []
    },
    {
      "id": "trip_49375627_20250707_888",
      "vehicleId": "49375627",
      "driverId": "20000017",
      "startMs": 1751932385000,
      "endMs": 1751933645000,
      "startAddress": "369 Peter Coves",
      "endAddress": "502 Kent Freeway Suite 097",
      "startCoords": {
        "latitude": 39.734955,
        "longitude": -104.997101
      },
      "endCoords": {
        "latitude": 39.77322,
        "longitude": -105.05272
      },
      "distanceMeters": 11246.8,
      "durationMs": 1260000,
      "drivingDurationMs": 1110189,
      "idlingDurationMs": 149811,
      "fuelConsumedMl": 507,
      "fuelConsumedGallons": 0.134,
      "maxSpeedMph": 39.1,
      "averageSpeedMph": 20.0,
      "safetyEvents": []
    },
    {
      "id": "trip_49375627_20250708_917",
      "vehicleId": "49375627",
      "driverId": "20000020",
      "startMs": 1751954400000,
      "endMs": 1751956740000,
      "startAddress": "2515 Morris Junctions",
      "endAddress": "9096 Garcia Square",
      "startCoords": {
        "latitude": 39.801119,
        "longitude": -105.023593
      },
      "endCoords": {
        "latitude": 39.696106,
        "longitude": -104.928508
      },
      "distanceMeters": 16673.0,
      "durationMs": 2340000,
      "drivingDurationMs": 1912032,
      "idlingDurationMs": 427968,
      "fuelConsumedMl": 753,
      "fuelConsumedGallons": 0.199,
      "maxSpeedMph": 38.4,
      "averageSpeedMph": 15.9,
      "safetyEvents": []
    },
    {
      "id": "trip_49375627_20250708_026",
      "vehicleId": "49375627",
      "driverId": "20000008",
      "startMs": 1751976514000,
      "endMs": 1751985772000,
      "startAddress": "322 Krueger Gateway",
      "endAddress": "02351 Eric Landing",
      "startCoords": {
        "latitude": 39.717458,
        "longitude": -105.042698
      },
      "endCoords": {
        "latitude": 39.822913,
        "longitude": -104.940071
      },
      "distanceMeters": 64309.9,
      "durationMs": 9258000,
      "drivingDurationMs": 7287354,
      "idlingDurationMs": 1970646,
      "fuelConsumedMl": 2907,
      "fuelConsumedGallons": 0.768,
      "maxSpeedMph": 43.7,
      "averageSpeedMph": 15.5,
      "safetyEvents": []
    },
    {
      "id": "trip_49375627_20250708_053",
      "vehicleId": "49375627",
      "driverId": "20000021",
      "startMs": 1751992736000,
      "endMs": 1751999356000,
      "startAddress": "90739 Katie Pass Apt. 982",
      "endAddress": "82653 Steven Mount Apt. 864",
      "startCoords": {
        "latitude": 39.714657,
        "longitude": -104.972541
      },
      "endCoords": {
        "latitude": 39.783761,
        "longitude": -104.89974
      },
      "distanceMeters": 34422.8,
      "durationMs": 6620000,
      "drivingDurationMs": 5188460,
      "idlingDurationMs": 1431540,
      "fuelConsumedMl": 1556,
      "fuelConsumedGallons": 0.411,
      "maxSpeedMph": 42.3,
      "averageSpeedMph": 11.6,
      "safetyEvents": []
    },
    {
      "id": "trip_49375627_20250708_082",
      "vehicleId": "49375627",
      "driverId": "20000008",
      "startMs": 1752006952000,
      "endMs": 1752016283000,
      "startAddress": "580 Martin Locks Apt. 211",
      "endAddress": "47220 Perez Mountains Apt. 774",
      "startCoords": {
        "latitude": 39.795383,
        "longitude": -105.016152
      },
      "endCoords": {
        "latitude": 39.802166,
        "longitude": -105.042128
      },
      "distanceMeters": 63202.0,
      "durationMs": 9331000,
      "drivingDurationMs": 7664158,
      "idlingDurationMs": 1666842,
      "fuelConsumedMl": 2858,
      "fuelConsumedGallons": 0.755,
      "maxSpeedMph": 42.6,
      "averageSpeedMph": 15.2,
      "safetyEvents": []
    },
    {
      "id": "trip_49375627_20250709_115",
      "vehicleId": "49375627",
      "driverId": "20000022",
      "startMs": 1752031075000,
      "endMs": 1752032635000,
      "startAddress": "31977 Mitchell Mews",
      "endAddress": "9514 William Manors Suite 823",
      "startCoords": {
        "latitude": 39.824772,
        "longitude": -105.000564
      },
      "endCoords": {
        "latitude": 39.787381,
        "longitude": -105.007882
      },
      "distanceMeters": 12643.7,
      "durationMs": 1560000,
      "drivingDurationMs": 1208652,
      "idlingDurationMs": 351348,
      "fuelConsumedMl": 572,
      "fuelConsumedGallons": 0.151,
      "maxSpeedMph": 43.2,
      "averageSpeedMph": 18.1,
      "safetyEvents": []
    },
    {
      "id": "trip_49375627_20250709_143",
      "vehicleId": "49375627",
      "driverId": "20000010",
      "startMs": 1752049909000,
      "endMs": 1752051469000,
      "startAddress": "57068 Douglas Meadow Apt. 315",
      "endAddress": "30600 James Ferry Suite 550",
      "startCoords": {
        "latitude": 39.824604,
        "longitude": -104.904407
      },
      "endCoords": {
        "latitude": 39.812707,
        "longitude": -104.914701
      },
      "distanceMeters": 12365.7,
      "durationMs": 1560000,
      "drivingDurationMs": 1253092,
      "idlingDurationMs": 306908,
      "fuelConsumedMl": 560,
      "fuelConsumedGallons": 0.148,
      "maxSpeedMph": 36.2,
      "averageSpeedMph": 17.7,
      "safetyEvents": []
    },
    {
      "id": "trip_49375627_20250709_172",
      "vehicleId": "49375627",
      "driverId": "20000001",
      "startMs": 1752062592000,
      "endMs": 1752065522000,
      "startAddress": "453 Jones Isle",
      "endAddress": "144 Peters Union",
      "startCoords": {
        "latitude": 39.699492,
        "longitude": -104.93712
      },
      "endCoords": {
        "latitude": 39.817771,
        "longitude": -104.948331
      },
      "distanceMeters": 24353.3,
      "durationMs": 2930000,
      "drivingDurationMs": 2627074,
      "idlingDurationMs": 302926,
      "fuelConsumedMl": 1102,
      "fuelConsumedGallons": 0.291,
      "maxSpeedMph": 36.4,
      "averageSpeedMph": 18.6,
      "safetyEvents": []
    },
    {
      "id": "trip_49375627_20250709_198",
      "vehicleId": "49375627",
      "driverId": "20000011",
      "startMs": 1752076358000,
      "endMs": 1752078818000,
      "startAddress": "82896 Cummings Route Apt. 360",
      "endAddress": "494 Mcdowell Rapid Apt. 085",
      "startCoords": {
        "latitude": 39.826696,
        "longitude": -105.007191
      },
      "endCoords": {
        "latitude": 39.827251,
        "longitude": -104.916535
      },
      "distanceMeters": 22078.6,
      "durationMs": 2460000,
      "drivingDurationMs": 2155704,
      "idlingDurationMs": 304296,
      "fuelConsumedMl": 999,
      "fuelConsumedGallons": 0.264,
      "maxSpeedMph": 38.2,
      "averageSpeedMph": 20.1,
      "safetyEvents": []
    },
    {
      "id": "trip_49375627_20250709_230",
      "vehicleId": "49375627",
      "driverId": "20000014",
      "startMs": 1752094713000,
      "endMs": 1752099038000,
      "startAddress": "1466 Gomez Well Apt. 483",
      "endAddress": "358 Soto Walk Suite 736",
      "startCoords": {
        "latitude": 39.717093,
        "longitude": -104.928564
      },
      "endCoords": {
        "latitude": 39.743268,
        "longitude": -104.919138
      },
      "distanceMeters": 25026.3,
      "durationMs": 4325000,
      "drivingDurationMs": 3710963,
      "idlingDurationMs": 614037,
      "fuelConsumedMl": 1132,
      "fuelConsumedGallons": 0.299,
      "maxSpeedMph": 31.4,
      "averageSpeedMph": 12.9,
      "safetyEvents": []
    },
    {
      "id": "trip_49375627_20250710_258",
      "vehicleId": "49375627",
      "driverId": "20000017",
      "startMs": 1752109834000,
      "endMs": 1752111874000,
      "startAddress": "1830 Amanda Mission Suite 075",
      "endAddress": "984 Kline Prairie Suite 990",
      "startCoords": {
        "latitude": 39.766299,
        "longitude": -104.927575
      },
      "endCoords": {
        "latitude": 39.794839,
        "longitude": -104.980897
      },
      "distanceMeters": 12666.3,
      "durationMs": 2040000,
      "drivingDurationMs": 1835450,
      "idlingDurationMs": 204550,
      "fuelConsumedMl": 572,
      "fuelConsumedGallons": 0.151,
      "maxSpeedMph": 42.3,
      "averageSpeedMph": 13.9,
      "safetyEvents": []
    },
    {
      "id": "trip_49375627_20250710_289",
      "vehicleId": "49375627",
      "driverId": "20000020",
      "startMs": 1752131856000,
      "endMs": 1752139081000,
      "startAddress": "1157 Denise Fords",
      "endAddress": "900 Ashley Harbors",
      "startCoords": {
        "latitude": 39.740945,
        "longitude": -104.913963
      },
      "endCoords": {
        "latitude": 39.781915,
        "longitude": -105.042176
      },
      "distanceMeters": 42698.9,
      "durationMs": 7225000,
      "drivingDurationMs": 6103299,
      "idlingDurationMs": 1121701,
      "fuelConsumedMl": 1931,
      "fuelConsumedGallons": 0.51,
      "maxSpeedMph": 38.4,
      "averageSpeedMph": 13.2,
      "safetyEvents": []
    },
    {
      "id": "trip_49375627_20250710_319",
      "vehicleId": "49375627",
      "driverId": "20000009",
      "startMs": 1752147074000,
      "endMs": 1752156421000,
      "startAddress": "6680 Graham Square",
      "endAddress": "80403 Renee Plaza",
      "startCoords": {
        "latitude": 39.772765,
        "longitude": -105.034502
      },
      "endCoords": {
        "latitude": 39.796846,
        "longitude": -104.994026
      },
      "distanceMeters": 57022.8,
      "durationMs": 9347000,
      "drivingDurationMs": 7152387,
      "idlingDurationMs": 2194613,
      "fuelConsumedMl": 2578,
      "fuelConsumedGallons": 0.681,
      "maxSpeedMph": 39.2,
      "averageSpeedMph": 13.6,
      "safetyEvents": []
    },
    {
      "id": "trip_49375627_20250710_348",
      "vehicleId": "49375627",
      "driverId": "20000020",
      "startMs": 1752163961000,
      "endMs": 1752183326000,
      "startAddress": "9351 Nancy Street Apt. 401",
      "endAddress": "331 Richardson Roads",
      "startCoords": {
        "latitude": 39.811503,
        "longitude": -104.991286
      },
      "endCoords": {
        "latitude": 39.805252,
        "longitude": -104.984601
      },
      "distanceMeters": 164958.5,
      "durationMs": 19365000,
      "drivingDurationMs": 17027122,
      "idlingDurationMs": 2337878,
      "fuelConsumedMl": 7461,
      "fuelConsumedGallons": 1.971,
      "maxSpeedMph": 40.7,
      "averageSpeedMph": 19.1,
      "safetyEvents": []
    },
    {
      "id": "trip_49375627_20250710_383",
      "vehicleId": "49375627",
      "driverId": "20000010",
      "startMs": 1752183442000,
      "endMs": 1752185842000,
      "startAddress": "7166 Glenn Passage Apt. 463",
      "endAddress": "1621 Snow Stravenue",
      "startCoords": {
        "latitude": 39.783686,
        "longitude": -105.059032
      },
      "endCoords": {
        "latitude": 39.765438,
        "longitude": -104.93568
      },
      "distanceMeters": 16886.7,
      "durationMs": 2400000,
      "drivingDurationMs": 2041795,
      "idlingDurationMs": 358205,
      "fuelConsumedMl": 765,
      "fuelConsumedGallons": 0.202,
      "maxSpeedMph": 41.6,
      "averageSpeedMph": 15.7,
      "safetyEvents": []
    },
    {
      "id": "trip_49375627_20250711_417",
      "vehicleId": "49375627",
      "driverId": "20000019",
      "startMs": 1752207571000,
      "endMs": 1752209431000,
      "startAddress": "56161 Lee Green",
      "endAddress": "981 Stacey Walk Apt. 008",
      "startCoords": {
        "latitude": 39.721651,
        "longitude": -105.017913
      },
      "endCoords": {
        "latitude": 39.771516,
        "longitude": -104.951342
      },
      "distanceMeters": 12364.7,
      "durationMs": 1860000,
      "drivingDurationMs": 1506532,
      "idlingDurationMs": 353468,
      "fuelConsumedMl": 560,
      "fuelConsumedGallons": 0.148,
      "maxSpeedMph": 32.2,
      "averageSpeedMph": 14.9,
      "safetyEvents": []
    },
    {
      "id": "trip_49375627_20250711_444",
      "vehicleId": "49375627",
      "driverId": "20000008",
      "startMs": 1752224972000,
      "endMs": 1752232915000,
      "startAddress": "184 Tanya Mountain Suite 309",
      "endAddress": "073 Matthews Ridges",
      "startCoords": {
        "latitude": 39.777402,
        "longitude": -104.986365
      },
      "endCoords": {
        "latitude": 39.824899,
        "longitude": -105.034144
      },
      "distanceMeters": 58689.8,
      "durationMs": 7943000,
      "drivingDurationMs": 6427186,
      "idlingDurationMs": 1515814,
      "fuelConsumedMl": 2654,
      "fuelConsumedGallons": 0.701,
      "maxSpeedMph": 40.2,
      "averageSpeedMph": 16.5,
      "safetyEvents": []
    },
    {
      "id": "trip_49375627_20250711_474",
      "vehicleId": "49375627",
      "driverId": "20000004",
      "startMs": 1752239044000,
      "endMs": 1752240784000,
      "startAddress": "921 Ruiz Springs",
      "endAddress": "847 Hughes Hill Apt. 937",
      "startCoords": {
        "latitude": 39.686806,
        "longitude": -105.016608
      },
      "endCoords": {
        "latitude": 39.788146,
        "longitude": -105.040528
      },
      "distanceMeters": 10205.6,
      "durationMs": 1740000,
      "drivingDurationMs": 1333241,
      "idlingDurationMs": 406759,
      "fuelConsumedMl": 462,
      "fuelConsumedGallons": 0.122,
      "maxSpeedMph": 42.8,
      "averageSpeedMph": 13.1,
      "safetyEvents": []
    },
    {
      "id": "trip_49375627_20250711_505",
      "vehicleId": "49375627",
      "driverId": "20000014",
      "startMs": 1752254104000,
      "endMs": 1752258139000,
      "startAddress": "1580 Bethany Way",
      "endAddress": "0863 Ian Hills",
      "startCoords": {
        "latitude": 39.773556,
        "longitude": -105.004807
      },
      "endCoords": {
        "latitude": 39.816948,
        "longitude": -105.043767
      },
      "distanceMeters": 24025.2,
      "durationMs": 4035000,
      "drivingDurationMs": 3134236,
      "idlingDurationMs": 900764,
      "fuelConsumedMl": 1086,
      "fuelConsumedGallons": 0.287,
      "maxSpeedMph": 44.0,
      "averageSpeedMph": 13.3,
      "safetyEvents": []
    },
    {
      "id": "trip_49375627_20250711_539",
      "vehicleId": "49375627",
      "driverId": "20000018",
      "startMs": 1752275592000,
      "endMs": 1752277919000,
      "startAddress": "15596 Rebecca Mills",
      "endAddress": "96399 Gilbert Ranch Suite 038",
      "startCoords": {
        "latitude": 39.822169,
        "longitude": -105.087053
      },
      "endCoords": {
        "latitude": 39.794055,
        "longitude": -105.08542
      },
      "distanceMeters": 15020.1,
      "durationMs": 2327000,
      "drivingDurationMs": 2031228,
      "idlingDurationMs": 295772,
      "fuelConsumedMl": 678,
      "fuelConsumedGallons": 0.179,
      "maxSpeedMph": 45.5,
      "averageSpeedMph": 14.4,
      "safetyEvents": []
    },
    {
      "id": "trip_49375627_20250712_569",
      "vehicleId": "49375627",
      "driverId": "20000012",
      "startMs": 1752295322000,
      "endMs": 1752304714000,
      "startAddress": "11682 Christopher Overpass",
      "endAddress": "100 Hernandez Inlet",
      "startCoords": {
        "latitude": 39.739022,
        "longitude": -105.071507
      },
      "endCoords": {
        "latitude": 39.74022,
        "longitude": -104.955072
      },
      "distanceMeters": 44804.5,
      "durationMs": 9392000,
      "drivingDurationMs": 7180242,
      "idlingDurationMs": 2211758,
      "fuelConsumedMl": 2025,
      "fuelConsumedGallons": 0.535,
      "maxSpeedMph": 31.5,
      "averageSpeedMph": 10.7,
      "safetyEvents": []
    },
    {
      "id": "trip_49375627_20250712_599",
      "vehicleId": "49375627",
      "driverId": "20000002",
      "startMs": 1752316062000,
      "endMs": 1752317922000,
      "startAddress": "76078 Evelyn Ranch",
      "endAddress": "64849 Alvarez Roads Suite 383",
      "startCoords": {
        "latitude": 39.796703,
        "longitude": -105.040273
      },
      "endCoords": {
        "latitude": 39.772492,
        "longitude": -105.035912
      },
      "distanceMeters": 13544.2,
      "durationMs": 1860000,
      "drivingDurationMs": 1638617,
      "idlingDurationMs": 221383,
      "fuelConsumedMl": 613,
      "fuelConsumedGallons": 0.162,
      "maxSpeedMph": 32.0,
      "averageSpeedMph": 16.3,
      "safetyEvents": []
    },
    {
      "id": "trip_49375627_20250712_627",
      "vehicleId": "49375627",
      "driverId": "20000015",
      "startMs": 1752328824000,
      "endMs": 1752337665000,
      "startAddress": "69089 Adams Radial",
      "endAddress": "6811 Mary Ports Apt. 324",
      "startCoords": {
        "latitude": 39.777977,
        "longitude": -104.989248
      },
      "endCoords": {
        "latitude": 39.819236,
        "longitude": -104.923915
      },
      "distanceMeters": 69113.8,
      "durationMs": 8841000,
      "drivingDurationMs": 7419136,
      "idlingDurationMs": 1421864,
      "fuelConsumedMl": 3127,
      "fuelConsumedGallons": 0.826,
      "maxSpeedMph": 34.2,
      "averageSpeedMph": 17.5,
      "safetyEvents": []
    },
    {
      "id": "trip_49375627_20250712_659",
      "vehicleId": "49375627",
      "driverId": "20000007",
      "startMs": 1752347159000,
      "endMs": 1752349079000,
      "startAddress": "88550 Armstrong Groves Apt. 944",
      "endAddress": "10427 Green Fields",
      "startCoords": {
        "latitude": 39.736547,
        "longitude": -104.965709
      },
      "endCoords": {
        "latitude": 39.785331,
        "longitude": -104.982163
      },
      "distanceMeters": 12454.0,
      "durationMs": 1920000,
      "drivingDurationMs": 1593978,
      "idlingDurationMs": 326022,
      "fuelConsumedMl": 564,
      "fuelConsumedGallons": 0.149,
      "maxSpeedMph": 31.4,
      "averageSpeedMph": 14.5,
      "safetyEvents": []
    },
    {
      "id": "trip_49375627_20250713_685",
      "vehicleId": "49375627",
      "driverId": "20000018",
      "startMs": 1752368378000,
      "endMs": 1752370778000,
      "startAddress": "3344 Dan Loop Suite 100",
      "endAddress": "0104 James Freeway Suite 557",
      "startCoords": {
        "latitude": 39.708938,
        "longitude": -105.00073
      },
      "endCoords": {
        "latitude": 39.76559,
        "longitude": -104.915506
      },
      "distanceMeters": 11851.4,
      "durationMs": 2400000,
      "drivingDurationMs": 1930030,
      "idlingDurationMs": 469970,
      "fuelConsumedMl": 538,
      "fuelConsumedGallons": 0.142,
      "maxSpeedMph": 35.2,
      "averageSpeedMph": 11.0,
      "safetyEvents": []
    },
    {
      "id": "trip_49375627_20250713_709",
      "vehicleId": "49375627",
      "driverId": "20000022",
      "startMs": 1752392959000,
      "endMs": 1752394759000,
      "startAddress": "73174 Scott Coves",
      "endAddress": "24023 Phillip Shores",
      "startCoords": {
        "latitude": 39.725281,
        "longitude": -104.951786
      },
      "endCoords": {
        "latitude": 39.695583,
        "longitude": -104.994783
      },
      "distanceMeters": 12514.7,
      "durationMs": 1800000,
      "drivingDurationMs": 1486130,
      "idlingDurationMs": 313870,
      "fuelConsumedMl": 568,
      "fuelConsumedGallons": 0.15,
      "maxSpeedMph": 36.7,
      "averageSpeedMph": 15.6,
      "safetyEvents": []
    },
    {
      "id": "trip_49375627_20250713_740",
      "vehicleId": "49375627",
      "driverId": "20000016",
      "startMs": 1752415578000,
      "endMs": 1752418098000,
      "startAddress": "624 Villa Inlet",
      "endAddress": "2936 Taylor Pine Suite 179",
      "startCoords": {
        "latitude": 39.687721,
        "longitude": -104.937686
      },
      "endCoords": {
        "latitude": 39.728491,
        "longitude": -104.996352
      },
      "distanceMeters": 15594.7,
      "durationMs": 2520000,
      "drivingDurationMs": 2177853,
      "idlingDurationMs": 342147,
      "fuelConsumedMl": 704,
      "fuelConsumedGallons": 0.186,
      "maxSpeedMph": 33.2,
      "averageSpeedMph": 13.8,
      "safetyEvents": []
    },
    {
      "id": "trip_49375627_20250713_771",
      "vehicleId": "49375627",
      "driverId": "20000004",
      "startMs": 1752440611000,
      "endMs": 1752442471000,
      "startAddress": "41832 Lopez Mission",
      "endAddress": "52021 Daniel Mews Suite 954",
      "startCoords": {
        "latitude": 39.812337,
        "longitude": -105.079976
      },
      "endCoords": {
        "latitude": 39.709583,
        "longitude": -105.055743
      },
      "distanceMeters": 15544.6,
      "durationMs": 1860000,
      "drivingDurationMs": 1486718,
      "idlingDurationMs": 373282,
      "fuelConsumedMl": 704,
      "fuelConsumedGallons": 0.186,
      "maxSpeedMph": 32.9,
      "averageSpeedMph": 18.7,
      "safetyEvents": []
    },
    {
      "id": "trip_49375627_20250714_797",
      "vehicleId": "49375627",
      "driverId": "20000005",
      "startMs": 1752484944000,
      "endMs": 1752499556000,
      "startAddress": "10184 Pedro Shore",
      "endAddress": "4418 Nancy Curve",
      "startCoords": {
        "latitude": 39.685646,
        "longitude": -104.964273
      },
      "endCoords": {
        "latitude": 39.750058,
        "longitude": -105.011465
      },
      "distanceMeters": 105405.0,
      "durationMs": 14612000,
      "drivingDurationMs": 13111533,
      "idlingDurationMs": 1500467,
      "fuelConsumedMl": 4770,
      "fuelConsumedGallons": 1.26,
      "maxSpeedMph": 37.2,
      "averageSpeedMph": 16.1,
      "safetyEvents": []
    },
    {
      "id": "trip_49375627_20250714_828",
      "vehicleId": "49375627",
      "driverId": "20000022",
      "startMs": 1752502894000,
      "endMs": 1752521581000,
      "startAddress": "226 Mary Shoal",
      "endAddress": "490 Anna Points Suite 943",
      "startCoords": {
        "latitude": 39.695877,
        "longitude": -104.986554
      },
      "endCoords": {
        "latitude": 39.739943,
        "longitude": -104.952399
      },
      "distanceMeters": 131722.4,
      "durationMs": 18687000,
      "drivingDurationMs": 14644814,
      "idlingDurationMs": 4042186,
      "fuelConsumedMl": 5958,
      "fuelConsumedGallons": 1.574,
      "maxSpeedMph": 45.3,
      "averageSpeedMph": 15.8,
      "safetyEvents": []
    },
    {
      "id": "trip_49375627_20250714_867",
      "vehicleId": "49375627",
      "driverId": "20000002",
      "startMs": 1752521718000,
      "endMs": 1752523458000,
      "startAddress": "803 Tricia Pike Suite 414",
      "endAddress": "329 Zachary Valleys Apt. 504",
      "startCoords": {
        "latitude": 39.761371,
        "longitude": -104.919704
      },
      "endCoords": {
        "latitude": 39.801358,
        "longitude": -105.00392
      },
      "distanceMeters": 8653.9,
      "durationMs": 1740000,
      "drivingDurationMs": 1337176,
      "idlingDurationMs": 402824,
      "fuelConsumedMl": 390,
      "fuelConsumedGallons": 0.103,
      "maxSpeedMph": 41.5,
      "averageSpeedMph": 11.1,
      "safetyEvents": []
    },
    {
      "id": "trip_49375627_20250715_899",
      "vehicleId": "49375627",
      "driverId": "20000001",
      "startMs": 1752541016000,
      "endMs": 1752546933000,
      "startAddress": "16694 Johnson Dam",
      "endAddress": "46764 William Drive",
      "startCoords": {
        "latitude": 39.803576,
        "longitude": -105.061884
      },
      "endCoords": {
        "latitude": 39.778123,
        "longitude": -104.921127
      },
      "distanceMeters": 35109.2,
      "durationMs": 5917000,
      "drivingDurationMs": 5092950,
      "idlingDurationMs": 824050,
      "fuelConsumedMl": 1590,
      "fuelConsumedGallons": 0.42,
      "maxSpeedMph": 32.4,
      "averageSpeedMph": 13.3,
      "safetyEvents": []
    },
    {
      "id": "trip_49375627_20250715_928",
      "vehicleId": "49375627",
      "driverId": "20000006",
      "startMs": 1752563991000,
      "endMs": 1752573065000,
      "startAddress": "4827 Brandon Crossroad",
      "endAddress": "13268 Thomas Greens",
      "startCoords": {
        "latitude": 39.749884,
        "longitude": -105.04975
      },
      "endCoords": {
        "latitude": 39.826587,
        "longitude": -105.003815
      },
      "distanceMeters": 59100.8,
      "durationMs": 9074000,
      "drivingDurationMs": 7890334,
      "idlingDurationMs": 1183666,
      "fuelConsumedMl": 2672,
      "fuelConsumedGallons": 0.706,
      "maxSpeedMph": 42.5,
      "averageSpeedMph": 14.6,
      "safetyEvents": []
    }
  ]
}