{
  "vehicleId": "49375627",
  "vehicleName": "DEN-MOTO-06",
  "month": "2025_07",
  "pagination": {
    "endCursor": "trip_49375627_20250708_917",
    "hasNextPage": false
  },
  "trips": [
    {
      "id": "trip_49375627_20250701_25704",
      "vehicleId": "49375627",
      "driverId": "20000009",
      "startMs": 1751338338000,
      "endMs": 1751340198000,
      "startAddress": "727 Montgomery Summit",
      "endAddress": "35861 Hendrix Shoals",
      "startCoords": {
        "latitude": 39.756821,
        "longitude": -105.037541
      },
      "endCoords": {
        "latitude": 39.720457,
        "longitude": -105.044138
      },
      "distanceMeters": 13656.9,
      "durationMs": 1860000,
      "drivingDurationMs": 1624185,
      "idlingDurationMs": 235815,
      "fuelConsumedMl": 617,
      "fuelConsumedGallons": 0.163,
      "maxSpeedMph": 42.5,
      "averageSpeedMph": 16.4,
      "safetyEvents": []
    },
    {
      "id": "trip_49375627_20250701_25731",
      "vehicleId": "49375627",
      "driverId": "20000016",
      "startMs": 1751362630000,
      "endMs": 1751365030000,
      "startAddress": "307 Kelly Squares Suite 311",
      "endAddress": "27706 Vaughn Place Apt. 644",
      "startCoords": {
        "latitude": 39.794996,
        "longitude": -105.002055
      },
      "endCoords": {
        "latitude": 39.738415,
        "longitude": -104.903902
      },
      "distanceMeters": 20920.8,
      "durationMs": 2400000,
      "drivingDurationMs": 2004716,
      "idlingDurationMs": 395284,
      "fuelConsumedMl": 946,
      "fuelConsumedGallons": 0.25,
      "maxSpeedMph": 37.7,
      "averageSpeedMph": 19.5,
      "safetyEvents": []
    },
    {
      "id": "trip_49375627_20250701_025",
      "vehicleId": "49375627",
      "driverId": "20000014",
      "startMs": 1751373181000,
      "endMs": 1751382123000,
      "startAddress": "67560 Bradley Branch Apt. 929",
      "endAddress": "21543 Joshua Plains",
      "startCoords": {
        "latitude": 39.690026,
        "longitude": -105.019144
      },
      "endCoords": {
        "latitude": 39.787452,
        "longitude": -104.905207
      },
      "distanceMeters": 60766.0,
      "durationMs": 8942000,
      "drivingDurationMs": 6837068,
      "idlingDurationMs": 2104932,
      "fuelConsumedMl": 2748,
      "fuelConsumedGallons": 0.726,
      "maxSpeedMph": 42.6,
      "averageSpeedMph": 15.2,
      "safetyEvents": []
    },
    {
      "id": "trip_49375627_20250701_054",
      "vehicleId": "49375627",
      "driverId": "20000020",
      "startMs": 1751390195000,
      "endMs": 1751407354000,
      "startAddress": "69420 Jennifer Ramp Apt. 135",
      "endAddress": "901 Howard Port Suite 706",
      "startCoords": {
        "latitude": 39.708615,
        "longitude": -104.953436
      },
      "endCoords": {
        "latitude": 39.827477,
        "longitude": -104.93515
      },
      "distanceMeters": 105668.3,
      "durationMs": 17159000,
      "drivingDurationMs": 15093755,
      "idlingDurationMs": 2065245,
      "fuelConsumedMl": 4781,
      "fuelConsumedGallons": 1.263,
      "maxSpeedMph": 31.9,
      "averageSpeedMph": 13.8,
      "safetyEvents": []
    },
    {
      "id": "trip_49375627_20250701_088",
      "vehicleId": "49375627",
      "driverId": "20000021",
      "startMs": 1751408216000,
      "endMs": 1751418032000,
      "startAddress": "453 David Brook Apt. 896",
      "endAddress": "583 Mercado Vista Suite 566",
      "startCoords": {
        "latitude": 39.764519,
        "longitude": -104.911815
      },
      "endCoords": {
        "latitude": 39.787752,
        "longitude": -105.033546
      },
      "distanceMeters": 74480.7,
      "durationMs": 9816000,
      "drivingDurationMs": 8114392,
      "idlingDurationMs": 1701608,
      "fuelConsumedMl": 3369,
      "fuelConsumedGallons": 0.89,
      "maxSpeedMph": 38.6,
      "averageSpeedMph": 17.0,
      "safetyEvents": []
    },
    {
      "id": "trip_49375627_20250702_118",
      "vehicleId": "49375627",
      "driverId": "20000010",
      "startMs": 1751433438000,
      "endMs": 1751440312000,
      "startAddress": "1817 Kenneth Drive",
      "endAddress": "5946 Sarah Drives Apt. 272",
      "startCoords": {
        "latitude": 39.809452,
        "longitude": -105.04165
      },
      "endCoords": {
        "latitude": 39.690104,
        "longitude": -105.005089
      },
      "distanceMeters": 50109.8,
      "durationMs": 6874000,
      "drivingDurationMs": 5726275,
      "idlingDurationMs": 1147725,
      "fuelConsumedMl": 2267,
      "fuelConsumedGallons": 0.599,
      "maxSpeedMph": 41.8,
      "averageSpeedMph": 16.3,
      "safetyEvents": []
    },
    {
      "id": "trip_49375627_20250702_146",
      "vehicleId": "49375627",
      "driverId": "20000011",
      "startMs": 1751448239000,
      "endMs": 1751452419000,
      "startAddress": "90113 Ferguson Fords",
      "endAddress": "133 Michael Path",
      "startCoords": {
        "latitude": 39.81762,
        "longitude": -105.031383
      },
      "endCoords": {
        "latitude": 39.765019,
        "longitude": -104.981045
      },
      "distanceMeters": 21926.5,
      "durationMs": 4180000,
      "drivingDurationMs": 3247427,
      "idlingDurationMs": 932573,
      "fuelConsumedMl": 992,
      "fuelConsumedGallons": 0.262,
      "maxSpeedMph": 44.3,
      "averageSpeedMph": 11.7,
      "safetyEvents": []
    },
    {
      "id": "trip_49375627_20250702_174",
      "vehicleId": "49375627",
      "driverId": "20000005",
      "startMs": 1751459352000,
      "endMs": 1751474238000,
      "startAddress": "699 Luis Isle",
      "endAddress": "7599 Wolfe Brooks Suite 290",
      "startCoords": {
        "latitude": 39.790018,
        "longitude": -104.921488
      },
      "endCoords": {
        "latitude": 39.748532,
        "longitude": -105.006861
      },
      "distanceMeters": 82786.1,
      "durationMs": 14886000,
      "drivingDurationMs": 11929697,
      "idlingDurationMs": 2956303,
      "fuelConsumedMl": 3744,
      "fuelConsumedGallons": 0.989,
      "maxSpeedMph": 37.2,
      "averageSpeedMph": 12.4,
      "safetyEvents": []
    },
    {
      "id": "trip_49375627_20250702_205",
      "vehicleId": "49375627",
      "driverId": "20000022",
      "startMs": 1751475270000,
      "endMs": 1751485848000,
      "startAddress": "217 Rogers Cape Apt. 584",
      "endAddress": "8793 Lisa Trail Apt. 028",
      "startCoords": {
        "latitude": 39.816325,
        "longitude": -104.97175
      },
      "endCoords": {
        "latitude": 39.747495,
        "longitude": -105.046825
      },
      "distanceMeters": 70444.9,
      "durationMs": 10578000,
      "drivingDurationMs": 9182145,
      "idlingDurationMs": 1395855,
      "fuelConsumedMl": 3187,
      "fuelConsumedGallons": 0.842,
      "maxSpeedMph": 43.1,
      "averageSpeedMph": 14.9,
      "safetyEvents": []
    },
    {
      "id": "trip_49375627_20250702_236",
      "vehicleId": "49375627",
      "driverId": "20000017",
      "startMs": 1751493267000,
      "endMs": 1751496667000,
      "startAddress": "042 Howard Mount Suite 286",
      "endAddress": "51085 Walker Fields Suite 545",
      "startCoords": {
        "latitude": 39.705108,
        "longitude": -104.953853
      },
      "endCoords": {
        "latitude": 39.823317,
        "longitude": -105.01313
      },
      "distanceMeters": 25940.7,
      "durationMs": 3400000,
      "drivingDurationMs": 2950339,
      "idlingDurationMs": 449661,
      "fuelConsumedMl": 1173,
      "fuelConsumedGallons": 0.31,
      "maxSpeedMph": 44.9,
      "averageSpeedMph": 17.1,
      "safetyEvents": []
    },
    {
      "id": "trip_49375627_20250703_264",
      "vehicleId": "49375627",
      "driverId": "20000018",
      "startMs": 1751513616000,
      "endMs": 1751522514000,
      "startAddress": "225 Rodriguez Valleys",
      "endAddress": "92581 Collier Ways Suite 212",
      "startCoords": {
        "latitude": 39.688544,
        "longitude": -105.083938
      },
      "endCoords": {
        "latitude": 39.721368,
        "longitude": -105.068005
      },
      "distanceMeters": 52683.1,
      "durationMs": 8898000,
      "drivingDurationMs": 7405867,
      "idlingDurationMs": 1492133,
      "fuelConsumedMl": 2385,
      "fuelConsumedGallons": 0.63,
      "maxSpeedMph": 43.9,
      "averageSpeedMph": 13.2,
      "safetyEvents": []
    },
    {
      "id": "trip_49375627_20250703_292",
      "vehicleId": "49375627",
      "driverId": "20000006",
      "startMs": 1751532235000,
      "endMs": 1751534695000,
      "startAddress": "1181 Shaw Summit Suite 466",
      "endAddress": "4776 William Track",
      "startCoords": {
        "latitude": 39.713527,
        "longitude": -104.965066
      },
      "endCoords": {
        "latitude": 39.757714,
        "longitude": -104.924964
      },
      "distanceMeters": 15061.9,
      "durationMs": 2460000,
      "drivingDurationMs": 2132321,
      "idlingDurationMs": 327679,
      "fuelConsumedMl": 681,
      "fuelConsumedGallons": 0.18,
      "maxSpeedMph": 34.4,
      "averageSpeedMph": 13.7,
      "safetyEvents": []
    },
    {
      "id": "trip_49375627_20250703_323",
      "vehicleId": "49375627",
      "driverId": "20000002",
      "startMs": 1751545214000,
      "endMs": 1751564706000,
      "startAddress": "62643 Sanders Row",
      "endAddress": "6078 Marie Village Suite 199",
      "startCoords": {
        "latitude": 39.824599,
        "longitude": -105.038
      },
      "endCoords": {
        "latitude": 39.690947,
        "longitude": -104.934649
      },
      "distanceMeters": 158661.4,
      "durationMs": 19492000,
      "drivingDurationMs": 15658888,
      "idlingDurationMs": 3833112,
      "fuelConsumedMl": 7177,
      "fuelConsumedGallons": 1.896,
      "maxSpeedMph": 38.2,
      "averageSpeedMph": 18.2,
      "safetyEvents": []
    },
    {
      "id": "trip_49375627_20250703_353",
      "vehicleId": "49375627",
      "driverId": "20000019",
      "startMs": 1751565036000,
      "endMs": 1751575027000,
      "startAddress": "79959 Lang Loop Apt. 110",
      "endAddress": "764 Cox Spring Suite 657",
      "startCoords": {
        "latitude": 39.796958,
        "longitude": -104.902582
      },
      "endCoords": {
        "latitude": 39.782235,
        "longitude": -105.060155
      },
      "distanceMeters": 56532.8,
      "durationMs": 9991000,
      "drivingDurationMs": 8907069,
      "idlingDurationMs": 1083931,
      "fuelConsumedMl": 2559,
      "fuelConsumedGallons": 0.676,
      "maxSpeedMph": 35.1,
      "averageSpeedMph": 12.7,
      "safetyEvents": []
    },
    {
      "id": "trip_49375627_20250703_385",
      "vehicleId": "49375627",
      "driverId": "20000021",
      "startMs": 1751584756000,
      "endMs": 1751587036000,
      "startAddress": "360 Julie Ramp",
      "endAddress": "01461 Jessica Rapid",
      "startCoords": {
        "latitude": 39.75291,
        "longitude": -105.003886
      },
      "endCoords": {
        "latitude": 39.795406,
        "longitude": -104.996052
      },
      "distanceMeters": 14026.9,
      "durationMs": 2280000,
      "drivingDurationMs": 1819584,
      "idlingDurationMs": 460416,
      "fuelConsumedMl": 636,
      "fuelConsumedGallons": 0.168,
      "maxSpeedMph": 36.2,
      "averageSpeedMph": 13.8,
      "safetyEvents": []
    },
    {
      "id": "trip_49375627_20250704_417",
      "vehicleId": "49375627",
      "driverId": "20000013",
      "startMs": 1751604783000,
      "endMs": 1751606823000,
      "startAddress": "56161 Lee Green",
      "endAddress": "981 Stacey Walk Apt. 008",
      "startCoords": {
        "latitude": 39.721651,
        "longitude": -105.017913
      },
      "endCoords": {
        "latitude": 39.771516,
        "longitude": -104.951342
      },
      "distanceMeters": 13561.3,
      "durationMs": 2040000,
      "drivingDurationMs": 1652325,
      "idlingDurationMs": 387675,
      "fuelConsumedMl": 613,
      "fuelConsumedGallons": 0.162,
      "maxSpeedMph": 32.2,
      "averageSpeedMph": 14.9,
      "safetyEvents": []
    },
    {
      "id": "trip_49375627_20250704_445",
      "vehicleId": "49375627",
      "driverId": "20000015",
      "startMs": 1751622507000,
      "endMs": 1751625027000,
      "startAddress": "5744 Rodriguez Cape Suite 692",
      "endAddress": "65434 Greer Port Apt. 604",
      "startCoords": {
        "latitude": 39.74815,
        "longitude": -105.072959
      },
      "endCoords": {
        "latitude": 39.772184,
        "longitude": -105.000423
      },
      "distanceMeters": 15679.0,
      "durationMs": 2520000,
      "drivingDurationMs": 2075052,
      "idlingDurationMs": 444948,
      "fuelConsumedMl": 708,
      "fuelConsumedGallons": 0.187,
      "maxSpeedMph": 43.5,
      "averageSpeedMph": 13.9,
      "safetyEvents": []
    },
    {
      "id": "trip_49375627_20250704_476",
      "vehicleId": "49375627",
      "driverId": "20000020",
      "startMs": 1751637188000,
      "endMs": 1751639408000,
      "startAddress": "887 Rivera Harbors Suite 847",
      "endAddress": "34019 Jennifer Prairie Apt. 605",
      "startCoords": {
        "latitude": 39.770024,
        "longitude": -104.92573
      },
      "endCoords": {
        "latitude": 39.70684,
        "longitude": -104.987739
      },
      "distanceMeters": 13906.7,
      "durationMs": 2220000,
      "drivingDurationMs": 1842025,
      "idlingDurationMs": 377975,
      "fuelConsumedMl": 628,
      "fuelConsumedGallons": 0.166,
      "maxSpeedMph": 45.0,
      "averageSpeedMph": 14.0,
      "safetyEvents": []
    },
    {
      "id": "trip_49375627_20250704_506",
      "vehicleId": "49375627",
      "driverId": "20000009",
      "startMs": 1751651000000,
      "endMs": 1751653040000,
      "startAddress": "65874 Keith Plains",
      "endAddress": "237 Greene Avenue",
      "startCoords": {
        "latitude": 39.696098,
        "longitude": -104.948502
      },
      "endCoords": {
        "latitude": 39.718762,
        "longitude": -104.970823
      },
      "distanceMeters": 16375.4,
      "durationMs": 2040000,
      "drivingDurationMs": 1788267,
      "idlingDurationMs": 251733,
      "fuelConsumedMl": 742,
      "fuelConsumedGallons": 0.196,
      "maxSpeedMph": 42.7,
      "averageSpeedMph": 18.0,
      "safetyEvents": []
    },
    {
      "id": "trip_49375627_20250704_538",
      "vehicleId": "49375627",
      "driverId": "20000019",
      "startMs": 1751672307000,
      "endMs": 1751674347000,
      "startAddress": "9986 Douglas Prairie",
      "endAddress": "910 Allison Ferry Suite 276",
      "startCoords": {
        "latitude": 39.691124,
        "longitude": -105.029729
      },
      "endCoords": {
        "latitude": 39.788976,
        "longitude": -104.90683
      },
      "distanceMeters": 12240.6,
      "durationMs": 2040000,
      "drivingDurationMs": 1791750,
      "idlingDurationMs": 248250,
      "fuelConsumedMl": 553,
      "fuelConsumedGallons": 0.146,
      "maxSpeedMph": 43.4,
      "averageSpeedMph": 13.4,
      "safetyEvents": []
    },
    {
      "id": "trip_49375627_20250705_570",
      "vehicleId": "49375627",
      "driverId": "20000019",
      "startMs": 1751692114000,
      "endMs": 1751695415000,
      "startAddress": "5789 Cochran Springs",
      "endAddress": "8774 Camacho Mall Apt. 488",
      "startCoords": {
        "latitude": 39.747993,
        "longitude": -105.020777
      },
      "endCoords": {
        "latitude": 39.731632,
        "longitude": -105.050419
      },
      "distanceMeters": 26784.5,
      "durationMs": 3301000,
      "drivingDurationMs": 2659218,
      "idlingDurationMs": 641782,
      "fuelConsumedMl": 1211,
      "fuelConsumedGallons": 0.32,
      "maxSpeedMph": 42.1,
      "averageSpeedMph": 18.2,
      "safetyEvents": []
    },
    {
      "id": "trip_49375627_20250705_598",
      "vehicleId": "49375627",
      "driverId": "20000004",
      "startMs": 1751713191000,
      "endMs": 1751715231000,
      "startAddress": "660 Jeffery Walks Apt. 739",
      "endAddress": "1592 Jeanne Trace Suite 101",
      "startCoords": {
        "latitude": 39.778333,
        "longitude": -105.032799
      },
      "endCoords": {
        "latitude": 39.790017,
        "longitude": -105.082579
      },
      "distanceMeters": 14779.2,
      "durationMs": 2040000,
      "drivingDurationMs": 1659089,
      "idlingDurationMs": 380911,
      "fuelConsumedMl": 670,
      "fuelConsumedGallons": 0.177,
      "maxSpeedMph": 40.2,
      "averageSpeedMph": 16.2,
      "safetyEvents": []
    },
    {
      "id": "trip_49375627_20250705_626",
      "vehicleId": "49375627",
      "driverId": "20000004",
      "startMs": 1751725195000,
      "endMs": 1751730572000,
      "startAddress": "8714 Cruz Ridge Apt. 995",
      "endAddress": "55664 James Harbors",
      "startCoords": {
        "latitude": 39.823054,
        "longitude": -105.084627
      },
      "endCoords": {
        "latitude": 39.732634,
        "longitude": -105.024147
      },
      "distanceMeters": 33836.1,
      "durationMs": 5377000,
      "drivingDurationMs": 4061016,
      "idlingDurationMs": 1315984,
      "fuelConsumedMl": 1529,
      "fuelConsumedGallons": 0.404,
      "maxSpeedMph": 44.1,
      "averageSpeedMph": 14.1,
      "safetyEvents": []
    },
    {
      "id": "trip_49375627_20250705_660",
      "vehicleId": "49375627",
      "driverId": "20000011",
      "startMs": 1751745676000,
      "endMs": 1751754287000,
      "startAddress": "9210 Melissa Union Apt. 889",
      "endAddress": "913 Kathryn Wall Apt. 575",
      "startCoords": {
        "latitude": 39.761513,
        "longitude": -104.965546
      },
      "endCoords": {
        "latitude": 39.790017,
        "longitude": -104.946113
      },
      "distanceMeters": 72298.4,
      "durationMs": 8611000,
      "drivingDurationMs": 7571128,
      "idlingDurationMs": 1039872,
      "fuelConsumedMl": 3271,
      "fuelConsumedGallons": 0.864,
      "maxSpeedMph": 36.2,
      "averageSpeedMph": 18.8,
      "safetyEvents": []
    },
    {
      "id": "trip_49375627_20250706_686",
      "vehicleId": "49375627",
      "driverId": "20000012",
      "startMs": 1751769504000,
      "endMs": 1751773097000,
      "startAddress": "07223 Henderson Wall Suite 217",
      "endAddress": "89898 Espinoza Vista Suite 767",
      "startCoords": {
        "latitude": 39.754443,
        "longitude": -104.932838
      },
      "endCoords": {
        "latitude": 39.727258,
        "longitude": -104.977561
      },
      "distanceMeters": 19486.8,
      "durationMs": 3593000,
      "drivingDurationMs": 2785141,
      "idlingDurationMs": 807859,
      "fuelConsumedMl": 882,
      "fuelConsumedGallons": 0.233,
      "maxSpeedMph": 35.5,
      "averageSpeedMph": 12.1,
      "safetyEvents": []
    },
    {
      "id": "trip_49375627_20250706_709",
      "vehicleId": "49375627",
      "driverId": "20000001",
      "startMs": 1751791287000,
      "endMs": 1751795885000,
      "startAddress": "73174 Scott Coves",
      "endAddress": "24023 Phillip Shores",
      "startCoords": {
        "latitude": 39.725281,
        "longitude": -104.951786
      },
      "endCoords": {
        "latitude": 39.695583,
        "longitude": -104.994783
      },
      "distanceMeters": 31968.1,
      "durationMs": 4598000,
      "drivingDurationMs": 3796236,
      "idlingDurationMs": 801764,
      "fuelConsumedMl": 1446,
      "fuelConsumedGallons": 0.382,
      "maxSpeedMph": 36.7,
      "averageSpeedMph": 15.6,
      "safetyEvents": []
    },
    {
      "id": "trip_49375627_20250706_742",
      "vehicleId": "49375627",
      "driverId": "20000019",
      "startMs": 1751816209000,
      "endMs": 1751821254000,
      "startAddress": "12151 Cynthia Knoll Suite 244",
      "endAddress": "220 Peter Manors Suite 339",
      "startCoords": {
        "latitude": 39.689815,
        "longitude": -104.951723
      },
      "endCoords": {
        "latitude": 39.796482,
        "longitude": -105.077303
      },
      "distanceMeters": 30291.7,
      "durationMs": 5045000,
      "drivingDurationMs": 4123753,
      "idlingDurationMs": 921247,
      "fuelConsumedMl": 1370,
      "fuelConsumedGallons": 0.362,
      "maxSpeedMph": 41.3,
      "averageSpeedMph": 13.4,
      "safetyEvents": []
    },
    {
      "id": "trip_49375627_20250706_771",
      "vehicleId": "49375627",
      "driverId": "20000009",
      "startMs": 1751841433000,
      "endMs": 1751843533000,
      "startAddress": "41832 Lopez Mission",
      "endAddress": "52021 Daniel Mews Suite 954",
      "startCoords": {
        "latitude": 39.812337,
        "longitude": -105.079976
      },
      "endCoords": {
        "latitude": 39.709583,
        "longitude": -105.055743
      },
      "distanceMeters": 17550.4,
      "durationMs": 2100000,
      "drivingDurationMs": 1678552,
      "idlingDurationMs": 421448,
      "fuelConsumedMl": 795,
      "fuelConsumedGallons": 0.21,
      "maxSpeedMph": 32.9,
      "averageSpeedMph": 18.7,
      "safetyEvents": []
    },
    {
      "id": "trip_49375627_20250707_797",
      "vehicleId": "49375627",
      "driverId": "20000010",
      "startMs": 1751882334000,
      "endMs": 1751886101000,
      "startAddress": "10184 Pedro Shore",
      "endAddress": "4418 Nancy Curve",
      "startCoords": {
        "latitude": 39.685646,
        "longitude": -104.964273
      },
      "endCoords": {
        "latitude": 39.750058,
        "longitude": -105.011465
      },
      "distanceMeters": 27173.6,
      "durationMs": 3767000,
      "drivingDurationMs": 3380177,
      "idlingDurationMs": 386823,
      "fuelConsumedMl": 1230,
      "fuelConsumedGallons": 0.325,
      "maxSpeedMph": 37.2,
      "averageSpeedMph": 16.1,
      "safetyEvents": []
    },
    {
      "id": "trip_49375627_20250707_826",
      "vehicleId": "49375627",
      "driverId": "20000001",
      "startMs": 1751898739000,
      "endMs": 1751907048000,
      "startAddress": "071 Jacqueline Trail Suite 524",
      "endAddress": "918 Moore Stream Apt. 882",
      "startCoords": {
        "latitude": 39.813488,
        "longitude": -104.972819
      },
      "endCoords": {
        "latitude": 39.704897,
        "longitude": -105.011682
      },
      "distanceMeters": 52906.1,
      "durationMs": 8309000,
      "drivingDurationMs": 7049159,
      "idlingDurationMs": 1259841,
      "fuelConsumedMl": 2392,
      "fuelConsumedGallons": 0.632,
      "maxSpeedMph": 44.4,
      "averageSpeedMph": 14.2,
      "safetyEvents": []
    },
    {
      "id": "trip_49375627_20250707_856",
      "vehicleId": "49375627",
      "driverId": "20000012",
      "startMs": 1751913704000,
      "endMs": 1751917859000,
      "startAddress": "3163 Allen Plaza",
      "endAddress": "0172 Ponce Drive Apt. 336",
      "startCoords": {
        "latitude": 39.763457,
        "longitude": -105.075396
      },
      "endCoords": {
        "latitude": 39.687895,
        "longitude": -104.968463
      },
      "distanceMeters": 36897.0,
      "durationMs": 4155000,
      "drivingDurationMs": 3571667,
      "idlingDurationMs": 583333,
      "fuelConsumedMl": 1669,
      "fuelConsumedGallons": 0.441,
      "maxSpeedMph": 36.0,
      "averageSpeedMph": 19.9,
      "safetyEvents": []
    },
    {
      "id": "trip_49375627_20250707_888",
      "vehicleId": "49375627",
      "driverId": "20000017",
      "startMs": 1751932385000,
      "endMs": 1751933645000,
      "startAddress": "369 Peter Coves",
      "endAddress": "502 Kent Freeway Suite 097",
      "startCoords": {
        "latitude": 39.734955,
        "longitude": -104.997101
      },
      "endCoords": {
        "latitude": 39.77322,
        "longitude": -105.05272
      },
      "distanceMeters": 11246.8,
      "durationMs": 1260000,
      "drivingDurationMs": 1110189,
      "idlingDurationMs": 149811,
      "fuelConsumedMl": 507,
      "fuelConsumedGallons": 0.134,
      "maxSpeedMph": 39.1,
      "averageSpeedMph": 20.0,
      "safetyEvents": []
    },
    {
      "id": "trip_49375627_20250708_917",
      "vehicleId": "49375627",
      "driverId": "20000020",
      "startMs": 1751954400000,
      "endMs": 1751956740000,
      "startAddress": "2515 Morris Junctions",
      "endAddress": "9096 Garcia Square",
      "startCoords": {
        "latitude": 39.801119,
        "longitude": -105.023593
      },
      "endCoords": {
        "latitude": 39.696106,
        "longitude": -104.928508
      },
      "distanceMeters": 16673.0,
      "durationMs": 2340000,
      "drivingDurationMs": 1912032,
      "idlingDurationMs": 427968,
      "fuelConsumedMl": 753,
      "fuelConsumedGallons": 0.199,
      "maxSpeedMph": 38.4,
      "averageSpeedMph": 15.9,
      "safetyEvents": []
    }
  ]
}