{
  "vehicleId": "47182289",
  "vehicleName": "DEN-VAN-05",
  "month": "2025_07",
  "pagination": {
    "endCursor": "trip_47182289_20250715_922",
    "hasNextPage": false
  },
  "trips": [
    {
      "id": "trip_47182289_20250701_25708",
      "vehicleId": "47182289",
      "driverId": "20000018",
      "startMs": 1751340566000,
      "endMs": 1751342546000,
      "startAddress": "07774 Wolf Gateway Suite 211",
      "endAddress": "9959 Mills Unions Apt. 364",
      "startCoords": {
        "latitude": 39.789677,
        "longitude": -104.952093
      },
      "endCoords": {
        "latitude": 39.704291,
        "longitude": -105.058125
      },
      "distanceMeters": 11132.8,
      "durationMs": 1980000,
      "drivingDurationMs": 1713651,
      "idlingDurationMs": 266349,
      "fuelConsumedMl": 1416,
      "fuelConsumedGallons": 0.374,
      "maxSpeedMph": 31.3,
      "averageSpeedMph": 12.6,
      "safetyEvents": []
    },
    {
      "id": "trip_47182289_20250701_007",
      "vehicleId": "47182289",
      "driverId": "20000017",
      "startMs": 1751361293000,
      "endMs": 1751363093000,
      "startAddress": "43198 Becky Heights Suite 813",
      "endAddress": "41691 Leslie Forks",
      "startCoords": {
        "latitude": 39.715666,
        "longitude": -104.94106
      },
      "endCoords": {
        "latitude": 39.694738,
        "longitude": -104.968522
      },
      "distanceMeters": 7348.4,
      "durationMs": 1800000,
      "drivingDurationMs": 1384958,
      "idlingDurationMs": 415042,
      "fuelConsumedMl": 935,
      "fuelConsumedGallons": 0.247,
      "maxSpeedMph": 36.2,
      "averageSpeedMph": 9.1,
      "safetyEvents": []
    },
    {
      "id": "trip_47182289_20250701_25734",
      "vehicleId": "47182289",
      "driverId": "20000017",
      "startMs": 1751366545000,
      "endMs": 1751372350000,
      "startAddress": "50390 Scott Light",
      "endAddress": "621 Rodney Brook",
      "startCoords": {
        "latitude": 39.712726,
        "longitude": -105.073729
      },
      "endCoords": {
        "latitude": 39.761297,
        "longitude": -104.983556
      },
      "distanceMeters": 33034.5,
      "durationMs": 5805000,
      "drivingDurationMs": 4491204,
      "idlingDurationMs": 1313796,
      "fuelConsumedMl": 4202,
      "fuelConsumedGallons": 1.11,
      "maxSpeedMph": 37.8,
      "averageSpeedMph": 12.7,
      "safetyEvents": []
    },
    {
      "id": "trip_47182289_20250701_035",
      "vehicleId": "47182289",
      "driverId": "20000011",
      "startMs": 1751378605000,
      "endMs": 1751385616000,
      "startAddress": "57846 Brown Pike",
      "endAddress": "858 Maria Plains Apt. 567",
      "startCoords": {
        "latitude": 39.775829,
        "longitude": -104.970483
      },
      "endCoords": {
        "latitude": 39.692781,
        "longitude": -104.930223
      },
      "distanceMeters": 36621.7,
      "durationMs": 7011000,
      "drivingDurationMs": 6181758,
      "idlingDurationMs": 829242,
      "fuelConsumedMl": 4656,
      "fuelConsumedGallons": 1.23,
      "maxSpeedMph": 29.2,
      "averageSpeedMph": 11.7,
      "safetyEvents": []
    },
    {
      "id": "trip_47182289_20250701_064",
      "vehicleId": "47182289",
      "driverId": "20000022",
      "startMs": 1751394325000,
      "endMs": 1751396545000,
      "startAddress": "3854 Jenkins Flat Apt. 360",
      "endAddress": "7998 Campbell Cliffs Apt. 594",
      "startCoords": {
        "latitude": 39.816907,
        "longitude": -105.079963
      },
      "endCoords": {
        "latitude": 39.808237,
        "longitude": -105.072429
      },
      "distanceMeters": 12610.9,
      "durationMs": 2220000,
      "drivingDurationMs": 1697634,
      "idlingDurationMs": 522366,
      "fuelConsumedMl": 1605,
      "fuelConsumedGallons": 0.424,
      "maxSpeedMph": 30.5,
      "averageSpeedMph": 12.7,
      "safetyEvents": []
    },
    {
      "id": "trip_47182289_20250701_095",
      "vehicleId": "47182289",
      "driverId": "20000014",
      "startMs": 1751413727000,
      "endMs": 1751419049000,
      "startAddress": "973 Jason Wall",
      "endAddress": "4028 Marco Track Apt. 676",
      "startCoords": {
        "latitude": 39.806298,
        "longitude": -105.080697
      },
      "endCoords": {
        "latitude": 39.816553,
        "longitude": -105.009057
      },
      "distanceMeters": 34702.2,
      "durationMs": 5322000,
      "drivingDurationMs": 4604419,
      "idlingDurationMs": 717581,
      "fuelConsumedMl": 4414,
      "fuelConsumedGallons": 1.166,
      "maxSpeedMph": 36.1,
      "averageSpeedMph": 14.6,
      "safetyEvents": []
    },
    {
      "id": "trip_47182289_20250702_122",
      "vehicleId": "47182289",
      "driverId": "20000002",
      "startMs": 1751435009000,
      "endMs": 1751436809000,
      "startAddress": "07612 Brittney Springs",
      "endAddress": "19051 Eric Port",
      "startCoords": {
        "latitude": 39.733373,
        "longitude": -104.966623
      },
      "endCoords": {
        "latitude": 39.738669,
        "longitude": -104.988995
      },
      "distanceMeters": 11229.6,
      "durationMs": 1800000,
      "drivingDurationMs": 1469920,
      "idlingDurationMs": 330080,
      "fuelConsumedMl": 1427,
      "fuelConsumedGallons": 0.377,
      "maxSpeedMph": 26.5,
      "averageSpeedMph": 14.0,
      "safetyEvents": []
    },
    {
      "id": "trip_47182289_20250702_153",
      "vehicleId": "47182289",
      "driverId": "20000015",
      "startMs": 1751450755000,
      "endMs": 1751453095000,
      "startAddress": "811 Prince Passage",
      "endAddress": "710 Andrew Valley",
      "startCoords": {
        "latitude": 39.757593,
        "longitude": -105.068274
      },
      "endCoords": {
        "latitude": 39.696646,
        "longitude": -104.983394
      },
      "distanceMeters": 10437.2,
      "durationMs": 2340000,
      "drivingDurationMs": 1954726,
      "idlingDurationMs": 385274,
      "fuelConsumedMl": 1329,
      "fuelConsumedGallons": 0.351,
      "maxSpeedMph": 33.6,
      "averageSpeedMph": 10.0,
      "safetyEvents": []
    },
    {
      "id": "trip_47182289_20250702_183",
      "vehicleId": "47182289",
      "driverId": "20000022",
      "startMs": 1751464735000,
      "endMs": 1751470215000,
      "startAddress": "9719 Aaron Rue",
      "endAddress": "95616 Jack Junctions",
      "startCoords": {
        "latitude": 39.715516,
        "longitude": -105.081563
      },
      "endCoords": {
        "latitude": 39.716138,
        "longitude": -105.03338
      },
      "distanceMeters": 25241.8,
      "durationMs": 5480000,
      "drivingDurationMs": 4467243,
      "idlingDurationMs": 1012757,
      "fuelConsumedMl": 3210,
      "fuelConsumedGallons": 0.848,
      "maxSpeedMph": 36.9,
      "averageSpeedMph": 10.3,
      "safetyEvents": []
    },
    {
      "id": "trip_47182289_20250702_213",
      "vehicleId": "47182289",
      "driverId": "20000004",
      "startMs": 1751481851000,
      "endMs": 1751515972000,
      "startAddress": "8934 Browning Rapid Suite 833",
      "endAddress": "8835 Kline Rapid Apt. 149",
      "startCoords": {
        "latitude": 39.776058,
        "longitude": -104.986512
      },
      "endCoords": {
        "latitude": 39.705736,
        "longitude": -105.071982
      },
      "distanceMeters": 227848.5,
      "durationMs": 34121000,
      "drivingDurationMs": 28540978,
      "idlingDurationMs": 5580022,
      "fuelConsumedMl": 28970,
      "fuelConsumedGallons": 7.653,
      "maxSpeedMph": 31.4,
      "averageSpeedMph": 14.9,
      "safetyEvents": []
    },
    {
      "id": "trip_47182289_20250703_269",
      "vehicleId": "47182289",
      "driverId": "20000002",
      "startMs": 1751519768000,
      "endMs": 1751521868000,
      "startAddress": "323 Edwards Bridge Apt. 814",
      "endAddress": "2484 Elizabeth Skyway Apt. 243",
      "startCoords": {
        "latitude": 39.773831,
        "longitude": -104.997303
      },
      "endCoords": {
        "latitude": 39.697708,
        "longitude": -105.048762
      },
      "distanceMeters": 9339.6,
      "durationMs": 2100000,
      "drivingDurationMs": 1862397,
      "idlingDurationMs": 237603,
      "fuelConsumedMl": 1189,
      "fuelConsumedGallons": 0.314,
      "maxSpeedMph": 37.3,
      "averageSpeedMph": 9.9,
      "safetyEvents": []
    },
    {
      "id": "trip_47182289_20250703_297",
      "vehicleId": "47182289",
      "driverId": "20000021",
      "startMs": 1751534041000,
      "endMs": 1751546176000,
      "startAddress": "4131 Samantha Club Apt. 025",
      "endAddress": "46581 Clark Road Suite 217",
      "startCoords": {
        "latitude": 39.730595,
        "longitude": -105.035598
      },
      "endCoords": {
        "latitude": 39.778304,
        "longitude": -104.908482
      },
      "distanceMeters": 70860.8,
      "durationMs": 12135000,
      "drivingDurationMs": 10309380,
      "idlingDurationMs": 1825620,
      "fuelConsumedMl": 9009,
      "fuelConsumedGallons": 2.38,
      "maxSpeedMph": 29.7,
      "averageSpeedMph": 13.1,
      "safetyEvents": []
    },
    {
      "id": "trip_47182289_20250703_329",
      "vehicleId": "47182289",
      "driverId": "20000016",
      "startMs": 1751547579000,
      "endMs": 1751550370000,
      "startAddress": "28555 Mary Spring",
      "endAddress": "9475 Desiree Lodge Apt. 284",
      "startCoords": {
        "latitude": 39.771852,
        "longitude": -104.92535
      },
      "endCoords": {
        "latitude": 39.810568,
        "longitude": -104.950818
      },
      "distanceMeters": 15123.9,
      "durationMs": 2791000,
      "drivingDurationMs": 2255970,
      "idlingDurationMs": 535030,
      "fuelConsumedMl": 1923,
      "fuelConsumedGallons": 0.508,
      "maxSpeedMph": 36.7,
      "averageSpeedMph": 12.1,
      "safetyEvents": []
    },
    {
      "id": "trip_47182289_20250703_356",
      "vehicleId": "47182289",
      "driverId": "20000004",
      "startMs": 1751565538000,
      "endMs": 1751567638000,
      "startAddress": "0399 Thomas Fork Suite 792",
      "endAddress": "10735 David Ranch Suite 220",
      "startCoords": {
        "latitude": 39.738731,
        "longitude": -105.009305
      },
      "endCoords": {
        "latitude": 39.79733,
        "longitude": -104.958748
      },
      "distanceMeters": 12884.3,
      "durationMs": 2100000,
      "drivingDurationMs": 1671725,
      "idlingDurationMs": 428275,
      "fuelConsumedMl": 1639,
      "fuelConsumedGallons": 0.433,
      "maxSpeedMph": 26.5,
      "averageSpeedMph": 13.7,
      "safetyEvents": []
    },
    {
      "id": "trip_47182289_20250704_392",
      "vehicleId": "47182289",
      "driverId": "20000016",
      "startMs": 1751589598000,
      "endMs": 1751601635000,
      "startAddress": "3031 Simpson Point Suite 192",
      "endAddress": "54872 Melissa Divide Suite 025",
      "startCoords": {
        "latitude": 39.689554,
        "longitude": -104.944382
      },
      "endCoords": {
        "latitude": 39.717133,
        "longitude": -105.037956
      },
      "distanceMeters": 52966.0,
      "durationMs": 12037000,
      "drivingDurationMs": 9511629,
      "idlingDurationMs": 2525371,
      "fuelConsumedMl": 6734,
      "fuelConsumedGallons": 1.779,
      "maxSpeedMph": 38.9,
      "averageSpeedMph": 9.8,
      "safetyEvents": []
    },
    {
      "id": "trip_47182289_20250704_420",
      "vehicleId": "47182289",
      "driverId": "20000018",
      "startMs": 1751608485000,
      "endMs": 1751610945000,
      "startAddress": "86417 Brown Roads",
      "endAddress": "23641 Lawson Manors",
      "startCoords": {
        "latitude": 39.772404,
        "longitude": -104.960842
      },
      "endCoords": {
        "latitude": 39.735582,
        "longitude": -104.96442
      },
      "distanceMeters": 16303.6,
      "durationMs": 2460000,
      "drivingDurationMs": 2025608,
      "idlingDurationMs": 434392,
      "fuelConsumedMl": 2074,
      "fuelConsumedGallons": 0.548,
      "maxSpeedMph": 35.6,
      "averageSpeedMph": 14.8,
      "safetyEvents": []
    },
    {
      "id": "trip_47182289_20250704_449",
      "vehicleId": "47182289",
      "driverId": "20000011",
      "startMs": 1751624996000,
      "endMs": 1751626796000,
      "startAddress": "85023 Kathy Dam Suite 532",
      "endAddress": "55149 Moore Ranch Apt. 322",
      "startCoords": {
        "latitude": 39.717548,
        "longitude": -105.040349
      },
      "endCoords": {
        "latitude": 39.790953,
        "longitude": -104.94659
      },
      "distanceMeters": 7850.8,
      "durationMs": 1800000,
      "drivingDurationMs": 1389363,
      "idlingDurationMs": 410637,
      "fuelConsumedMl": 999,
      "fuelConsumedGallons": 0.264,
      "maxSpeedMph": 27.6,
      "averageSpeedMph": 9.8,
      "safetyEvents": []
    },
    {
      "id": "trip_47182289_20250704_480",
      "vehicleId": "47182289",
      "driverId": "20000008",
      "startMs": 1751639138000,
      "endMs": 1751641498000,
      "startAddress": "138 Travis Vista",
      "endAddress": "780 Butler Island",
      "startCoords": {
        "latitude": 39.690038,
        "longitude": -104.911191
      },
      "endCoords": {
        "latitude": 39.709478,
        "longitude": -105.081831
      },
      "distanceMeters": 13066.9,
      "durationMs": 2360000,
      "drivingDurationMs": 2089925,
      "idlingDurationMs": 270075,
      "fuelConsumedMl": 1662,
      "fuelConsumedGallons": 0.439,
      "maxSpeedMph": 35.0,
      "averageSpeedMph": 12.4,
      "safetyEvents": []
    },
    {
      "id": "trip_47182289_20250704_509",
      "vehicleId": "47182289",
      "driverId": "20000013",
      "startMs": 1751651436000,
      "endMs": 1751661618000,
      "startAddress": "466 Holmes Street Suite 416",
      "endAddress": "1206 Daniel Isle",
      "startCoords": {
        "latitude": 39.738014,
        "longitude": -104.917169
      },
      "endCoords": {
        "latitude": 39.759663,
        "longitude": -105.039632
      },
      "distanceMeters": 71777.2,
      "durationMs": 10182000,
      "drivingDurationMs": 8102218,
      "idlingDurationMs": 2079782,
      "fuelConsumedMl": 9127,
      "fuelConsumedGallons": 2.411,
      "maxSpeedMph": 35.2,
      "averageSpeedMph": 15.8,
      "safetyEvents": []
    },
    {
      "id": "trip_47182289_20250705_542",
      "vehicleId": "47182289",
      "driverId": "20000016",
      "startMs": 1751674525000,
      "endMs": 1751686265000,
      "startAddress": "601 Arthur Branch Suite 886",
      "endAddress": "073 Robert Hollow Suite 893",
      "startCoords": {
        "latitude": 39.691665,
        "longitude": -105.02202
      },
      "endCoords": {
        "latitude": 39.704683,
        "longitude": -105.081613
      },
      "distanceMeters": 83534.3,
      "durationMs": 11740000,
      "drivingDurationMs": 10200350,
      "idlingDurationMs": 1539650,
      "fuelConsumedMl": 10622,
      "fuelConsumedGallons": 2.806,
      "maxSpeedMph": 28.4,
      "averageSpeedMph": 15.9,
      "safetyEvents": []
    },
    {
      "id": "trip_47182289_20250705_573",
      "vehicleId": "47182289",
      "driverId": "20000004",
      "startMs": 1751696895000,
      "endMs": 1751698995000,
      "startAddress": "288 Evans Squares",
      "endAddress": "20753 Gabriella View Apt. 685",
      "startCoords": {
        "latitude": 39.720925,
        "longitude": -105.019304
      },
      "endCoords": {
        "latitude": 39.710157,
        "longitude": -104.915056
      },
      "distanceMeters": 16020.6,
      "durationMs": 2100000,
      "drivingDurationMs": 1844728,
      "idlingDurationMs": 255272,
      "fuelConsumedMl": 2037,
      "fuelConsumedGallons": 0.538,
      "maxSpeedMph": 38.3,
      "averageSpeedMph": 17.1,
      "safetyEvents": []
    },
    {
      "id": "trip_47182289_20250705_601",
      "vehicleId": "47182289",
      "driverId": "20000017",
      "startMs": 1751715379000,
      "endMs": 1751717359000,
      "startAddress": "0687 Reynolds Mountains",
      "endAddress": "1812 John Stravenue",
      "startCoords": {
        "latitude": 39.709791,
        "longitude": -104.988444
      },
      "endCoords": {
        "latitude": 39.688498,
        "longitude": -104.902481
      },
      "distanceMeters": 8804.9,
      "durationMs": 1980000,
      "drivingDurationMs": 1549589,
      "idlingDurationMs": 430411,
      "fuelConsumedMl": 1120,
      "fuelConsumedGallons": 0.296,
      "maxSpeedMph": 29.1,
      "averageSpeedMph": 9.9,
      "safetyEvents": []
    },
    {
      "id": "trip_47182289_20250705_633",
      "vehicleId": "47182289",
      "driverId": "20000013",
      "startMs": 1751728970000,
      "endMs": 1751731250000,
      "startAddress": "0891 Williams Lakes",
      "endAddress": "91845 Mccullough Shoal",
      "startCoords": {
        "latitude": 39.723208,
        "longitude": -104.94512
      },
      "endCoords": {
        "latitude": 39.707951,
        "longitude": -105.018084
      },
      "distanceMeters": 10316.7,
      "durationMs": 2280000,
      "drivingDurationMs": 1992681,
      "idlingDurationMs": 287319,
      "fuelConsumedMl": 1314,
      "fuelConsumedGallons": 0.347,
      "maxSpeedMph": 26.7,
      "averageSpeedMph": 10.1,
      "safetyEvents": []
    },
    {
      "id": "trip_47182289_20250705_663",
      "vehicleId": "47182289",
      "driverId": "20000002",
      "startMs": 1751746349000,
      "endMs": 1751748749000,
      "startAddress": "71734 Joshua Lights Apt. 954",
      "endAddress": "006 Laura Gateway Apt. 079",
      "startCoords": {
        "latitude": 39.748878,
        "longitude": -105.01842
      },
      "endCoords": {
        "latitude": 39.780781,
        "longitude": -104.957229
      },
      "distanceMeters": 13167.7,
      "durationMs": 2400000,
      "drivingDurationMs": 1862864,
      "idlingDurationMs": 537136,
      "fuelConsumedMl": 1673,
      "fuelConsumedGallons": 0.442,
      "maxSpeedMph": 38.4,
      "averageSpeedMph": 12.3,
      "safetyEvents": []
    },
    {
      "id": "trip_47182289_20250706_689",
      "vehicleId": "47182289",
      "driverId": "20000013",
      "startMs": 1751772725000,
      "endMs": 1751774825000,
      "startAddress": "031 Walter Valley Suite 859",
      "endAddress": "185 Dorothy Stravenue",
      "startCoords": {
        "latitude": 39.823638,
        "longitude": -104.974985
      },
      "endCoords": {
        "latitude": 39.735873,
        "longitude": -104.997273
      },
      "distanceMeters": 8428.0,
      "durationMs": 2100000,
      "drivingDurationMs": 1649114,
      "idlingDurationMs": 450886,
      "fuelConsumedMl": 1071,
      "fuelConsumedGallons": 0.283,
      "maxSpeedMph": 32.7,
      "averageSpeedMph": 9.0,
      "safetyEvents": []
    },
    {
      "id": "trip_47182289_20250706_714",
      "vehicleId": "47182289",
      "driverId": "20000022",
      "startMs": 1751796204000,
      "endMs": 1751797704000,
      "startAddress": "87309 Williams Road",
      "endAddress": "77312 Zhang Harbor",
      "startCoords": {
        "latitude": 39.742004,
        "longitude": -105.043883
      },
      "endCoords": {
        "latitude": 39.744947,
        "longitude": -104.993768
      },
      "distanceMeters": 7535.0,
      "durationMs": 1500000,
      "drivingDurationMs": 1304941,
      "idlingDurationMs": 195059,
      "fuelConsumedMl": 958,
      "fuelConsumedGallons": 0.253,
      "maxSpeedMph": 37.6,
      "averageSpeedMph": 11.2,
      "safetyEvents": []
    },
    {
      "id": "trip_47182289_20250706_746",
      "vehicleId": "47182289",
      "driverId": "20000018",
      "startMs": 1751820590000,
      "endMs": 1751822930000,
      "startAddress": "7376 Cooper Mill",
      "endAddress": "72757 Matthew Inlet Apt. 471",
      "startCoords": {
        "latitude": 39.803704,
        "longitude": -104.948944
      },
      "endCoords": {
        "latitude": 39.799885,
        "longitude": -104.947678
      },
      "distanceMeters": 13452.5,
      "durationMs": 2340000,
      "drivingDurationMs": 1834610,
      "idlingDurationMs": 505390,
      "fuelConsumedMl": 1711,
      "fuelConsumedGallons": 0.452,
      "maxSpeedMph": 30.2,
      "averageSpeedMph": 12.9,
      "safetyEvents": []
    },
    {
      "id": "trip_47182289_20250707_774",
      "vehicleId": "47182289",
      "driverId": "20000007",
      "startMs": 1751852890000,
      "endMs": 1751855470000,
      "startAddress": "75304 Michael Flat Apt. 984",
      "endAddress": "50755 Allison Parkway",
      "startCoords": {
        "latitude": 39.817309,
        "longitude": -104.990405
      },
      "endCoords": {
        "latitude": 39.746542,
        "longitude": -105.056662
      },
      "distanceMeters": 18895.3,
      "durationMs": 2580000,
      "drivingDurationMs": 2220135,
      "idlingDurationMs": 359865,
      "fuelConsumedMl": 2404,
      "fuelConsumedGallons": 0.635,
      "maxSpeedMph": 37.4,
      "averageSpeedMph": 16.4,
      "safetyEvents": []
    },
    {
      "id": "trip_47182289_20250707_804",
      "vehicleId": "47182289",
      "driverId": "20000001",
      "startMs": 1751884791000,
      "endMs": 1751886891000,
      "startAddress": "33085 Campbell Pines",
      "endAddress": "66020 Christopher Mountains Apt. 210",
      "startCoords": {
        "latitude": 39.789109,
        "longitude": -104.899666
      },
      "endCoords": {
        "latitude": 39.689064,
        "longitude": -105.012484
      },
      "distanceMeters": 11472.1,
      "durationMs": 2100000,
      "drivingDurationMs": 1733853,
      "idlingDurationMs": 366147,
      "fuelConsumedMl": 1457,
      "fuelConsumedGallons": 0.385,
      "maxSpeedMph": 33.9,
      "averageSpeedMph": 12.2,
      "safetyEvents": []
    },
    {
      "id": "trip_47182289_20250707_830",
      "vehicleId": "47182289",
      "driverId": "20000014",
      "startMs": 1751900202000,
      "endMs": 1751922823000,
      "startAddress": "39593 Roman Crescent",
      "endAddress": "27066 Anna Islands Apt. 608",
      "startCoords": {
        "latitude": 39.761556,
        "longitude": -105.039023
      },
      "endCoords": {
        "latitude": 39.803689,
        "longitude": -105.030505
      },
      "distanceMeters": 151530.1,
      "durationMs": 22621000,
      "drivingDurationMs": 20279427,
      "idlingDurationMs": 2341573,
      "fuelConsumedMl": 19268,
      "fuelConsumedGallons": 5.09,
      "maxSpeedMph": 38.2,
      "averageSpeedMph": 15.0,
      "safetyEvents": []
    },
    {
      "id": "trip_47182289_20250707_875",
      "vehicleId": "47182289",
      "driverId": "20000009",
      "startMs": 1751924137000,
      "endMs": 1751925817000,
      "startAddress": "475 Luna Flats Suite 704",
      "endAddress": "678 Carrie Lakes",
      "startCoords": {
        "latitude": 39.781844,
        "longitude": -104.921487
      },
      "endCoords": {
        "latitude": 39.68401,
        "longitude": -105.00732
      },
      "distanceMeters": 11764.4,
      "durationMs": 1680000,
      "drivingDurationMs": 1341211,
      "idlingDurationMs": 338789,
      "fuelConsumedMl": 1495,
      "fuelConsumedGallons": 0.395,
      "maxSpeedMph": 34.4,
      "averageSpeedMph": 15.7,
      "safetyEvents": []
    },
    {
      "id": "trip_47182289_20250708_902",
      "vehicleId": "47182289",
      "driverId": "20000016",
      "startMs": 1751942856000,
      "endMs": 1751944476000,
      "startAddress": "43896 Banks Locks Suite 508",
      "endAddress": "95322 Andrew Drive Suite 876",
      "startCoords": {
        "latitude": 39.729559,
        "longitude": -105.006863
      },
      "endCoords": {
        "latitude": 39.775424,
        "longitude": -104.91435
      },
      "distanceMeters": 7622.8,
      "durationMs": 1620000,
      "drivingDurationMs": 1328589,
      "idlingDurationMs": 291411,
      "fuelConsumedMl": 969,
      "fuelConsumedGallons": 0.256,
      "maxSpeedMph": 35.5,
      "averageSpeedMph": 10.5,
      "safetyEvents": []
    },
    {
      "id": "trip_47182289_20250708_008",
      "vehicleId": "47182289",
      "driverId": "20000017",
      "startMs": 1751966093000,
      "endMs": 1751967893000,
      "startAddress": "15167 Gallagher Station",
      "endAddress": "463 Elizabeth Ridges Suite 348",
      "startCoords": {
        "latitude": 39.734337,
        "longitude": -104.907346
      },
      "endCoords": {
        "latitude": 39.776765,
        "longitude": -105.059917
      },
      "distanceMeters": 11073.0,
      "durationMs": 1800000,
      "drivingDurationMs": 1567646,
      "idlingDurationMs": 232354,
      "fuelConsumedMl": 1408,
      "fuelConsumedGallons": 0.372,
      "maxSpeedMph": 36.7,
      "averageSpeedMph": 13.8,
      "safetyEvents": []
    },
    {
      "id": "trip_47182289_20250708_935",
      "vehicleId": "47182289",
      "driverId": "20000011",
      "startMs": 1751969789000,
      "endMs": 1751971889000,
      "startAddress": "150 Jeffery Highway",
      "endAddress": "734 Williams Expressway",
      "startCoords": {
        "latitude": 39.713619,
        "longitude": -105.079316
      },
      "endCoords": {
        "latitude": 39.687579,
        "longitude": -104.96746
      },
      "distanceMeters": 14141.9,
      "durationMs": 2100000,
      "drivingDurationMs": 1760820,
      "idlingDurationMs": 339180,
      "fuelConsumedMl": 1798,
      "fuelConsumedGallons": 0.475,
      "maxSpeedMph": 28.1,
      "averageSpeedMph": 15.1,
      "safetyEvents": []
    },
    {
      "id": "trip_47182289_20250708_035",
      "vehicleId": "47182289",
      "driverId": "20000005",
      "startMs": 1751982225000,
      "endMs": 1751987184000,
      "startAddress": "57846 Brown Pike",
      "endAddress": "858 Maria Plains Apt. 567",
      "startCoords": {
        "latitude": 39.775829,
        "longitude": -104.970483
      },
      "endCoords": {
        "latitude": 39.692781,
        "longitude": -104.930223
      },
      "distanceMeters": 25903.2,
      "durationMs": 4959000,
      "drivingDurationMs": 4372463,
      "idlingDurationMs": 586537,
      "fuelConsumedMl": 3293,
      "fuelConsumedGallons": 0.87,
      "maxSpeedMph": 29.2,
      "averageSpeedMph": 11.7,
      "safetyEvents": []
    },
    {
      "id": "trip_47182289_20250708_063",
      "vehicleId": "47182289",
      "driverId": "20000019",
      "startMs": 1751997282000,
      "endMs": 1751999802000,
      "startAddress": "648 Holly Via",
      "endAddress": "4036 Pittman Pass Apt. 159",
      "startCoords": {
        "latitude": 39.776123,
        "longitude": -104.976318
      },
      "endCoords": {
        "latitude": 39.767425,
        "longitude": -105.055492
      },
      "distanceMeters": 15126.9,
      "durationMs": 2520000,
      "drivingDurationMs": 2035746,
      "idlingDurationMs": 484254,
      "fuelConsumedMl": 1923,
      "fuelConsumedGallons": 0.508,
      "maxSpeedMph": 27.1,
      "averageSpeedMph": 13.4,
      "safetyEvents": []
    },
    {
      "id": "trip_47182289_20250708_093",
      "vehicleId": "47182289",
      "driverId": "20000011",
      "startMs": 1752014433000,
      "endMs": 1752016637000,
      "startAddress": "4693 Rivera Crossing Apt. 359",
      "endAddress": "8768 Nicholas Mountain Apt. 237",
      "startCoords": {
        "latitude": 39.824688,
        "longitude": -105.057988
      },
      "endCoords": {
        "latitude": 39.777839,
        "longitude": -104.921949
      },
      "distanceMeters": 14825.1,
      "durationMs": 2204000,
      "drivingDurationMs": 1938153,
      "idlingDurationMs": 265847,
      "fuelConsumedMl": 1885,
      "fuelConsumedGallons": 0.498,
      "maxSpeedMph": 39.3,
      "averageSpeedMph": 15.0,
      "safetyEvents": []
    },
    {
      "id": "trip_47182289_20250709_123",
      "vehicleId": "47182289",
      "driverId": "20000013",
      "startMs": 1752038598000,
      "endMs": 1752040878000,
      "startAddress": "182 Deborah Overpass Apt. 669",
      "endAddress": "07923 Maxwell Radial",
      "startCoords": {
        "latitude": 39.710233,
        "longitude": -104.986461
      },
      "endCoords": {
        "latitude": 39.718462,
        "longitude": -105.0453
      },
      "distanceMeters": 14740.3,
      "durationMs": 2280000,
      "drivingDurationMs": 1912375,
      "idlingDurationMs": 367625,
      "fuelConsumedMl": 1874,
      "fuelConsumedGallons": 0.495,
      "maxSpeedMph": 30.0,
      "averageSpeedMph": 14.5,
      "safetyEvents": []
    },
    {
      "id": "trip_47182289_20250709_154",
      "vehicleId": "47182289",
      "driverId": "20000018",
      "startMs": 1752054581000,
      "endMs": 1752055901000,
      "startAddress": "2607 Kimberly Trail",
      "endAddress": "48967 Angela Dam",
      "startCoords": {
        "latitude": 39.685507,
        "longitude": -105.009824
      },
      "endCoords": {
        "latitude": 39.796041,
        "longitude": -104.951276
      },
      "distanceMeters": 7560.6,
      "durationMs": 1320000,
      "drivingDurationMs": 1032681,
      "idlingDurationMs": 287319,
      "fuelConsumedMl": 961,
      "fuelConsumedGallons": 0.254,
      "maxSpeedMph": 37.9,
      "averageSpeedMph": 12.8,
      "safetyEvents": []
    },
    {
      "id": "trip_47182289_20250709_182",
      "vehicleId": "47182289",
      "driverId": "20000007",
      "startMs": 1752067031000,
      "endMs": 1752078466000,
      "startAddress": "0313 Vincent Hollow",
      "endAddress": "22061 Daniel Garden Apt. 359",
      "startCoords": {
        "latitude": 39.742702,
        "longitude": -104.995157
      },
      "endCoords": {
        "latitude": 39.786091,
        "longitude": -105.004169
      },
      "distanceMeters": 60569.4,
      "durationMs": 11435000,
      "drivingDurationMs": 9328246,
      "idlingDurationMs": 2106754,
      "fuelConsumedMl": 7700,
      "fuelConsumedGallons": 2.034,
      "maxSpeedMph": 34.9,
      "averageSpeedMph": 11.8,
      "safetyEvents": []
    },
    {
      "id": "trip_47182289_20250709_211",
      "vehicleId": "47182289",
      "driverId": "20000015",
      "startMs": 1752081653000,
      "endMs": 1752093822000,
      "startAddress": "24265 Kimberly Road Apt. 221",
      "endAddress": "3907 Michael Haven",
      "startCoords": {
        "latitude": 39.751622,
        "longitude": -104.90186
      },
      "endCoords": {
        "latitude": 39.694249,
        "longitude": -104.977155
      },
      "distanceMeters": 66067.0,
      "durationMs": 12169000,
      "drivingDurationMs": 9954809,
      "idlingDurationMs": 2214191,
      "fuelConsumedMl": 8400,
      "fuelConsumedGallons": 2.219,
      "maxSpeedMph": 28.3,
      "averageSpeedMph": 12.1,
      "safetyEvents": []
    },
    {
      "id": "trip_47182289_20250709_241",
      "vehicleId": "47182289",
      "driverId": "20000007",
      "startMs": 1752098334000,
      "endMs": 1752100494000,
      "startAddress": "8514 Brian Land",
      "endAddress": "4502 Kristen Freeway",
      "startCoords": {
        "latitude": 39.819552,
        "longitude": -105.078186
      },
      "endCoords": {
        "latitude": 39.816936,
        "longitude": -105.006182
      },
      "distanceMeters": 13951.5,
      "durationMs": 2160000,
      "drivingDurationMs": 1681921,
      "idlingDurationMs": 478079,
      "fuelConsumedMl": 1775,
      "fuelConsumedGallons": 0.469,
      "maxSpeedMph": 27.6,
      "averageSpeedMph": 14.4,
      "safetyEvents": []
    },
    {
      "id": "trip_47182289_20250710_269",
      "vehicleId": "47182289",
      "driverId": "20000008",
      "startMs": 1752119197000,
      "endMs": 1752121117000,
      "startAddress": "323 Edwards Bridge Apt. 814",
      "endAddress": "2484 Elizabeth Skyway Apt. 243",
      "startCoords": {
        "latitude": 39.773831,
        "longitude": -104.997303
      },
      "endCoords": {
        "latitude": 39.697708,
        "longitude": -105.048762
      },
      "distanceMeters": 8539.1,
      "durationMs": 1920000,
      "drivingDurationMs": 1702763,
      "idlingDurationMs": 217237,
      "fuelConsumedMl": 1086,
      "fuelConsumedGallons": 0.287,
      "maxSpeedMph": 37.3,
      "averageSpeedMph": 9.9,
      "safetyEvents": []
    },
    {
      "id": "trip_47182289_20250710_299",
      "vehicleId": "47182289",
      "driverId": "20000005",
      "startMs": 1752138106000,
      "endMs": 1752139966000,
      "startAddress": "8918 Jessica Flat",
      "endAddress": "6342 Larry Estate",
      "startCoords": {
        "latitude": 39.687397,
        "longitude": -104.994095
      },
      "endCoords": {
        "latitude": 39.726338,
        "longitude": -104.917005
      },
      "distanceMeters": 10414.7,
      "durationMs": 1860000,
      "drivingDurationMs": 1584836,
      "idlingDurationMs": 275164,
      "fuelConsumedMl": 1325,
      "fuelConsumedGallons": 0.35,
      "maxSpeedMph": 27.8,
      "averageSpeedMph": 12.5,
      "safetyEvents": []
    },
    {
      "id": "trip_47182289_20250710_329",
      "vehicleId": "47182289",
      "driverId": "20000008",
      "startMs": 1752151461000,
      "endMs": 1752153321000,
      "startAddress": "28555 Mary Spring",
      "endAddress": "9475 Desiree Lodge Apt. 284",
      "startCoords": {
        "latitude": 39.771852,
        "longitude": -104.92535
      },
      "endCoords": {
        "latitude": 39.810568,
        "longitude": -104.950818
      },
      "distanceMeters": 10079.0,
      "durationMs": 1860000,
      "drivingDurationMs": 1503441,
      "idlingDurationMs": 356559,
      "fuelConsumedMl": 1283,
      "fuelConsumedGallons": 0.339,
      "maxSpeedMph": 36.7,
      "averageSpeedMph": 12.1,
      "safetyEvents": []
    },
    {
      "id": "trip_47182289_20250710_358",
      "vehicleId": "47182289",
      "driverId": "20000006",
      "startMs": 1752170113000,
      "endMs": 1752177299000,
      "startAddress": "306 Pena Field Suite 786",
      "endAddress": "94128 Sanchez Stravenue Apt. 064",
      "startCoords": {
        "latitude": 39.736736,
        "longitude": -104.976963
      },
      "endCoords": {
        "latitude": 39.790171,
        "longitude": -105.050735
      },
      "distanceMeters": 33994.7,
      "durationMs": 7186000,
      "drivingDurationMs": 5784239,
      "idlingDurationMs": 1401761,
      "fuelConsumedMl": 4323,
      "fuelConsumedGallons": 1.142,
      "maxSpeedMph": 35.7,
      "averageSpeedMph": 10.6,
      "safetyEvents": []
    },
    {
      "id": "trip_47182289_20250710_392",
      "vehicleId": "47182289",
      "driverId": "20000008",
      "startMs": 1752191006000,
      "endMs": 1752192266000,
      "startAddress": "3031 Simpson Point Suite 192",
      "endAddress": "54872 Melissa Divide Suite 025",
      "startCoords": {
        "latitude": 39.689554,
        "longitude": -104.944382
      },
      "endCoords": {
        "latitude": 39.717133,
        "longitude": -105.037956
      },
      "distanceMeters": 5544.3,
      "durationMs": 1260000,
      "drivingDurationMs": 995651,
      "idlingDurationMs": 264349,
      "fuelConsumedMl": 704,
      "fuelConsumedGallons": 0.186,
      "maxSpeedMph": 38.9,
      "averageSpeedMph": 9.8,
      "safetyEvents": []
    },
    {
      "id": "trip_47182289_20250711_422",
      "vehicleId": "47182289",
      "driverId": "20000005",
      "startMs": 1752210176000,
      "endMs": 1752211856000,
      "startAddress": "671 Oscar Rapids",
      "endAddress": "9499 Singleton Expressway",
      "startCoords": {
        "latitude": 39.762948,
        "longitude": -104.951033
      },
      "endCoords": {
        "latitude": 39.764321,
        "longitude": -104.977989
      },
      "distanceMeters": 6753.2,
      "durationMs": 1680000,
      "drivingDurationMs": 1334687,
      "idlingDurationMs": 345313,
      "fuelConsumedMl": 859,
      "fuelConsumedGallons": 0.227,
      "maxSpeedMph": 38.6,
      "averageSpeedMph": 9.0,
      "safetyEvents": []
    },
    {
      "id": "trip_47182289_20250711_450",
      "vehicleId": "47182289",
      "driverId": "20000004",
      "startMs": 1752228669000,
      "endMs": 1752230849000,
      "startAddress": "7714 Sparks Isle",
      "endAddress": "355 Cooper Mission",
      "startCoords": {
        "latitude": 39.818761,
        "longitude": -104.998647
      },
      "endCoords": {
        "latitude": 39.691487,
        "longitude": -104.942601
      },
      "distanceMeters": 10661.2,
      "durationMs": 2180000,
      "drivingDurationMs": 1832166,
      "idlingDurationMs": 347834,
      "fuelConsumedMl": 1355,
      "fuelConsumedGallons": 0.358,
      "maxSpeedMph": 27.2,
      "averageSpeedMph": 10.9,
      "safetyEvents": []
    },
    {
      "id": "trip_47182289_20250711_481",
      "vehicleId": "47182289",
      "driverId": "20000009",
      "startMs": 1752242140000,
      "endMs": 1752250284000,
      "startAddress": "9858 Bennett Knoll Suite 541",
      "endAddress": "88252 Sharon Shore",
      "startCoords": {
        "latitude": 39.776233,
        "longitude": -105.01457
      },
      "endCoords": {
        "latitude": 39.754346,
        "longitude": -104.970264
      },
      "distanceMeters": 38431.7,
      "durationMs": 8144000,
      "drivingDurationMs": 7095521,
      "idlingDurationMs": 1048479,
      "fuelConsumedMl": 4887,
      "fuelConsumedGallons": 1.291,
      "maxSpeedMph": 26.3,
      "averageSpeedMph": 10.6,
      "safetyEvents": []
    },
    {
      "id": "trip_47182289_20250711_511",
      "vehicleId": "47182289",
      "driverId": "20000011",
      "startMs": 1752255932000,
      "endMs": 1752258152000,
      "startAddress": "436 Charles Plain",
      "endAddress": "14603 Jones Path Apt. 605",
      "startCoords": {
        "latitude": 39.735651,
        "longitude": -105.067409
      },
      "endCoords": {
        "latitude": 39.725889,
        "longitude": -104.92143
      },
      "distanceMeters": 13450.3,
      "durationMs": 2220000,
      "drivingDurationMs": 1777227,
      "idlingDurationMs": 442773,
      "fuelConsumedMl": 1711,
      "fuelConsumedGallons": 0.452,
      "maxSpeedMph": 38.6,
      "averageSpeedMph": 13.6,
      "safetyEvents": []
    },
    {
      "id": "trip_47182289_20250711_543",
      "vehicleId": "47182289",
      "driverId": "20000009",
      "startMs": 1752278015000,
      "endMs": 1752280226000,
      "startAddress": "595 Davis Meadows Apt. 909",
      "endAddress": "1645 Alexis Keys",
      "startCoords": {
        "latitude": 39.69637,
        "longitude": -105.067221
      },
      "endCoords": {
        "latitude": 39.826969,
        "longitude": -105.057349
      },
      "distanceMeters": 12972.9,
      "durationMs": 2211000,
      "drivingDurationMs": 1789820,
      "idlingDurationMs": 421180,
      "fuelConsumedMl": 1650,
      "fuelConsumedGallons": 0.436,
      "maxSpeedMph": 30.5,
      "averageSpeedMph": 13.1,
      "safetyEvents": []
    },
    {
      "id": "trip_47182289_20250712_575",
      "vehicleId": "47182289",
      "driverId": "20000005",
      "startMs": 1752299759000,
      "endMs": 1752301679000,
      "startAddress": "5299 Velazquez Knoll Suite 443",
      "endAddress": "99711 Perez Viaduct",
      "startCoords": {
        "latitude": 39.766564,
        "longitude": -104.992104
      },
      "endCoords": {
        "latitude": 39.742205,
        "longitude": -104.953266
      },
      "distanceMeters": 13649.7,
      "durationMs": 1920000,
      "drivingDurationMs": 1646710,
      "idlingDurationMs": 273290,
      "fuelConsumedMl": 1734,
      "fuelConsumedGallons": 0.458,
      "maxSpeedMph": 30.7,
      "averageSpeedMph": 15.9,
      "safetyEvents": []
    },
    {
      "id": "trip_47182289_20250712_603",
      "vehicleId": "47182289",
      "driverId": "20000010",
      "startMs": 1752318628000,
      "endMs": 1752330110000,
      "startAddress": "4070 Rose Trace",
      "endAddress": "8483 Jeremy Path Suite 736",
      "startCoords": {
        "latitude": 39.767008,
        "longitude": -104.929255
      },
      "endCoords": {
        "latitude": 39.691559,
        "longitude": -105.037949
      },
      "distanceMeters": 68754.7,
      "durationMs": 11482000,
      "drivingDurationMs": 9083412,
      "idlingDurationMs": 2398588,
      "fuelConsumedMl": 8741,
      "fuelConsumedGallons": 2.309,
      "maxSpeedMph": 28.2,
      "averageSpeedMph": 13.4,
      "safetyEvents": []
    },
    {
      "id": "trip_47182289_20250712_634",
      "vehicleId": "47182289",
      "driverId": "20000014",
      "startMs": 1752332373000,
      "endMs": 1752335602000,
      "startAddress": "659 Matthew Curve Suite 025",
      "endAddress": "14358 Bradley Ways Apt. 775",
      "startCoords": {
        "latitude": 39.702953,
        "longitude": -104.938814
      },
      "endCoords": {
        "latitude": 39.774855,
        "longitude": -105.016917
      },
      "distanceMeters": 15729.5,
      "durationMs": 3229000,
      "drivingDurationMs": 2788091,
      "idlingDurationMs": 440909,
      "fuelConsumedMl": 1999,
      "fuelConsumedGallons": 0.528,
      "maxSpeedMph": 33.9,
      "averageSpeedMph": 10.9,
      "safetyEvents": []
    },
    {
      "id": "trip_47182289_20250712_665",
      "vehicleId": "47182289",
      "driverId": "20000006",
      "startMs": 1752350807000,
      "endMs": 1752354644000,
      "startAddress": "4185 Martinez Forge Apt. 665",
      "endAddress": "85915 Horton Island",
      "startCoords": {
        "latitude": 39.699876,
        "longitude": -105.059867
      },
      "endCoords": {
        "latitude": 39.705421,
        "longitude": -105.049269
      },
      "distanceMeters": 29748.9,
      "durationMs": 3837000,
      "drivingDurationMs": 3409013,
      "idlingDurationMs": 427987,
      "fuelConsumedMl": 3782,
      "fuelConsumedGallons": 0.999,
      "maxSpeedMph": 28.1,
      "averageSpeedMph": 17.3,
      "safetyEvents": []
    },
    {
      "id": "trip_47182289_20250713_691",
      "vehicleId": "47182289",
      "driverId": "20000020",
      "startMs": 1752375195000,
      "endMs": 1752378068000,
      "startAddress": "7020 Stuart Club Suite 378",
      "endAddress": "05555 Emily Grove Suite 078",
      "startCoords": {
        "latitude": 39.704793,
        "longitude": -105.000933
      },
      "endCoords": {
        "latitude": 39.783661,
        "longitude": -105.020445
      },
      "distanceMeters": 12538.1,
      "durationMs": 2873000,
      "drivingDurationMs": 2473852,
      "idlingDurationMs": 399148,
      "fuelConsumedMl": 1594,
      "fuelConsumedGallons": 0.421,
      "maxSpeedMph": 33.9,
      "averageSpeedMph": 9.8,
      "safetyEvents": []
    },
    {
      "id": "trip_47182289_20250713_714",
      "vehicleId": "47182289",
      "driverId": "20000009",
      "startMs": 1752397808000,
      "endMs": 1752399746000,
      "startAddress": "87309 Williams Road",
      "endAddress": "77312 Zhang Harbor",
      "startCoords": {
        "latitude": 39.742004,
        "longitude": -105.043883
      },
      "endCoords": {
        "latitude": 39.744947,
        "longitude": -104.993768
      },
      "distanceMeters": 9735.2,
      "durationMs": 1938000,
      "drivingDurationMs": 1685983,
      "idlingDurationMs": 252017,
      "fuelConsumedMl": 1238,
      "fuelConsumedGallons": 0.327,
      "maxSpeedMph": 37.6,
      "averageSpeedMph": 11.2,
      "safetyEvents": []
    },
    {
      "id": "trip_47182289_20250713_748",
      "vehicleId": "47182289",
      "driverId": "20000007",
      "startMs": 1752424053000,
      "endMs": 1752426213000,
      "startAddress": "13433 Samuel Mountains Suite 824",
      "endAddress": "3391 Carrie Rapids Apt. 371",
      "startCoords": {
        "latitude": 39.700011,
        "longitude": -104.984989
      },
      "endCoords": {
        "latitude": 39.752175,
        "longitude": -105.041347
      },
      "distanceMeters": 9241.0,
      "durationMs": 2160000,
      "drivingDurationMs": 1771156,
      "idlingDurationMs": 388844,
      "fuelConsumedMl": 1173,
      "fuelConsumedGallons": 0.31,
      "maxSpeedMph": 35.6,
      "averageSpeedMph": 9.6,
      "safetyEvents": []
    },
    {
      "id": "trip_47182289_20250713_776",
      "vehicleId": "47182289",
      "driverId": "20000013",
      "startMs": 1752449105000,
      "endMs": 1752450905000,
      "startAddress": "0172 Jackson Row Suite 328",
      "endAddress": "018 David Lake",
      "startCoords": {
        "latitude": 39.751511,
        "longitude": -105.056931
      },
      "endCoords": {
        "latitude": 39.751062,
        "longitude": -105.065878
      },
      "distanceMeters": 9205.7,
      "durationMs": 1800000,
      "drivingDurationMs": 1605267,
      "idlingDurationMs": 194733,
      "fuelConsumedMl": 1170,
      "fuelConsumedGallons": 0.309,
      "maxSpeedMph": 28.4,
      "averageSpeedMph": 11.4,
      "safetyEvents": []
    },
    {
      "id": "trip_47182289_20250714_804",
      "vehicleId": "47182289",
      "driverId": "20000022",
      "startMs": 1752488428000,
      "endMs": 1752492663000,
      "startAddress": "33085 Campbell Pines",
      "endAddress": "66020 Christopher Mountains Apt. 210",
      "startCoords": {
        "latitude": 39.789109,
        "longitude": -104.899666
      },
      "endCoords": {
        "latitude": 39.689064,
        "longitude": -105.012484
      },
      "distanceMeters": 23135.5,
      "durationMs": 4235000,
      "drivingDurationMs": 3496605,
      "idlingDurationMs": 738395,
      "fuelConsumedMl": 2941,
      "fuelConsumedGallons": 0.777,
      "maxSpeedMph": 33.9,
      "averageSpeedMph": 12.2,
      "safetyEvents": []
    },
    {
      "id": "trip_47182289_20250714_831",
      "vehicleId": "47182289",
      "driverId": "20000020",
      "startMs": 1752504128000,
      "endMs": 1752513623000,
      "startAddress": "072 Elizabeth Burgs Apt. 388",
      "endAddress": "20996 Phelps Meadow",
      "startCoords": {
        "latitude": 39.805037,
        "longitude": -105.038822
      },
      "endCoords": {
        "latitude": 39.756881,
        "longitude": -105.064412
      },
      "distanceMeters": 51995.1,
      "durationMs": 9495000,
      "drivingDurationMs": 7825863,
      "idlingDurationMs": 1669137,
      "fuelConsumedMl": 6609,
      "fuelConsumedGallons": 1.746,
      "maxSpeedMph": 36.0,
      "averageSpeedMph": 12.2,
      "safetyEvents": []
    },
    {
      "id": "trip_47182289_20250714_861",
      "vehicleId": "47182289",
      "driverId": "20000005",
      "startMs": 1752518691000,
      "endMs": 1752520491000,
      "startAddress": "65024 Penny Trail",
      "endAddress": "4407 Lauren Row",
      "startCoords": {
        "latitude": 39.827763,
        "longitude": -104.929141
      },
      "endCoords": {
        "latitude": 39.714395,
        "longitude": -104.929471
      },
      "distanceMeters": 9411.1,
      "durationMs": 1800000,
      "drivingDurationMs": 1552260,
      "idlingDurationMs": 247740,
      "fuelConsumedMl": 1196,
      "fuelConsumedGallons": 0.316,
      "maxSpeedMph": 35.3,
      "averageSpeedMph": 11.7,
      "safetyEvents": []
    },
    {
      "id": "trip_47182289_20250715_893",
      "vehicleId": "47182289",
      "driverId": "20000014",
      "startMs": 1752537905000,
      "endMs": 1752542686000,
      "startAddress": "6006 Matthew Key",
      "endAddress": "1797 Jones Prairie",
      "startCoords": {
        "latitude": 39.80654,
        "longitude": -104.981158
      },
      "endCoords": {
        "latitude": 39.732111,
        "longitude": -105.031316
      },
      "distanceMeters": 30513.6,
      "durationMs": 4781000,
      "drivingDurationMs": 3967702,
      "idlingDurationMs": 813298,
      "fuelConsumedMl": 3880,
      "fuelConsumedGallons": 1.025,
      "maxSpeedMph": 35.5,
      "averageSpeedMph": 14.3,
      "safetyEvents": []
    },
    {
      "id": "trip_47182289_20250715_922",
      "vehicleId": "47182289",
      "driverId": "20000001",
      "startMs": 1752560232000,
      "endMs": 1752564743000,
      "startAddress": "697 Wells Underpass Apt. 712",
      "endAddress": "56683 Jeffery Keys Apt. 695",
      "startCoords": {
        "latitude": 39.820476,
        "longitude": -105.075725
      },
      "endCoords": {
        "latitude": 39.73943,
        "longitude": -104.998348
      },
      "distanceMeters": 27447.4,
      "durationMs": 4511000,
      "drivingDurationMs": 3795407,
      "idlingDurationMs": 715593,
      "fuelConsumedMl": 3490,
      "fuelConsumedGallons": 0.922,
      "maxSpeedMph": 31.2,
      "averageSpeedMph": 13.6,
      "safetyEvents": []
    }
  ]
}