{
  "vehicleId": "48291007",
  "vehicleName": "DEN-CAR-08",
  "month": "2025_05",
  "pagination": {
    "endCursor": "trip_48291007_20250531_003",
    "hasNextPage": false
  },
  "trips": [
    {
      "id": "trip_48291007_20250501_001",
      "vehicleId": "48291007",
      "driverId": "22831006",
      "startMs": 1746106140000,
      "endMs": 1746110366894,
      "startLocation": {
        "latitude": 39.755361,
        "longitude": -104.96517
      },
      "endLocation": {
        "latitude": 39.784614,
        "longitude": -104.997018
      },
      "startAddress": "64672 Angela Cape",
      "endAddress": "111 David Manor Suite 114",
      "startCoords": {
        "latitude": 39.772772,
        "longitude": -105.07941
      },
      "endCoords": {
        "latitude": 39.820468,
        "longitude": -104.971918
      },
      "distanceMeters": 28397.6,
      "durationMs": 4226894,
      "drivingDurationMs": 3819638,
      "idlingDurationMs": 407257,
      "fuelConsumedMl": 3611,
      "fuelConsumedGallons": 0.954,
      "maxSpeedMph": 63.2,
      "averageSpeedMph": 15.0,
      "safetyEvents": [],
      "_no_driver_login": false,
      "_fuel_note": "QUIRK 5: fuelConsumedGallons is in US gallons. Multiply by 3.785 for litres. Samsara does not link fuel to specific Onfleet tasks."
    },
    {
      "id": "trip_48291007_20250501_002",
      "vehicleId": "48291007",
      "driverId": "22831006",
      "startMs": 1746111720000,
      "endMs": 1746118258129,
      "startLocation": {
        "latitude": 39.708354,
        "longitude": -104.955382
      },
      "endLocation": {
        "latitude": 39.771652,
        "longitude": -105.018465
      },
      "startAddress": "259 Francisco Locks Apt. 557",
      "endAddress": "15166 Cynthia Lock Apt. 625",
      "startCoords": {
        "latitude": 39.738789,
        "longitude": -104.917932
      },
      "endCoords": {
        "latitude": 39.700996,
        "longitude": -105.02781
      },
      "distanceMeters": 41532.0,
      "durationMs": 6538130,
      "drivingDurationMs": 5314764,
      "idlingDurationMs": 1223365,
      "fuelConsumedMl": 5281,
      "fuelConsumedGallons": 1.395,
      "maxSpeedMph": 60.9,
      "averageSpeedMph": 14.2,
      "safetyEvents": [],
      "_no_driver_login": false,
      "_fuel_note": ""
    },
    {
      "id": "trip_48291007_20250501_003",
      "vehicleId": "48291007",
      "driverId": "22831006",
      "startMs": 1746084780000,
      "endMs": 1746093861090,
      "startLocation": {
        "latitude": 39.800965,
        "longitude": -105.06245
      },
      "endLocation": {
        "latitude": 39.689947,
        "longitude": -105.077905
      },
      "startAddress": "73941 Teresa Drive",
      "endAddress": "8973 Lewis Trail Apt. 242",
      "startCoords": {
        "latitude": 39.826458,
        "longitude": -104.938879
      },
      "endCoords": {
        "latitude": 39.716888,
        "longitude": -105.065063
      },
      "distanceMeters": 76599.7,
      "durationMs": 9081091,
      "drivingDurationMs": 8727267,
      "idlingDurationMs": 353824,
      "fuelConsumedMl": 9740,
      "fuelConsumedGallons": 2.573,
      "maxSpeedMph": 55.2,
      "averageSpeedMph": 18.9,
      "safetyEvents": [],
      "_no_driver_login": false,
      "_fuel_note": ""
    },
    {
      "id": "trip_48291007_20250501_004",
      "vehicleId": "48291007",
      "driverId": "22831006",
      "startMs": 1746115500000,
      "endMs": 1746125445595,
      "startLocation": {
        "latitude": 39.752749,
        "longitude": -105.086632
      },
      "endLocation": {
        "latitude": 39.815666,
        "longitude": -105.07903
      },
      "startAddress": "00945 Amy Shoal",
      "endAddress": "30913 Hall Locks Apt. 561",
      "startCoords": {
        "latitude": 39.699218,
        "longitude": -105.044128
      },
      "endCoords": {
        "latitude": 39.741833,
        "longitude": -104.974987
      },
      "distanceMeters": 65799.3,
      "durationMs": 9945596,
      "drivingDurationMs": 8573686,
      "idlingDurationMs": 1371910,
      "fuelConsumedMl": 8366,
      "fuelConsumedGallons": 2.21,
      "maxSpeedMph": 56.6,
      "averageSpeedMph": 14.8,
      "safetyEvents": [],
      "_no_driver_login": false,
      "_fuel_note": ""
    },
    {
      "id": "trip_48291007_20250501_005",
      "vehicleId": "48291007",
      "driverId": "22831006",
      "startMs": 1746119340000,
      "endMs": 1746124863523,
      "startLocation": {
        "latitude": 39.769908,
        "longitude": -105.07048
      },
      "endLocation": {
        "latitude": 39.709757,
        "longitude": -104.929039
      },
      "startAddress": "0416 Larry Point",
      "endAddress": "089 Adrian Parks Apt. 111",
      "startCoords": {
        "latitude": 39.813696,
        "longitude": -104.938564
      },
      "endCoords": {
        "latitude": 39.722666,
        "longitude": -105.083587
      },
      "distanceMeters": 45306.3,
      "durationMs": 5523524,
      "drivingDurationMs": 5335625,
      "idlingDurationMs": 187899,
      "fuelConsumedMl": 5761,
      "fuelConsumedGallons": 1.522,
      "maxSpeedMph": 67.0,
      "averageSpeedMph": 18.3,
      "safetyEvents": [
        {
          "type": "speeding",
          "startMs": 1746120540000,
          "maxSpeedMph": 67.0
        }
      ],
      "_no_driver_login": false,
      "_fuel_note": ""
    },
    {
      "id": "trip_48291007_20250501_006",
      "vehicleId": "48291007",
      "driverId": "22831006",
      "startMs": 1746111240000,
      "endMs": 1746120947973,
      "startLocation": {
        "latitude": 39.799051,
        "longitude": -105.057467
      },
      "endLocation": {
        "latitude": 39.739926,
        "longitude": -105.02832
      },
      "startAddress": "0928 Brittany Station",
      "endAddress": "3757 Davidson Islands Apt. 652",
      "startCoords": {
        "latitude": 39.703385,
        "longitude": -104.910869
      },
      "endCoords": {
        "latitude": 39.732303,
        "longitude": -104.98813
      },
      "distanceMeters": 57411.3,
      "durationMs": 9707973,
      "drivingDurationMs": 7937934,
      "idlingDurationMs": 1770039,
      "fuelConsumedMl": 7298,
      "fuelConsumedGallons": 1.928,
      "maxSpeedMph": 71.3,
      "averageSpeedMph": 13.2,
      "safetyEvents": [
        {
          "type": "speeding",
          "startMs": 1746117780000,
          "maxSpeedMph": 71.3
        }
      ],
      "_no_driver_login": false,
      "_fuel_note": ""
    },
    {
      "id": "trip_48291007_20250502_001",
      "vehicleId": "48291007",
      "driverId": "22831006",
      "startMs": 1746180060000,
      "endMs": 1746186241930,
      "startLocation": {
        "latitude": 39.807681,
        "longitude": -104.915088
      },
      "endLocation": {
        "latitude": 39.688711,
        "longitude": -105.017399
      },
      "startAddress": "510 Richards Shores Apt. 220",
      "endAddress": "19891 Ruiz Island Apt. 004",
      "startCoords": {
        "latitude": 39.78262,
        "longitude": -105.03659
      },
      "endCoords": {
        "latitude": 39.75004,
        "longitude": -105.038029
      },
      "distanceMeters": 30397.2,
      "durationMs": 6181931,
      "drivingDurationMs": 5876671,
      "idlingDurationMs": 305259,
      "fuelConsumedMl": 3865,
      "fuelConsumedGallons": 1.021,
      "maxSpeedMph": 64.3,
      "averageSpeedMph": 11.0,
      "safetyEvents": [],
      "_no_driver_login": false,
      "_fuel_note": "QUIRK 5: fuelConsumedGallons is in US gallons. Multiply by 3.785 for litres. Samsara does not link fuel to specific Onfleet tasks."
    },
    {
      "id": "trip_48291007_20250502_002",
      "vehicleId": "48291007",
      "driverId": "22831006",
      "startMs": 1746168300000,
      "endMs": 1746169310577,
      "startLocation": {
        "latitude": 39.764193,
        "longitude": -105.06581
      },
      "endLocation": {
        "latitude": 39.7291,
        "longitude": -105.065793
      },
      "startAddress": "924 Heather Brook Suite 667",
      "endAddress": "6482 Joseph Field Suite 751",
      "startCoords": {
        "latitude": 39.705543,
        "longitude": -104.995191
      },
      "endCoords": {
        "latitude": 39.726971,
        "longitude": -105.03686
      },
      "distanceMeters": 7360.9,
      "durationMs": 1010578,
      "drivingDurationMs": 830216,
      "idlingDurationMs": 180362,
      "fuelConsumedMl": 935,
      "fuelConsumedGallons": 0.247,
      "maxSpeedMph": 40.5,
      "averageSpeedMph": 16.3,
      "safetyEvents": [],
      "_no_driver_login": false,
      "_fuel_note": ""
    },
    {
      "id": "trip_48291007_20250503_001",
      "vehicleId": "48291007",
      "driverId": "22831006",
      "startMs": 1746275040000,
      "endMs": 1746285539507,
      "startLocation": {
        "latitude": 39.70569,
        "longitude": -105.006562
      },
      "endLocation": {
        "latitude": 39.788235,
        "longitude": -104.928808
      },
      "startAddress": "893 Walton Port Apt. 834",
      "endAddress": "1666 Dawn Road Suite 665",
      "startCoords": {
        "latitude": 39.764504,
        "longitude": -105.057538
      },
      "endCoords": {
        "latitude": 39.823324,
        "longitude": -104.928937
      },
      "distanceMeters": 51976.0,
      "durationMs": 10499508,
      "drivingDurationMs": 8530458,
      "idlingDurationMs": 1969050,
      "fuelConsumedMl": 6609,
      "fuelConsumedGallons": 1.746,
      "maxSpeedMph": 65.3,
      "averageSpeedMph": 11.1,
      "safetyEvents": [
        {
          "type": "speeding",
          "startMs": 1746285240000,
          "maxSpeedMph": 65.3
        }
      ],
      "_no_driver_login": false,
      "_fuel_note": "QUIRK 5: fuelConsumedGallons is in US gallons. Multiply by 3.785 for litres. Samsara does not link fuel to specific Onfleet tasks."
    },
    {
      "id": "trip_48291007_20250503_002",
      "vehicleId": "48291007",
      "driverId": "22831006",
      "startMs": 1746276420000,
      "endMs": 1746279721305,
      "startLocation": {
        "latitude": 39.743304,
        "longitude": -104.940887
      },
      "endLocation": {
        "latitude": 39.737699,
        "longitude": -105.003654
      },
      "startAddress": "59066 Castillo Greens",
      "endAddress": "8357 Martin Turnpike",
      "startCoords": {
        "latitude": 39.726019,
        "longitude": -104.989854
      },
      "endCoords": {
        "latitude": 39.791878,
        "longitude": -104.977904
      },
      "distanceMeters": 23776.7,
      "durationMs": 3301305,
      "drivingDurationMs": 2874382,
      "idlingDurationMs": 426923,
      "fuelConsumedMl": 3025,
      "fuelConsumedGallons": 0.799,
      "maxSpeedMph": 33.2,
      "averageSpeedMph": 16.1,
      "safetyEvents": [],
      "_no_driver_login": false,
      "_fuel_note": ""
    },
    {
      "id": "trip_48291007_20250504_001",
      "vehicleId": "48291007",
      "driverId": "22831006",
      "startMs": 1746367980000,
      "endMs": 1746369149158,
      "startLocation": {
        "latitude": 39.731502,
        "longitude": -104.943736
      },
      "endLocation": {
        "latitude": 39.699515,
        "longitude": -104.937603
      },
      "startAddress": "4486 Lynch Spring",
      "endAddress": "95217 Dustin Rapid",
      "startCoords": {
        "latitude": 39.826056,
        "longitude": -104.9054
      },
      "endCoords": {
        "latitude": 39.757644,
        "longitude": -104.963331
      },
      "distanceMeters": 7624.0,
      "durationMs": 1169158,
      "drivingDurationMs": 973797,
      "idlingDurationMs": 195361,
      "fuelConsumedMl": 969,
      "fuelConsumedGallons": 0.256,
      "maxSpeedMph": 29.0,
      "averageSpeedMph": 14.6,
      "safetyEvents": [],
      "_no_driver_login": false,
      "_fuel_note": "QUIRK 5: fuelConsumedGallons is in US gallons. Multiply by 3.785 for litres. Samsara does not link fuel to specific Onfleet tasks."
    },
    {
      "id": "trip_48291007_20250505_001",
      "vehicleId": "48291007",
      "driverId": null,
      "startMs": 1746444120000,
      "endMs": 1746461173075,
      "startLocation": {
        "latitude": 39.791448,
        "longitude": -104.904375
      },
      "endLocation": {
        "latitude": 39.72131,
        "longitude": -104.932084
      },
      "startAddress": "04189 Gomez Gardens",
      "endAddress": "67627 Rebecca Trace",
      "startCoords": {
        "latitude": 39.820964,
        "longitude": -105.060805
      },
      "endCoords": {
        "latitude": 39.699907,
        "longitude": -104.920202
      },
      "distanceMeters": 84064.3,
      "durationMs": 17053075,
      "drivingDurationMs": 13871372,
      "idlingDurationMs": 3181704,
      "fuelConsumedMl": 10690,
      "fuelConsumedGallons": 2.824,
      "maxSpeedMph": 61.4,
      "averageSpeedMph": 11.0,
      "safetyEvents": [],
      "_no_driver_login": true,
      "_fuel_note": "QUIRK 5: fuelConsumedGallons is in US gallons. Multiply by 3.785 for litres. Samsara does not link fuel to specific Onfleet tasks."
    },
    {
      "id": "trip_48291007_20250505_002",
      "vehicleId": "48291007",
      "driverId": "22831006",
      "startMs": 1746463620000,
      "endMs": 1746478296786,
      "startLocation": {
        "latitude": 39.812164,
        "longitude": -105.052291
      },
      "endLocation": {
        "latitude": 39.811931,
        "longitude": -104.982883
      },
      "startAddress": "947 Matthew Ferry Suite 578",
      "endAddress": "058 Arnold Fork",
      "startCoords": {
        "latitude": 39.698797,
        "longitude": -105.00858
      },
      "endCoords": {
        "latitude": 39.713762,
        "longitude": -104.951207
      },
      "distanceMeters": 75505.7,
      "durationMs": 14676786,
      "drivingDurationMs": 12463268,
      "idlingDurationMs": 2213518,
      "fuelConsumedMl": 9600,
      "fuelConsumedGallons": 2.536,
      "maxSpeedMph": 68.9,
      "averageSpeedMph": 11.5,
      "safetyEvents": [
        {
          "type": "speeding",
          "startMs": 1746473400000,
          "maxSpeedMph": 68.9
        }
      ],
      "_no_driver_login": false,
      "_fuel_note": ""
    },
    {
      "id": "trip_48291007_20250506_001",
      "vehicleId": "48291007",
      "driverId": "22831006",
      "startMs": 1746523260000,
      "endMs": 1746529893604,
      "startLocation": {
        "latitude": 39.717486,
        "longitude": -105.087693
      },
      "endLocation": {
        "latitude": 39.79394,
        "longitude": -105.087371
      },
      "startAddress": "825 Sandra Wells",
      "endAddress": "34974 Elizabeth Road",
      "startCoords": {
        "latitude": 39.76653,
        "longitude": -104.988075
      },
      "endCoords": {
        "latitude": 39.685353,
        "longitude": -105.029628
      },
      "distanceMeters": 34589.7,
      "durationMs": 6633605,
      "drivingDurationMs": 6156698,
      "idlingDurationMs": 476907,
      "fuelConsumedMl": 4399,
      "fuelConsumedGallons": 1.162,
      "maxSpeedMph": 55.0,
      "averageSpeedMph": 11.7,
      "safetyEvents": [],
      "_no_driver_login": false,
      "_fuel_note": "QUIRK 5: fuelConsumedGallons is in US gallons. Multiply by 3.785 for litres. Samsara does not link fuel to specific Onfleet tasks."
    },
    {
      "id": "trip_48291007_20250506_002",
      "vehicleId": "48291007",
      "driverId": "22831006",
      "startMs": 1746553380000,
      "endMs": 1746556874601,
      "startLocation": {
        "latitude": 39.724101,
        "longitude": -104.988498
      },
      "endLocation": {
        "latitude": 39.79271,
        "longitude": -104.949658
      },
      "startAddress": "4057 Acevedo Corners",
      "endAddress": "2026 Marsh Vista",
      "startCoords": {
        "latitude": 39.746766,
        "longitude": -104.903046
      },
      "endCoords": {
        "latitude": 39.731417,
        "longitude": -104.939826
      },
      "distanceMeters": 17139.5,
      "durationMs": 3494601,
      "drivingDurationMs": 3010057,
      "idlingDurationMs": 484545,
      "fuelConsumedMl": 2180,
      "fuelConsumedGallons": 0.576,
      "maxSpeedMph": 38.0,
      "averageSpeedMph": 11.0,
      "safetyEvents": [],
      "_no_driver_login": false,
      "_fuel_note": ""
    },
    {
      "id": "trip_48291007_20250507_001",
      "vehicleId": "48291007",
      "driverId": null,
      "startMs": 1746640680000,
      "endMs": 1746649352834,
      "startLocation": {
        "latitude": 39.804691,
        "longitude": -104.953254
      },
      "endLocation": {
        "latitude": 39.701153,
        "longitude": -104.946387
      },
      "startAddress": "5776 Thompson Lakes Apt. 472",
      "endAddress": "2569 Smith Branch",
      "startCoords": {
        "latitude": 39.708877,
        "longitude": -104.964876
      },
      "endCoords": {
        "latitude": 39.737043,
        "longitude": -104.973723
      },
      "distanceMeters": 43953.4,
      "durationMs": 8672834,
      "drivingDurationMs": 6948162,
      "idlingDurationMs": 1724672,
      "fuelConsumedMl": 5587,
      "fuelConsumedGallons": 1.476,
      "maxSpeedMph": 29.0,
      "averageSpeedMph": 11.3,
      "safetyEvents": [],
      "_no_driver_login": true,
      "_fuel_note": "QUIRK 5: fuelConsumedGallons is in US gallons. Multiply by 3.785 for litres. Samsara does not link fuel to specific Onfleet tasks."
    },
    {
      "id": "trip_48291007_20250507_002",
      "vehicleId": "48291007",
      "driverId": "22831006",
      "startMs": 1746643980000,
      "endMs": 1746650569312,
      "startLocation": {
        "latitude": 39.817348,
        "longitude": -105.079282
      },
      "endLocation": {
        "latitude": 39.760824,
        "longitude": -105.039063
      },
      "startAddress": "2629 Mackenzie Meadow Apt. 580",
      "endAddress": "18315 Osborne Motorway",
      "startCoords": {
        "latitude": 39.743788,
        "longitude": -105.062491
      },
      "endCoords": {
        "latitude": 39.712142,
        "longitude": -104.948202
      },
      "distanceMeters": 40970.2,
      "durationMs": 6589313,
      "drivingDurationMs": 6250175,
      "idlingDurationMs": 339138,
      "fuelConsumedMl": 5209,
      "fuelConsumedGallons": 1.376,
      "maxSpeedMph": 69.0,
      "averageSpeedMph": 13.9,
      "safetyEvents": [
        {
          "type": "speeding",
          "startMs": 1746644220000,
          "maxSpeedMph": 69.0
        }
      ],
      "_no_driver_login": false,
      "_fuel_note": ""
    },
    {
      "id": "trip_48291007_20250507_003",
      "vehicleId": "48291007",
      "driverId": "22831006",
      "startMs": 1746622320000,
      "endMs": 1746623372409,
      "startLocation": {
        "latitude": 39.686219,
        "longitude": -104.974602
      },
      "endLocation": {
        "latitude": 39.705192,
        "longitude": -104.919657
      },
      "startAddress": "443 Patterson Key Suite 793",
      "endAddress": "90020 Tyler Street",
      "startCoords": {
        "latitude": 39.813414,
        "longitude": -104.947985
      },
      "endCoords": {
        "latitude": 39.779137,
        "longitude": -105.029705
      },
      "distanceMeters": 5300.3,
      "durationMs": 1052410,
      "drivingDurationMs": 854767,
      "idlingDurationMs": 197643,
      "fuelConsumedMl": 674,
      "fuelConsumedGallons": 0.178,
      "maxSpeedMph": 55.0,
      "averageSpeedMph": 11.3,
      "safetyEvents": [],
      "_no_driver_login": false,
      "_fuel_note": ""
    },
    {
      "id": "trip_48291007_20250507_004",
      "vehicleId": "48291007",
      "driverId": "22831006",
      "startMs": 1746622200000,
      "endMs": 1746634220330,
      "startLocation": {
        "latitude": 39.749407,
        "longitude": -105.086032
      },
      "endLocation": {
        "latitude": 39.759967,
        "longitude": -104.942482
      },
      "startAddress": "33113 Nicole Ranch",
      "endAddress": "6124 Graham Drive",
      "startCoords": {
        "latitude": 39.773427,
        "longitude": -104.93577
      },
      "endCoords": {
        "latitude": 39.718427,
        "longitude": -105.073127
      },
      "distanceMeters": 76684.0,
      "durationMs": 12020330,
      "drivingDurationMs": 10949474,
      "idlingDurationMs": 1070856,
      "fuelConsumedMl": 9751,
      "fuelConsumedGallons": 2.576,
      "maxSpeedMph": 41.4,
      "averageSpeedMph": 14.3,
      "safetyEvents": [],
      "_no_driver_login": false,
      "_fuel_note": ""
    },
    {
      "id": "trip_48291007_20250508_001",
      "vehicleId": "48291007",
      "driverId": null,
      "startMs": 1746727260000,
      "endMs": 1746736256274,
      "startLocation": {
        "latitude": 39.775867,
        "longitude": -104.955157
      },
      "endLocation": {
        "latitude": 39.738593,
        "longitude": -104.908047
      },
      "startAddress": "7279 Carla Pike",
      "endAddress": "032 Johnson Lakes",
      "startCoords": {
        "latitude": 39.785164,
        "longitude": -104.918069
      },
      "endCoords": {
        "latitude": 39.688384,
        "longitude": -105.009034
      },
      "distanceMeters": 56355.7,
      "durationMs": 8996274,
      "drivingDurationMs": 7353284,
      "idlingDurationMs": 1642991,
      "fuelConsumedMl": 7166,
      "fuelConsumedGallons": 1.893,
      "maxSpeedMph": 43.3,
      "averageSpeedMph": 14.0,
      "safetyEvents": [],
      "_no_driver_login": true,
      "_fuel_note": "QUIRK 5: fuelConsumedGallons is in US gallons. Multiply by 3.785 for litres. Samsara does not link fuel to specific Onfleet tasks."
    },
    {
      "id": "trip_48291007_20250508_002",
      "vehicleId": "48291007",
      "driverId": "22831006",
      "startMs": 1746692340000,
      "endMs": 1746704979122,
      "startLocation": {
        "latitude": 39.696577,
        "longitude": -105.079249
      },
      "endLocation": {
        "latitude": 39.805404,
        "longitude": -105.067607
      },
      "startAddress": "8483 Strickland Estates Suite 052",
      "endAddress": "36167 Michael Field",
      "startCoords": {
        "latitude": 39.806892,
        "longitude": -104.942838
      },
      "endCoords": {
        "latitude": 39.822637,
        "longitude": -104.931683
      },
      "distanceMeters": 79006.0,
      "durationMs": 12639123,
      "drivingDurationMs": 11108928,
      "idlingDurationMs": 1530195,
      "fuelConsumedMl": 10046,
      "fuelConsumedGallons": 2.654,
      "maxSpeedMph": 47.0,
      "averageSpeedMph": 14.0,
      "safetyEvents": [],
      "_no_driver_login": false,
      "_fuel_note": ""
    },
    {
      "id": "trip_48291007_20250508_003",
      "vehicleId": "48291007",
      "driverId": "22831006",
      "startMs": 1746685500000,
      "endMs": 1746690448990,
      "startLocation": {
        "latitude": 39.728478,
        "longitude": -104.978983
      },
      "endLocation": {
        "latitude": 39.756,
        "longitude": -104.973955
      },
      "startAddress": "9099 Mary Tunnel",
      "endAddress": "53805 Brown Station",
      "startCoords": {
        "latitude": 39.817316,
        "longitude": -104.924676
      },
      "endCoords": {
        "latitude": 39.705231,
        "longitude": -104.982674
      },
      "distanceMeters": 36601.3,
      "durationMs": 4948991,
      "drivingDurationMs": 4215346,
      "idlingDurationMs": 733645,
      "fuelConsumedMl": 4652,
      "fuelConsumedGallons": 1.229,
      "maxSpeedMph": 64.8,
      "averageSpeedMph": 16.5,
      "safetyEvents": [],
      "_no_driver_login": false,
      "_fuel_note": ""
    },
    {
      "id": "trip_48291007_20250509_001",
      "vehicleId": "48291007",
      "driverId": "22831006",
      "startMs": 1746794340000,
      "endMs": 1746807725686,
      "startLocation": {
        "latitude": 39.754261,
        "longitude": -105.048766
      },
      "endLocation": {
        "latitude": 39.763167,
        "longitude": -105.08093
      },
      "startAddress": "097 Ibarra Spurs",
      "endAddress": "00127 Gina Land Suite 745",
      "startCoords": {
        "latitude": 39.768687,
        "longitude": -104.983201
      },
      "endCoords": {
        "latitude": 39.737634,
        "longitude": -104.996012
      },
      "distanceMeters": 71420.5,
      "durationMs": 13385686,
      "drivingDurationMs": 10914868,
      "idlingDurationMs": 2470818,
      "fuelConsumedMl": 9081,
      "fuelConsumedGallons": 2.399,
      "maxSpeedMph": 30.2,
      "averageSpeedMph": 11.9,
      "safetyEvents": [],
      "_no_driver_login": false,
      "_fuel_note": "QUIRK 5: fuelConsumedGallons is in US gallons. Multiply by 3.785 for litres. Samsara does not link fuel to specific Onfleet tasks."
    },
    {
      "id": "trip_48291007_20250509_002",
      "vehicleId": "48291007",
      "driverId": "22831006",
      "startMs": 1746798840000,
      "endMs": 1746800423089,
      "startLocation": {
        "latitude": 39.812801,
        "longitude": -104.940913
      },
      "endLocation": {
        "latitude": 39.727049,
        "longitude": -104.900731
      },
      "startAddress": "255 Laura Drives Apt. 137",
      "endAddress": "059 Ball Turnpike",
      "startCoords": {
        "latitude": 39.813116,
        "longitude": -104.996411
      },
      "endCoords": {
        "latitude": 39.776354,
        "longitude": -105.067236
      },
      "distanceMeters": 8021.4,
      "durationMs": 1583090,
      "drivingDurationMs": 1330659,
      "idlingDurationMs": 252431,
      "fuelConsumedMl": 1018,
      "fuelConsumedGallons": 0.269,
      "maxSpeedMph": 41.7,
      "averageSpeedMph": 11.3,
      "safetyEvents": [],
      "_no_driver_login": false,
      "_fuel_note": ""
    },
    {
      "id": "trip_48291007_20250509_003",
      "vehicleId": "48291007",
      "driverId": "22831006",
      "startMs": 1746780240000,
      "endMs": 1746797745017,
      "startLocation": {
        "latitude": 39.826958,
        "longitude": -105.052538
      },
      "endLocation": {
        "latitude": 39.709257,
        "longitude": -105.05758
      },
      "startAddress": "15210 Barbara Parkway",
      "endAddress": "082 Jason Isle Apt. 142",
      "startCoords": {
        "latitude": 39.819251,
        "longitude": -105.078639
      },
      "endCoords": {
        "latitude": 39.727011,
        "longitude": -104.940233
      },
      "distanceMeters": 83907.9,
      "durationMs": 17505018,
      "drivingDurationMs": 14384659,
      "idlingDurationMs": 3120359,
      "fuelConsumedMl": 10667,
      "fuelConsumedGallons": 2.818,
      "maxSpeedMph": 42.9,
      "averageSpeedMph": 10.7,
      "safetyEvents": [],
      "_no_driver_login": false,
      "_fuel_note": ""
    },
    {
      "id": "trip_48291007_20250509_004",
      "vehicleId": "48291007",
      "driverId": "22831006",
      "startMs": 1746809820000,
      "endMs": 1746818565517,
      "startLocation": {
        "latitude": 39.729366,
        "longitude": -104.946247
      },
      "endLocation": {
        "latitude": 39.730528,
        "longitude": -104.976534
      },
      "startAddress": "175 Eric Islands Suite 557",
      "endAddress": "76788 Moreno Points Apt. 565",
      "startCoords": {
        "latitude": 39.7245,
        "longitude": -105.004383
      },
      "endCoords": {
        "latitude": 39.811061,
        "longitude": -105.022914
      },
      "distanceMeters": 55844.2,
      "durationMs": 8745517,
      "drivingDurationMs": 7455003,
      "idlingDurationMs": 1290514,
      "fuelConsumedMl": 7101,
      "fuelConsumedGallons": 1.876,
      "maxSpeedMph": 37.2,
      "averageSpeedMph": 14.3,
      "safetyEvents": [],
      "_no_driver_login": false,
      "_fuel_note": ""
    },
    {
      "id": "trip_48291007_20250510_001",
      "vehicleId": "48291007",
      "driverId": "22831006",
      "startMs": 1746883200000,
      "endMs": 1746888540721,
      "startLocation": {
        "latitude": 39.812858,
        "longitude": -104.933738
      },
      "endLocation": {
        "latitude": 39.80511,
        "longitude": -104.998909
      },
      "startAddress": "2620 Jennifer Squares Suite 615",
      "endAddress": "588 Zachary Light Apt. 056",
      "startCoords": {
        "latitude": 39.798214,
        "longitude": -104.982961
      },
      "endCoords": {
        "latitude": 39.818902,
        "longitude": -105.022121
      },
      "distanceMeters": 24664.4,
      "durationMs": 5340721,
      "drivingDurationMs": 4528179,
      "idlingDurationMs": 812542,
      "fuelConsumedMl": 3134,
      "fuelConsumedGallons": 0.828,
      "maxSpeedMph": 53.9,
      "averageSpeedMph": 10.3,
      "safetyEvents": [],
      "_no_driver_login": false,
      "_fuel_note": "QUIRK 5: fuelConsumedGallons is in US gallons. Multiply by 3.785 for litres. Samsara does not link fuel to specific Onfleet tasks."
    },
    {
      "id": "trip_48291007_20250510_002",
      "vehicleId": "48291007",
      "driverId": "22831006",
      "startMs": 1746869940000,
      "endMs": 1746875322984,
      "startLocation": {
        "latitude": 39.811752,
        "longitude": -105.01719
      },
      "endLocation": {
        "latitude": 39.730197,
        "longitude": -104.992503
      },
      "startAddress": "5565 Karen Canyon",
      "endAddress": "7436 Victoria Trafficway Suite 398",
      "startCoords": {
        "latitude": 39.827872,
        "longitude": -105.075761
      },
      "endCoords": {
        "latitude": 39.70671,
        "longitude": -105.076249
      },
      "distanceMeters": 30932.5,
      "durationMs": 5382984,
      "drivingDurationMs": 5067300,
      "idlingDurationMs": 315684,
      "fuelConsumedMl": 3933,
      "fuelConsumedGallons": 1.039,
      "maxSpeedMph": 50.9,
      "averageSpeedMph": 12.9,
      "safetyEvents": [],
      "_no_driver_login": false,
      "_fuel_note": ""
    },
    {
      "id": "trip_48291007_20250510_003",
      "vehicleId": "48291007",
      "driverId": "22831006",
      "startMs": 1746871860000,
      "endMs": 1746874051256,
      "startLocation": {
        "latitude": 39.702746,
        "longitude": -104.929263
      },
      "endLocation": {
        "latitude": 39.703908,
        "longitude": -104.986973
      },
      "startAddress": "8474 Richardson Land",
      "endAddress": "862 Thornton Vista Apt. 324",
      "startCoords": {
        "latitude": 39.692683,
        "longitude": -104.943414
      },
      "endCoords": {
        "latitude": 39.821588,
        "longitude": -104.98581
      },
      "distanceMeters": 17499.2,
      "durationMs": 2191257,
      "drivingDurationMs": 2003340,
      "idlingDurationMs": 187917,
      "fuelConsumedMl": 2226,
      "fuelConsumedGallons": 0.588,
      "maxSpeedMph": 68.0,
      "averageSpeedMph": 17.9,
      "safetyEvents": [
        {
          "type": "speeding",
          "startMs": 1746873360000,
          "maxSpeedMph": 68.0
        }
      ],
      "_no_driver_login": false,
      "_fuel_note": ""
    },
    {
      "id": "trip_48291007_20250511_001",
      "vehicleId": "48291007",
      "driverId": "22831006",
      "startMs": 1746976740000,
      "endMs": 1746983092677,
      "startLocation": {
        "latitude": 39.788151,
        "longitude": -104.967146
      },
      "endLocation": {
        "latitude": 39.694329,
        "longitude": -104.991376
      },
      "startAddress": "9919 Walter Gateway",
      "endAddress": "7361 White Inlet",
      "startCoords": {
        "latitude": 39.815346,
        "longitude": -105.040139
      },
      "endCoords": {
        "latitude": 39.702599,
        "longitude": -104.975465
      },
      "distanceMeters": 42338.2,
      "durationMs": 6352678,
      "drivingDurationMs": 5803760,
      "idlingDurationMs": 548918,
      "fuelConsumedMl": 5383,
      "fuelConsumedGallons": 1.422,
      "maxSpeedMph": 65.1,
      "averageSpeedMph": 14.9,
      "safetyEvents": [
        {
          "type": "speeding",
          "startMs": 1746977520000,
          "maxSpeedMph": 65.1
        }
      ],
      "_no_driver_login": false,
      "_fuel_note": "QUIRK 5: fuelConsumedGallons is in US gallons. Multiply by 3.785 for litres. Samsara does not link fuel to specific Onfleet tasks."
    },
    {
      "id": "trip_48291007_20250511_002",
      "vehicleId": "48291007",
      "driverId": "22831006",
      "startMs": 1746959460000,
      "endMs": 1746970544258,
      "startLocation": {
        "latitude": 39.791445,
        "longitude": -104.904386
      },
      "endLocation": {
        "latitude": 39.776116,
        "longitude": -104.903191
      },
      "startAddress": "366 Carrillo Lodge",
      "endAddress": "57565 Sanchez Pass",
      "startCoords": {
        "latitude": 39.767685,
        "longitude": -105.03536
      },
      "endCoords": {
        "latitude": 39.74887,
        "longitude": -104.943349
      },
      "distanceMeters": 67750.2,
      "durationMs": 11084259,
      "drivingDurationMs": 10093651,
      "idlingDurationMs": 990608,
      "fuelConsumedMl": 8616,
      "fuelConsumedGallons": 2.276,
      "maxSpeedMph": 45.9,
      "averageSpeedMph": 13.7,
      "safetyEvents": [],
      "_no_driver_login": false,
      "_fuel_note": ""
    },
    {
      "id": "trip_48291007_20250512_001",
      "vehicleId": "48291007",
      "driverId": "22831006",
      "startMs": 1747056900000,
      "endMs": 1747061389079,
      "startLocation": {
        "latitude": 39.750161,
        "longitude": -104.905197
      },
      "endLocation": {
        "latitude": 39.710025,
        "longitude": -104.960049
      },
      "startAddress": "237 Rhonda Freeway Apt. 678",
      "endAddress": "366 Jason Canyon Apt. 426",
      "startCoords": {
        "latitude": 39.808259,
        "longitude": -104.950859
      },
      "endCoords": {
        "latitude": 39.78007,
        "longitude": -104.939623
      },
      "distanceMeters": 25653.1,
      "durationMs": 4489079,
      "drivingDurationMs": 3691253,
      "idlingDurationMs": 797826,
      "fuelConsumedMl": 3263,
      "fuelConsumedGallons": 0.862,
      "maxSpeedMph": 41.5,
      "averageSpeedMph": 12.8,
      "safetyEvents": [],
      "_no_driver_login": false,
      "_fuel_note": "QUIRK 5: fuelConsumedGallons is in US gallons. Multiply by 3.785 for litres. Samsara does not link fuel to specific Onfleet tasks."
    },
    {
      "id": "trip_48291007_20250512_002",
      "vehicleId": "48291007",
      "driverId": "22831006",
      "startMs": 1747055700000,
      "endMs": 1747058680883,
      "startLocation": {
        "latitude": 39.798187,
        "longitude": -104.983189
      },
      "endLocation": {
        "latitude": 39.774601,
        "longitude": -104.98945
      },
      "startAddress": "0900 Wright Land",
      "endAddress": "164 Chad Causeway Suite 924",
      "startCoords": {
        "latitude": 39.729772,
        "longitude": -105.040685
      },
      "endCoords": {
        "latitude": 39.754901,
        "longitude": -105.08432
      },
      "distanceMeters": 20215.0,
      "durationMs": 2980884,
      "drivingDurationMs": 2502772,
      "idlingDurationMs": 478111,
      "fuelConsumedMl": 2570,
      "fuelConsumedGallons": 0.679,
      "maxSpeedMph": 53.3,
      "averageSpeedMph": 15.2,
      "safetyEvents": [],
      "_no_driver_login": false,
      "_fuel_note": ""
    },
    {
      "id": "trip_48291007_20250512_003",
      "vehicleId": "48291007",
      "driverId": "22831006",
      "startMs": 1747045920000,
      "endMs": 1747055228766,
      "startLocation": {
        "latitude": 39.757338,
        "longitude": -105.016029
      },
      "endLocation": {
        "latitude": 39.771431,
        "longitude": -104.986044
      },
      "startAddress": "8680 Justin Ville",
      "endAddress": "57042 Helen Lodge Apt. 670",
      "startCoords": {
        "latitude": 39.734233,
        "longitude": -105.003605
      },
      "endCoords": {
        "latitude": 39.813406,
        "longitude": -105.062793
      },
      "distanceMeters": 68035.0,
      "durationMs": 9308766,
      "drivingDurationMs": 8881339,
      "idlingDurationMs": 427427,
      "fuelConsumedMl": 8650,
      "fuelConsumedGallons": 2.285,
      "maxSpeedMph": 41.4,
      "averageSpeedMph": 16.3,
      "safetyEvents": [],
      "_no_driver_login": false,
      "_fuel_note": ""
    },
    {
      "id": "trip_48291007_20250512_004",
      "vehicleId": "48291007",
      "driverId": "22831006",
      "startMs": 1747037280000,
      "endMs": 1747048811583,
      "startLocation": {
        "latitude": 39.692123,
        "longitude": -104.90922
      },
      "endLocation": {
        "latitude": 39.809132,
        "longitude": -105.00245
      },
      "startAddress": "351 Berger Forge Apt. 942",
      "endAddress": "58715 Mcdonald Grove",
      "startCoords": {
        "latitude": 39.727756,
        "longitude": -104.96783
      },
      "endCoords": {
        "latitude": 39.759291,
        "longitude": -105.055576
      },
      "distanceMeters": 70898.8,
      "durationMs": 11531583,
      "drivingDurationMs": 10943965,
      "idlingDurationMs": 587618,
      "fuelConsumedMl": 9013,
      "fuelConsumedGallons": 2.381,
      "maxSpeedMph": 59.4,
      "averageSpeedMph": 13.8,
      "safetyEvents": [],
      "_no_driver_login": false,
      "_fuel_note": ""
    },
    {
      "id": "trip_48291007_20250512_005",
      "vehicleId": "48291007",
      "driverId": "22831006",
      "startMs": 1747051380000,
      "endMs": 1747058503678,
      "startLocation": {
        "latitude": 39.775637,
        "longitude": -105.048513
      },
      "endLocation": {
        "latitude": 39.782588,
        "longitude": -104.978916
      },
      "startAddress": "02802 Bennett Crossing Suite 974",
      "endAddress": "1878 Sarah Gateway",
      "startCoords": {
        "latitude": 39.703238,
        "longitude": -104.901289
      },
      "endCoords": {
        "latitude": 39.816895,
        "longitude": -104.992762
      },
      "distanceMeters": 45336.5,
      "durationMs": 7123679,
      "drivingDurationMs": 6094700,
      "idlingDurationMs": 1028979,
      "fuelConsumedMl": 5765,
      "fuelConsumedGallons": 1.523,
      "maxSpeedMph": 50.2,
      "averageSpeedMph": 14.2,
      "safetyEvents": [],
      "_no_driver_login": false,
      "_fuel_note": ""
    },
    {
      "id": "trip_48291007_20250512_006",
      "vehicleId": "48291007",
      "driverId": null,
      "startMs": 1747032960000,
      "endMs": 1747045414563,
      "startLocation": {
        "latitude": 39.731652,
        "longitude": -104.959409
      },
      "endLocation": {
        "latitude": 39.703745,
        "longitude": -105.077843
      },
      "startAddress": "034 William Lights Suite 446",
      "endAddress": "4953 Shah Parks",
      "startCoords": {
        "latitude": 39.725527,
        "longitude": -105.008348
      },
      "endCoords": {
        "latitude": 39.827503,
        "longitude": -105.065049
      },
      "distanceMeters": 69920.6,
      "durationMs": 12454564,
      "drivingDurationMs": 11458853,
      "idlingDurationMs": 995711,
      "fuelConsumedMl": 8888,
      "fuelConsumedGallons": 2.348,
      "maxSpeedMph": 41.5,
      "averageSpeedMph": 12.6,
      "safetyEvents": [],
      "_no_driver_login": true,
      "_fuel_note": ""
    },
    {
      "id": "trip_48291007_20250513_001",
      "vehicleId": "48291007",
      "driverId": "22831006",
      "startMs": 1747159020000,
      "endMs": 1747165661599,
      "startLocation": {
        "latitude": 39.725408,
        "longitude": -104.969422
      },
      "endLocation": {
        "latitude": 39.824726,
        "longitude": -105.009797
      },
      "startAddress": "18037 Ryan Haven",
      "endAddress": "858 Robinson Fork Apt. 323",
      "startCoords": {
        "latitude": 39.784992,
        "longitude": -104.91767
      },
      "endCoords": {
        "latitude": 39.723479,
        "longitude": -105.041955
      },
      "distanceMeters": 31893.5,
      "durationMs": 6641600,
      "drivingDurationMs": 6154990,
      "idlingDurationMs": 486610,
      "fuelConsumedMl": 4054,
      "fuelConsumedGallons": 1.071,
      "maxSpeedMph": 36.5,
      "averageSpeedMph": 10.7,
      "safetyEvents": [],
      "_no_driver_login": false,
      "_fuel_note": "QUIRK 5: fuelConsumedGallons is in US gallons. Multiply by 3.785 for litres. Samsara does not link fuel to specific Onfleet tasks."
    },
    {
      "id": "trip_48291007_20250513_002",
      "vehicleId": "48291007",
      "driverId": "22831006",
      "startMs": 1747150620000,
      "endMs": 1747161744491,
      "startLocation": {
        "latitude": 39.814077,
        "longitude": -105.080124
      },
      "endLocation": {
        "latitude": 39.700699,
        "longitude": -104.923848
      },
      "startAddress": "11326 Nicole Manors Suite 121",
      "endAddress": "991 Nelson Dale",
      "startCoords": {
        "latitude": 39.723164,
        "longitude": -105.066333
      },
      "endCoords": {
        "latitude": 39.713151,
        "longitude": -104.968129
      },
      "distanceMeters": 73298.3,
      "durationMs": 11124491,
      "drivingDurationMs": 9598508,
      "idlingDurationMs": 1525983,
      "fuelConsumedMl": 9320,
      "fuelConsumedGallons": 2.462,
      "maxSpeedMph": 43.9,
      "averageSpeedMph": 14.7,
      "safetyEvents": [],
      "_no_driver_login": false,
      "_fuel_note": ""
    },
    {
      "id": "trip_48291007_20250513_003",
      "vehicleId": "48291007",
      "driverId": "22831006",
      "startMs": 1747159260000,
      "endMs": 1747165912014,
      "startLocation": {
        "latitude": 39.820759,
        "longitude": -104.941393
      },
      "endLocation": {
        "latitude": 39.68834,
        "longitude": -105.015597
      },
      "startAddress": "7728 Jacqueline Roads",
      "endAddress": "744 Felicia Locks",
      "startCoords": {
        "latitude": 39.685977,
        "longitude": -104.979651
      },
      "endCoords": {
        "latitude": 39.761614,
        "longitude": -104.97238
      },
      "distanceMeters": 46262.7,
      "durationMs": 6652015,
      "drivingDurationMs": 5423961,
      "idlingDurationMs": 1228054,
      "fuelConsumedMl": 5883,
      "fuelConsumedGallons": 1.554,
      "maxSpeedMph": 71.2,
      "averageSpeedMph": 15.6,
      "safetyEvents": [
        {
          "type": "speeding",
          "startMs": 1747161060000,
          "maxSpeedMph": 71.2
        }
      ],
      "_no_driver_login": false,
      "_fuel_note": ""
    },
    {
      "id": "trip_48291007_20250513_004",
      "vehicleId": "48291007",
      "driverId": "22831006",
      "startMs": 1747147740000,
      "endMs": 1747151218645,
      "startLocation": {
        "latitude": 39.731959,
        "longitude": -104.98531
      },
      "endLocation": {
        "latitude": 39.723355,
        "longitude": -104.97839
      },
      "startAddress": "3449 Simmons Glen Suite 072",
      "endAddress": "646 Christopher Court",
      "startCoords": {
        "latitude": 39.826514,
        "longitude": -104.960288
      },
      "endCoords": {
        "latitude": 39.774258,
        "longitude": -105.031507
      },
      "distanceMeters": 22481.3,
      "durationMs": 3478645,
      "drivingDurationMs": 3141005,
      "idlingDurationMs": 337641,
      "fuelConsumedMl": 2858,
      "fuelConsumedGallons": 0.755,
      "maxSpeedMph": 61.1,
      "averageSpeedMph": 14.5,
      "safetyEvents": [],
      "_no_driver_login": false,
      "_fuel_note": ""
    },
    {
      "id": "trip_48291007_20250513_005",
      "vehicleId": "48291007",
      "driverId": "22831006",
      "startMs": 1747120080000,
      "endMs": 1747131091738,
      "startLocation": {
        "latitude": 39.8201,
        "longitude": -105.055223
      },
      "endLocation": {
        "latitude": 39.690033,
        "longitude": -104.982223
      },
      "startAddress": "3119 Ryan Plain Apt. 442",
      "endAddress": "55622 Lee Land",
      "startCoords": {
        "latitude": 39.767115,
        "longitude": -105.05717
      },
      "endCoords": {
        "latitude": 39.798599,
        "longitude": -104.925692
      },
      "distanceMeters": 74046.6,
      "durationMs": 11011739,
      "drivingDurationMs": 9905751,
      "idlingDurationMs": 1105988,
      "fuelConsumedMl": 9414,
      "fuelConsumedGallons": 2.487,
      "maxSpeedMph": 58.7,
      "averageSpeedMph": 15.0,
      "safetyEvents": [],
      "_no_driver_login": false,
      "_fuel_note": ""
    },
    {
      "id": "trip_48291007_20250514_001",
      "vehicleId": "48291007",
      "driverId": "22831006",
      "startMs": 1747214880000,
      "endMs": 1747230238015,
      "startLocation": {
        "latitude": 39.710563,
        "longitude": -105.035319
      },
      "endLocation": {
        "latitude": 39.731705,
        "longitude": -104.988967
      },
      "startAddress": "18063 Samuel Extensions Apt. 930",
      "endAddress": "272 Jackson Crossroad",
      "startCoords": {
        "latitude": 39.812608,
        "longitude": -105.023512
      },
      "endCoords": {
        "latitude": 39.686594,
        "longitude": -104.918444
      },
      "distanceMeters": 81847.3,
      "durationMs": 15358016,
      "drivingDurationMs": 12806232,
      "idlingDurationMs": 2551783,
      "fuelConsumedMl": 10406,
      "fuelConsumedGallons": 2.749,
      "maxSpeedMph": 66.2,
      "averageSpeedMph": 11.9,
      "safetyEvents": [
        {
          "type": "speeding",
          "startMs": 1747219080000,
          "maxSpeedMph": 66.2
        }
      ],
      "_no_driver_login": false,
      "_fuel_note": "QUIRK 5: fuelConsumedGallons is in US gallons. Multiply by 3.785 for litres. Samsara does not link fuel to specific Onfleet tasks."
    },
    {
      "id": "trip_48291007_20250514_002",
      "vehicleId": "48291007",
      "driverId": "22831006",
      "startMs": 1747240560000,
      "endMs": 1747247021370,
      "startLocation": {
        "latitude": 39.695228,
        "longitude": -104.950164
      },
      "endLocation": {
        "latitude": 39.760418,
        "longitude": -105.052125
      },
      "startAddress": "6929 Evans Springs",
      "endAddress": "47191 Randy Via Apt. 763",
      "startCoords": {
        "latitude": 39.686754,
        "longitude": -104.900476
      },
      "endCoords": {
        "latitude": 39.793521,
        "longitude": -104.928022
      },
      "distanceMeters": 51106.2,
      "durationMs": 6461370,
      "drivingDurationMs": 6036357,
      "idlingDurationMs": 425013,
      "fuelConsumedMl": 6500,
      "fuelConsumedGallons": 1.717,
      "maxSpeedMph": 44.1,
      "averageSpeedMph": 17.7,
      "safetyEvents": [],
      "_no_driver_login": false,
      "_fuel_note": ""
    },
    {
      "id": "trip_48291007_20250514_003",
      "vehicleId": "48291007",
      "driverId": "22831006",
      "startMs": 1747238160000,
      "endMs": 1747242776909,
      "startLocation": {
        "latitude": 39.735271,
        "longitude": -105.054685
      },
      "endLocation": {
        "latitude": 39.688047,
        "longitude": -105.081541
      },
      "startAddress": "25790 Gomez Springs",
      "endAddress": "8903 Stafford Street Suite 501",
      "startCoords": {
        "latitude": 39.789794,
        "longitude": -105.047584
      },
      "endCoords": {
        "latitude": 39.736283,
        "longitude": -105.052946
      },
      "distanceMeters": 26658.0,
      "durationMs": 4616909,
      "drivingDurationMs": 4160836,
      "idlingDurationMs": 456073,
      "fuelConsumedMl": 3388,
      "fuelConsumedGallons": 0.895,
      "maxSpeedMph": 41.4,
      "averageSpeedMph": 12.9,
      "safetyEvents": [],
      "_no_driver_login": false,
      "_fuel_note": ""
    },
    {
      "id": "trip_48291007_20250514_004",
      "vehicleId": "48291007",
      "driverId": "22831006",
      "startMs": 1747246800000,
      "endMs": 1747250309098,
      "startLocation": {
        "latitude": 39.72991,
        "longitude": -105.059493
      },
      "endLocation": {
        "latitude": 39.705168,
        "longitude": -105.041528
      },
      "startAddress": "78688 Bray Lake Suite 119",
      "endAddress": "21907 Munoz Tunnel",
      "startCoords": {
        "latitude": 39.791953,
        "longitude": -104.965248
      },
      "endCoords": {
        "latitude": 39.737753,
        "longitude": -105.083772
      },
      "distanceMeters": 20562.7,
      "durationMs": 3509099,
      "drivingDurationMs": 3114562,
      "idlingDurationMs": 394537,
      "fuelConsumedMl": 2616,
      "fuelConsumedGallons": 0.691,
      "maxSpeedMph": 58.3,
      "averageSpeedMph": 13.1,
      "safetyEvents": [],
      "_no_driver_login": false,
      "_fuel_note": ""
    },
    {
      "id": "trip_48291007_20250514_005",
      "vehicleId": "48291007",
      "driverId": "22831006",
      "startMs": 1747215720000,
      "endMs": 1747219196680,
      "startLocation": {
        "latitude": 39.771184,
        "longitude": -105.012343
      },
      "endLocation": {
        "latitude": 39.761959,
        "longitude": -105.056999
      },
      "startAddress": "549 Jesse Cape Suite 207",
      "endAddress": "85196 Sonia Rue Apt. 913",
      "startCoords": {
        "latitude": 39.801797,
        "longitude": -105.032968
      },
      "endCoords": {
        "latitude": 39.764163,
        "longitude": -105.051072
      },
      "distanceMeters": 22653.7,
      "durationMs": 3476680,
      "drivingDurationMs": 2795511,
      "idlingDurationMs": 681170,
      "fuelConsumedMl": 2881,
      "fuelConsumedGallons": 0.761,
      "maxSpeedMph": 31.0,
      "averageSpeedMph": 14.6,
      "safetyEvents": [],
      "_no_driver_login": false,
      "_fuel_note": ""
    },
    {
      "id": "trip_48291007_20250515_001",
      "vehicleId": "48291007",
      "driverId": "22831006",
      "startMs": 1747316160000,
      "endMs": 1747330209181,
      "startLocation": {
        "latitude": 39.824651,
        "longitude": -104.904508
      },
      "endLocation": {
        "latitude": 39.814137,
        "longitude": -104.999012
      },
      "startAddress": "788 Christopher Prairie Suite 592",
      "endAddress": "88884 Anna Manors Apt. 588",
      "startCoords": {
        "latitude": 39.801566,
        "longitude": -104.984268
      },
      "endCoords": {
        "latitude": 39.724141,
        "longitude": -104.968777
      },
      "distanceMeters": 78408.7,
      "durationMs": 14049182,
      "drivingDurationMs": 11524679,
      "idlingDurationMs": 2524503,
      "fuelConsumedMl": 9971,
      "fuelConsumedGallons": 2.634,
      "maxSpeedMph": 29.0,
      "averageSpeedMph": 12.5,
      "safetyEvents": [],
      "_no_driver_login": false,
      "_fuel_note": "QUIRK 5: fuelConsumedGallons is in US gallons. Multiply by 3.785 for litres. Samsara does not link fuel to specific Onfleet tasks."
    },
    {
      "id": "trip_48291007_20250515_002",
      "vehicleId": "48291007",
      "driverId": "22831006",
      "startMs": 1747290060000,
      "endMs": 1747291544159,
      "startLocation": {
        "latitude": 39.822073,
        "longitude": -105.004721
      },
      "endLocation": {
        "latitude": 39.799498,
        "longitude": -105.055196
      },
      "startAddress": "87072 Bright Cape Apt. 796",
      "endAddress": "79873 Jessica Street Suite 983",
      "startCoords": {
        "latitude": 39.766516,
        "longitude": -104.987576
      },
      "endCoords": {
        "latitude": 39.766671,
        "longitude": -105.00567
      },
      "distanceMeters": 7749.1,
      "durationMs": 1484160,
      "drivingDurationMs": 1303893,
      "idlingDurationMs": 180267,
      "fuelConsumedMl": 984,
      "fuelConsumedGallons": 0.26,
      "maxSpeedMph": 48.9,
      "averageSpeedMph": 11.7,
      "safetyEvents": [],
      "_no_driver_login": false,
      "_fuel_note": ""
    },
    {
      "id": "trip_48291007_20250516_001",
      "vehicleId": "48291007",
      "driverId": "22831006",
      "startMs": 1747379760000,
      "endMs": 1747386887894,
      "startLocation": {
        "latitude": 39.770915,
        "longitude": -104.93747
      },
      "endLocation": {
        "latitude": 39.779576,
        "longitude": -104.927731
      },
      "startAddress": "60385 Johnson Mill Apt. 859",
      "endAddress": "768 Bridges Underpass Apt. 923",
      "startCoords": {
        "latitude": 39.793477,
        "longitude": -105.068043
      },
      "endCoords": {
        "latitude": 39.711601,
        "longitude": -105.040782
      },
      "distanceMeters": 35492.8,
      "durationMs": 7127894,
      "drivingDurationMs": 6010299,
      "idlingDurationMs": 1117596,
      "fuelConsumedMl": 4512,
      "fuelConsumedGallons": 1.192,
      "maxSpeedMph": 67.2,
      "averageSpeedMph": 11.1,
      "safetyEvents": [
        {
          "type": "speeding",
          "startMs": 1747381440000,
          "maxSpeedMph": 67.2
        }
      ],
      "_no_driver_login": false,
      "_fuel_note": "QUIRK 5: fuelConsumedGallons is in US gallons. Multiply by 3.785 for litres. Samsara does not link fuel to specific Onfleet tasks."
    },
    {
      "id": "trip_48291007_20250516_002",
      "vehicleId": "48291007",
      "driverId": "22831006",
      "startMs": 1747387980000,
      "endMs": 1747399657565,
      "startLocation": {
        "latitude": 39.692396,
        "longitude": -104.998408
      },
      "endLocation": {
        "latitude": 39.728958,
        "longitude": -104.966502
      },
      "startAddress": "7857 Taylor Cliffs",
      "endAddress": "42728 Kim Skyway",
      "startCoords": {
        "latitude": 39.758333,
        "longitude": -105.076759
      },
      "endCoords": {
        "latitude": 39.770998,
        "longitude": -104.965708
      },
      "distanceMeters": 69181.3,
      "durationMs": 11677566,
      "drivingDurationMs": 10770141,
      "idlingDurationMs": 907425,
      "fuelConsumedMl": 8797,
      "fuelConsumedGallons": 2.324,
      "maxSpeedMph": 28.6,
      "averageSpeedMph": 13.3,
      "safetyEvents": [],
      "_no_driver_login": false,
      "_fuel_note": ""
    },
    {
      "id": "trip_48291007_20250516_003",
      "vehicleId": "48291007",
      "driverId": "22831006",
      "startMs": 1747408200000,
      "endMs": 1747418686038,
      "startLocation": {
        "latitude": 39.72348,
        "longitude": -105.027862
      },
      "endLocation": {
        "latitude": 39.683924,
        "longitude": -104.921897
      },
      "startAddress": "534 Holloway Fords Suite 992",
      "endAddress": "52088 Lynch Rapid",
      "startCoords": {
        "latitude": 39.787337,
        "longitude": -104.91643
      },
      "endCoords": {
        "latitude": 39.733209,
        "longitude": -105.000267
      },
      "distanceMeters": 48804.8,
      "durationMs": 10486039,
      "drivingDurationMs": 9636588,
      "idlingDurationMs": 849451,
      "fuelConsumedMl": 6204,
      "fuelConsumedGallons": 1.639,
      "maxSpeedMph": 40.1,
      "averageSpeedMph": 10.4,
      "safetyEvents": [],
      "_no_driver_login": false,
      "_fuel_note": ""
    },
    {
      "id": "trip_48291007_20250516_004",
      "vehicleId": "48291007",
      "driverId": "22831006",
      "startMs": 1747396320000,
      "endMs": 1747408117268,
      "startLocation": {
        "latitude": 39.731854,
        "longitude": -104.972492
      },
      "endLocation": {
        "latitude": 39.822253,
        "longitude": -104.915897
      },
      "startAddress": "8352 Henry Center Apt. 955",
      "endAddress": "378 Loretta Pass",
      "startCoords": {
        "latitude": 39.749752,
        "longitude": -104.972738
      },
      "endCoords": {
        "latitude": 39.701489,
        "longitude": -104.958465
      },
      "distanceMeters": 72119.8,
      "durationMs": 11797269,
      "drivingDurationMs": 11220818,
      "idlingDurationMs": 576451,
      "fuelConsumedMl": 9168,
      "fuelConsumedGallons": 2.422,
      "maxSpeedMph": 70.2,
      "averageSpeedMph": 13.7,
      "safetyEvents": [
        {
          "type": "speeding",
          "startMs": 1747397100000,
          "maxSpeedMph": 70.2
        }
      ],
      "_no_driver_login": false,
      "_fuel_note": ""
    },
    {
      "id": "trip_48291007_20250516_005",
      "vehicleId": "48291007",
      "driverId": "22831006",
      "startMs": 1747405140000,
      "endMs": 1747413619956,
      "startLocation": {
        "latitude": 39.789705,
        "longitude": -104.984416
      },
      "endLocation": {
        "latitude": 39.690148,
        "longitude": -104.973916
      },
      "startAddress": "743 Leslie Rapid",
      "endAddress": "75738 Jennifer Cliff",
      "startCoords": {
        "latitude": 39.736784,
        "longitude": -105.074689
      },
      "endCoords": {
        "latitude": 39.685793,
        "longitude": -104.944485
      },
      "distanceMeters": 63593.5,
      "durationMs": 8479956,
      "drivingDurationMs": 7332909,
      "idlingDurationMs": 1147047,
      "fuelConsumedMl": 8086,
      "fuelConsumedGallons": 2.136,
      "maxSpeedMph": 48.7,
      "averageSpeedMph": 16.8,
      "safetyEvents": [],
      "_no_driver_login": false,
      "_fuel_note": ""
    },
    {
      "id": "trip_48291007_20250516_006",
      "vehicleId": "48291007",
      "driverId": "22831006",
      "startMs": 1747376580000,
      "endMs": 1747378984951,
      "startLocation": {
        "latitude": 39.820844,
        "longitude": -105.071589
      },
      "endLocation": {
        "latitude": 39.803691,
        "longitude": -105.046276
      },
      "startAddress": "94500 Jonathan Neck Suite 535",
      "endAddress": "728 Lisa Ports",
      "startCoords": {
        "latitude": 39.740612,
        "longitude": -105.026679
      },
      "endCoords": {
        "latitude": 39.742407,
        "longitude": -104.981597
      },
      "distanceMeters": 12759.9,
      "durationMs": 2404951,
      "drivingDurationMs": 1967530,
      "idlingDurationMs": 437422,
      "fuelConsumedMl": 1624,
      "fuelConsumedGallons": 0.429,
      "maxSpeedMph": 69.0,
      "averageSpeedMph": 11.9,
      "safetyEvents": [
        {
          "type": "speeding",
          "startMs": 1747377300000,
          "maxSpeedMph": 69.0
        }
      ],
      "_no_driver_login": false,
      "_fuel_note": ""
    },
    {
      "id": "trip_48291007_20250517_001",
      "vehicleId": "48291007",
      "driverId": "22831006",
      "startMs": 1747504260000,
      "endMs": 1747515600000,
      "startLocation": {
        "latitude": 39.780342,
        "longitude": -105.014319
      },
      "endLocation": {
        "latitude": 39.763,
        "longitude": -105.065772
      },
      "startAddress": "830 Scott Gardens Apt. 738",
      "endAddress": "4221 Jones Turnpike Suite 629",
      "startCoords": {
        "latitude": 39.703607,
        "longitude": -105.055041
      },
      "endCoords": {
        "latitude": 39.694886,
        "longitude": -105.067335
      },
      "distanceMeters": 64233.8,
      "durationMs": 11340000,
      "drivingDurationMs": 9072000,
      "idlingDurationMs": 2268000,
      "fuelConsumedMl": 8165,
      "fuelConsumedGallons": 2.157,
      "maxSpeedMph": 46.2,
      "averageSpeedMph": 12.7,
      "safetyEvents": [],
      "_no_driver_login": false,
      "_fuel_note": "QUIRK 5: fuelConsumedGallons is in US gallons. Multiply by 3.785 for litres. Samsara does not link fuel to specific Onfleet tasks."
    },
    {
      "id": "trip_48291007_20250517_002",
      "vehicleId": "48291007",
      "driverId": "22831006",
      "startMs": 1747486980000,
      "endMs": 1747496234136,
      "startLocation": {
        "latitude": 39.805692,
        "longitude": -104.92323
      },
      "endLocation": {
        "latitude": 39.760238,
        "longitude": -105.041564
      },
      "startAddress": "49872 Shaw Glen",
      "endAddress": "40757 Antonio Knolls",
      "startCoords": {
        "latitude": 39.799216,
        "longitude": -105.005513
      },
      "endCoords": {
        "latitude": 39.823408,
        "longitude": -104.92787
      },
      "distanceMeters": 66211.1,
      "durationMs": 9254137,
      "drivingDurationMs": 8467360,
      "idlingDurationMs": 786777,
      "fuelConsumedMl": 8419,
      "fuelConsumedGallons": 2.224,
      "maxSpeedMph": 37.7,
      "averageSpeedMph": 16.0,
      "safetyEvents": [],
      "_no_driver_login": false,
      "_fuel_note": ""
    },
    {
      "id": "trip_48291007_20250517_003",
      "vehicleId": "48291007",
      "driverId": "22831006",
      "startMs": 1747479900000,
      "endMs": 1747486798494,
      "startLocation": {
        "latitude": 39.715844,
        "longitude": -104.941351
      },
      "endLocation": {
        "latitude": 39.749566,
        "longitude": -105.036569
      },
      "startAddress": "25380 Willie Harbors Apt. 018",
      "endAddress": "6137 Henry Heights Suite 918",
      "startCoords": {
        "latitude": 39.759267,
        "longitude": -104.927635
      },
      "endCoords": {
        "latitude": 39.724876,
        "longitude": -105.038117
      },
      "distanceMeters": 42210.9,
      "durationMs": 6898494,
      "drivingDurationMs": 6101815,
      "idlingDurationMs": 796679,
      "fuelConsumedMl": 5368,
      "fuelConsumedGallons": 1.418,
      "maxSpeedMph": 66.8,
      "averageSpeedMph": 13.7,
      "safetyEvents": [
        {
          "type": "speeding",
          "startMs": 1747480440000,
          "maxSpeedMph": 66.8
        }
      ],
      "_no_driver_login": false,
      "_fuel_note": ""
    },
    {
      "id": "trip_48291007_20250517_004",
      "vehicleId": "48291007",
      "driverId": "22831006",
      "startMs": 1747492260000,
      "endMs": 1747505514142,
      "startLocation": {
        "latitude": 39.802209,
        "longitude": -104.947253
      },
      "endLocation": {
        "latitude": 39.720644,
        "longitude": -104.962577
      },
      "startAddress": "4624 Rachel Parkway Apt. 473",
      "endAddress": "1688 Waters Well Apt. 566",
      "startCoords": {
        "latitude": 39.770993,
        "longitude": -104.928464
      },
      "endCoords": {
        "latitude": 39.816021,
        "longitude": -104.949228
      },
      "distanceMeters": 60659.0,
      "durationMs": 13254143,
      "drivingDurationMs": 11788839,
      "idlingDurationMs": 1465303,
      "fuelConsumedMl": 7711,
      "fuelConsumedGallons": 2.037,
      "maxSpeedMph": 66.7,
      "averageSpeedMph": 10.2,
      "safetyEvents": [
        {
          "type": "speeding",
          "startMs": 1747492980000,
          "maxSpeedMph": 66.7
        }
      ],
      "_no_driver_login": false,
      "_fuel_note": ""
    },
    {
      "id": "trip_48291007_20250518_001",
      "vehicleId": "48291007",
      "driverId": "22831006",
      "startMs": 1747581420000,
      "endMs": 1747588060631,
      "startLocation": {
        "latitude": 39.689256,
        "longitude": -105.064841
      },
      "endLocation": {
        "latitude": 39.77793,
        "longitude": -105.05585
      },
      "startAddress": "7823 Jasmine Rue Apt. 246",
      "endAddress": "7847 Fisher Islands",
      "startCoords": {
        "latitude": 39.738186,
        "longitude": -104.933186
      },
      "endCoords": {
        "latitude": 39.717764,
        "longitude": -105.008116
      },
      "distanceMeters": 47266.2,
      "durationMs": 6640632,
      "drivingDurationMs": 6015602,
      "idlingDurationMs": 625029,
      "fuelConsumedMl": 6011,
      "fuelConsumedGallons": 1.588,
      "maxSpeedMph": 30.2,
      "averageSpeedMph": 15.9,
      "safetyEvents": [],
      "_no_driver_login": false,
      "_fuel_note": "QUIRK 5: fuelConsumedGallons is in US gallons. Multiply by 3.785 for litres. Samsara does not link fuel to specific Onfleet tasks."
    },
    {
      "id": "trip_48291007_20250519_001",
      "vehicleId": "48291007",
      "driverId": "22831006",
      "startMs": 1747640700000,
      "endMs": 1747645125296,
      "startLocation": {
        "latitude": 39.813416,
        "longitude": -104.908523
      },
      "endLocation": {
        "latitude": 39.740416,
        "longitude": -104.9366
      },
      "startAddress": "2876 Bryant Lock Apt. 240",
      "endAddress": "2085 John Rue",
      "startCoords": {
        "latitude": 39.691523,
        "longitude": -104.951212
      },
      "endCoords": {
        "latitude": 39.702187,
        "longitude": -104.973562
      },
      "distanceMeters": 32923.4,
      "durationMs": 4425297,
      "drivingDurationMs": 3704148,
      "idlingDurationMs": 721149,
      "fuelConsumedMl": 4187,
      "fuelConsumedGallons": 1.106,
      "maxSpeedMph": 32.4,
      "averageSpeedMph": 16.6,
      "safetyEvents": [],
      "_no_driver_login": false,
      "_fuel_note": "QUIRK 5: fuelConsumedGallons is in US gallons. Multiply by 3.785 for litres. Samsara does not link fuel to specific Onfleet tasks."
    },
    {
      "id": "trip_48291007_20250519_002",
      "vehicleId": "48291007",
      "driverId": "22831006",
      "startMs": 1747662720000,
      "endMs": 1747678920431,
      "startLocation": {
        "latitude": 39.80517,
        "longitude": -104.964557
      },
      "endLocation": {
        "latitude": 39.707842,
        "longitude": -105.042281
      },
      "startAddress": "8136 Riggs Roads Suite 816",
      "endAddress": "410 Anne Ville",
      "startCoords": {
        "latitude": 39.761374,
        "longitude": -105.043573
      },
      "endCoords": {
        "latitude": 39.824642,
        "longitude": -104.936183
      },
      "distanceMeters": 67980.6,
      "durationMs": 16200431,
      "drivingDurationMs": 13151654,
      "idlingDurationMs": 3048778,
      "fuelConsumedMl": 8642,
      "fuelConsumedGallons": 2.283,
      "maxSpeedMph": 43.0,
      "averageSpeedMph": 9.4,
      "safetyEvents": [],
      "_no_driver_login": false,
      "_fuel_note": ""
    },
    {
      "id": "trip_48291007_20250519_003",
      "vehicleId": "48291007",
      "driverId": "22831006",
      "startMs": 1747678140000,
      "endMs": 1747682427590,
      "startLocation": {
        "latitude": 39.821473,
        "longitude": -105.005835
      },
      "endLocation": {
        "latitude": 39.711269,
        "longitude": -104.972548
      },
      "startAddress": "9371 Vance Route",
      "endAddress": "45028 Michael Route Apt. 920",
      "startCoords": {
        "latitude": 39.822097,
        "longitude": -104.982043
      },
      "endCoords": {
        "latitude": 39.766308,
        "longitude": -105.029448
      },
      "distanceMeters": 32137.0,
      "durationMs": 4287591,
      "drivingDurationMs": 3849105,
      "idlingDurationMs": 438486,
      "fuelConsumedMl": 4084,
      "fuelConsumedGallons": 1.079,
      "maxSpeedMph": 39.2,
      "averageSpeedMph": 16.8,
      "safetyEvents": [],
      "_no_driver_login": false,
      "_fuel_note": ""
    },
    {
      "id": "trip_48291007_20250520_001",
      "vehicleId": "48291007",
      "driverId": "22831006",
      "startMs": 1747752660000,
      "endMs": 1747757293580,
      "startLocation": {
        "latitude": 39.776596,
        "longitude": -105.023169
      },
      "endLocation": {
        "latitude": 39.686073,
        "longitude": -104.984351
      },
      "startAddress": "29181 Kevin Point",
      "endAddress": "35228 Hart Square",
      "startCoords": {
        "latitude": 39.769852,
        "longitude": -104.945922
      },
      "endCoords": {
        "latitude": 39.815291,
        "longitude": -104.962159
      },
      "distanceMeters": 25449.8,
      "durationMs": 4633580,
      "drivingDurationMs": 4030000,
      "idlingDurationMs": 603581,
      "fuelConsumedMl": 3237,
      "fuelConsumedGallons": 0.855,
      "maxSpeedMph": 67.0,
      "averageSpeedMph": 12.3,
      "safetyEvents": [
        {
          "type": "speeding",
          "startMs": 1747756320000,
          "maxSpeedMph": 67.0
        }
      ],
      "_no_driver_login": false,
      "_fuel_note": "QUIRK 5: fuelConsumedGallons is in US gallons. Multiply by 3.785 for litres. Samsara does not link fuel to specific Onfleet tasks."
    },
    {
      "id": "trip_48291007_20250520_002",
      "vehicleId": "48291007",
      "driverId": "22831006",
      "startMs": 1747753920000,
      "endMs": 1747756758360,
      "startLocation": {
        "latitude": 39.706305,
        "longitude": -104.943902
      },
      "endLocation": {
        "latitude": 39.736561,
        "longitude": -105.025947
      },
      "startAddress": "25916 Smith Ferry",
      "endAddress": "37463 Collins Stravenue Apt. 173",
      "startCoords": {
        "latitude": 39.827246,
        "longitude": -104.978286
      },
      "endCoords": {
        "latitude": 39.697781,
        "longitude": -105.018822
      },
      "distanceMeters": 17708.6,
      "durationMs": 2838361,
      "drivingDurationMs": 2318444,
      "idlingDurationMs": 519917,
      "fuelConsumedMl": 2252,
      "fuelConsumedGallons": 0.595,
      "maxSpeedMph": 28.3,
      "averageSpeedMph": 14.0,
      "safetyEvents": [],
      "_no_driver_login": false,
      "_fuel_note": ""
    },
    {
      "id": "trip_48291007_20250520_003",
      "vehicleId": "48291007",
      "driverId": null,
      "startMs": 1747729860000,
      "endMs": 1747734773422,
      "startLocation": {
        "latitude": 39.801956,
        "longitude": -104.934296
      },
      "endLocation": {
        "latitude": 39.738666,
        "longitude": -104.908004
      },
      "startAddress": "3222 Peterson Wells Apt. 568",
      "endAddress": "23563 Hector Groves",
      "startCoords": {
        "latitude": 39.825022,
        "longitude": -105.086843
      },
      "endCoords": {
        "latitude": 39.692132,
        "longitude": -104.973435
      },
      "distanceMeters": 34178.9,
      "durationMs": 4913423,
      "drivingDurationMs": 4203062,
      "idlingDurationMs": 710361,
      "fuelConsumedMl": 4346,
      "fuelConsumedGallons": 1.148,
      "maxSpeedMph": 61.0,
      "averageSpeedMph": 15.6,
      "safetyEvents": [],
      "_no_driver_login": true,
      "_fuel_note": ""
    },
    {
      "id": "trip_48291007_20250521_001",
      "vehicleId": "48291007",
      "driverId": "22831006",
      "startMs": 1747846380000,
      "endMs": 1747859184222,
      "startLocation": {
        "latitude": 39.779251,
        "longitude": -104.929102
      },
      "endLocation": {
        "latitude": 39.760245,
        "longitude": -104.905567
      },
      "startAddress": "6427 Lynn Mount",
      "endAddress": "0090 Laura Islands Suite 515",
      "startCoords": {
        "latitude": 39.752172,
        "longitude": -104.933962
      },
      "endCoords": {
        "latitude": 39.710002,
        "longitude": -104.999047
      },
      "distanceMeters": 66089.6,
      "durationMs": 12804222,
      "drivingDurationMs": 11874936,
      "idlingDurationMs": 929286,
      "fuelConsumedMl": 8404,
      "fuelConsumedGallons": 2.22,
      "maxSpeedMph": 44.3,
      "averageSpeedMph": 11.5,
      "safetyEvents": [],
      "_no_driver_login": false,
      "_fuel_note": "QUIRK 5: fuelConsumedGallons is in US gallons. Multiply by 3.785 for litres. Samsara does not link fuel to specific Onfleet tasks."
    },
    {
      "id": "trip_48291007_20250521_002",
      "vehicleId": "48291007",
      "driverId": "22831006",
      "startMs": 1747848960000,
      "endMs": 1747859578754,
      "startLocation": {
        "latitude": 39.815581,
        "longitude": -104.995423
      },
      "endLocation": {
        "latitude": 39.693307,
        "longitude": -104.925466
      },
      "startAddress": "394 Myers Lock",
      "endAddress": "998 Andersen Port Suite 488",
      "startCoords": {
        "latitude": 39.776339,
        "longitude": -104.994116
      },
      "endCoords": {
        "latitude": 39.77215,
        "longitude": -104.965471
      },
      "distanceMeters": 71889.1,
      "durationMs": 10618755,
      "drivingDurationMs": 10080505,
      "idlingDurationMs": 538250,
      "fuelConsumedMl": 9142,
      "fuelConsumedGallons": 2.415,
      "maxSpeedMph": 40.2,
      "averageSpeedMph": 15.1,
      "safetyEvents": [],
      "_no_driver_login": false,
      "_fuel_note": ""
    },
    {
      "id": "trip_48291007_20250521_003",
      "vehicleId": "48291007",
      "driverId": "22831006",
      "startMs": 1747809120000,
      "endMs": 1747818893314,
      "startLocation": {
        "latitude": 39.7506,
        "longitude": -104.914427
      },
      "endLocation": {
        "latitude": 39.731025,
        "longitude": -104.965401
      },
      "startAddress": "05672 Walker Prairie Suite 533",
      "endAddress": "5039 Dale Ridges",
      "startCoords": {
        "latitude": 39.697209,
        "longitude": -104.901494
      },
      "endCoords": {
        "latitude": 39.734954,
        "longitude": -104.978144
      },
      "distanceMeters": 66634.6,
      "durationMs": 9773314,
      "drivingDurationMs": 8921299,
      "idlingDurationMs": 852016,
      "fuelConsumedMl": 8472,
      "fuelConsumedGallons": 2.238,
      "maxSpeedMph": 56.5,
      "averageSpeedMph": 15.3,
      "safetyEvents": [],
      "_no_driver_login": false,
      "_fuel_note": ""
    },
    {
      "id": "trip_48291007_20250521_004",
      "vehicleId": "48291007",
      "driverId": "22831006",
      "startMs": 1747810320000,
      "endMs": 1747818049418,
      "startLocation": {
        "latitude": 39.687855,
        "longitude": -104.98299
      },
      "endLocation": {
        "latitude": 39.750626,
        "longitude": -105.053382
      },
      "startAddress": "5789 Earl Crossing",
      "endAddress": "2802 Dawn Pine",
      "startCoords": {
        "latitude": 39.770299,
        "longitude": -104.926824
      },
      "endCoords": {
        "latitude": 39.693719,
        "longitude": -105.048692
      },
      "distanceMeters": 37669.0,
      "durationMs": 7729418,
      "drivingDurationMs": 7100904,
      "idlingDurationMs": 628514,
      "fuelConsumedMl": 4789,
      "fuelConsumedGallons": 1.265,
      "maxSpeedMph": 53.1,
      "averageSpeedMph": 10.9,
      "safetyEvents": [],
      "_no_driver_login": false,
      "_fuel_note": ""
    },
    {
      "id": "trip_48291007_20250521_005",
      "vehicleId": "48291007",
      "driverId": "22831006",
      "startMs": 1747817700000,
      "endMs": 1747819874268,
      "startLocation": {
        "latitude": 39.826972,
        "longitude": -104.984266
      },
      "endLocation": {
        "latitude": 39.7545,
        "longitude": -104.926773
      },
      "startAddress": "32140 Jackson Loaf Suite 265",
      "endAddress": "491 Garcia Neck",
      "startCoords": {
        "latitude": 39.70639,
        "longitude": -104.926667
      },
      "endCoords": {
        "latitude": 39.818745,
        "longitude": -104.973467
      },
      "distanceMeters": 9158.4,
      "durationMs": 2174269,
      "drivingDurationMs": 1816564,
      "idlingDurationMs": 357704,
      "fuelConsumedMl": 1166,
      "fuelConsumedGallons": 0.308,
      "maxSpeedMph": 64.2,
      "averageSpeedMph": 9.4,
      "safetyEvents": [],
      "_no_driver_login": false,
      "_fuel_note": ""
    },
    {
      "id": "trip_48291007_20250521_006",
      "vehicleId": "48291007",
      "driverId": "22831006",
      "startMs": 1747839000000,
      "endMs": 1747850358241,
      "startLocation": {
        "latitude": 39.822951,
        "longitude": -105.087001
      },
      "endLocation": {
        "latitude": 39.7987,
        "longitude": -105.062008
      },
      "startAddress": "46615 Garcia Field Suite 317",
      "endAddress": "685 Christian Gardens",
      "startCoords": {
        "latitude": 39.794843,
        "longitude": -105.004418
      },
      "endCoords": {
        "latitude": 39.812057,
        "longitude": -104.934641
      },
      "distanceMeters": 60400.5,
      "durationMs": 11358241,
      "drivingDurationMs": 10058110,
      "idlingDurationMs": 1300131,
      "fuelConsumedMl": 7681,
      "fuelConsumedGallons": 2.029,
      "maxSpeedMph": 63.6,
      "averageSpeedMph": 11.9,
      "safetyEvents": [],
      "_no_driver_login": false,
      "_fuel_note": ""
    },
    {
      "id": "trip_48291007_20250522_001",
      "vehicleId": "48291007",
      "driverId": "22831006",
      "startMs": 1747919520000,
      "endMs": 1747928343206,
      "startLocation": {
        "latitude": 39.711084,
        "longitude": -104.963044
      },
      "endLocation": {
        "latitude": 39.73916,
        "longitude": -104.956499
      },
      "startAddress": "962 Greene Gateway",
      "endAddress": "875 Stephanie Brook",
      "startCoords": {
        "latitude": 39.793294,
        "longitude": -105.074362
      },
      "endCoords": {
        "latitude": 39.77132,
        "longitude": -104.919652
      },
      "distanceMeters": 66189.6,
      "durationMs": 8823207,
      "drivingDurationMs": 8468031,
      "idlingDurationMs": 355176,
      "fuelConsumedMl": 8415,
      "fuelConsumedGallons": 2.223,
      "maxSpeedMph": 65.8,
      "averageSpeedMph": 16.8,
      "safetyEvents": [
        {
          "type": "speeding",
          "startMs": 1747920360000,
          "maxSpeedMph": 65.8
        }
      ],
      "_no_driver_login": false,
      "_fuel_note": "QUIRK 5: fuelConsumedGallons is in US gallons. Multiply by 3.785 for litres. Samsara does not link fuel to specific Onfleet tasks."
    },
    {
      "id": "trip_48291007_20250522_002",
      "vehicleId": "48291007",
      "driverId": "22831006",
      "startMs": 1747905720000,
      "endMs": 1747906513964,
      "startLocation": {
        "latitude": 39.705951,
        "longitude": -104.911319
      },
      "endLocation": {
        "latitude": 39.697844,
        "longitude": -104.926243
      },
      "startAddress": "1313 Richardson Square Apt. 622",
      "endAddress": "669 Baker Island Apt. 122",
      "startCoords": {
        "latitude": 39.771367,
        "longitude": -105.022902
      },
      "endCoords": {
        "latitude": 39.775043,
        "longitude": -105.036668
      },
      "distanceMeters": 5082.6,
      "durationMs": 793965,
      "drivingDurationMs": 629143,
      "idlingDurationMs": 164822,
      "fuelConsumedMl": 647,
      "fuelConsumedGallons": 0.171,
      "maxSpeedMph": 32.9,
      "averageSpeedMph": 14.3,
      "safetyEvents": [],
      "_no_driver_login": false,
      "_fuel_note": ""
    },
    {
      "id": "trip_48291007_20250522_003",
      "vehicleId": "48291007",
      "driverId": null,
      "startMs": 1747934700000,
      "endMs": 1747946125204,
      "startLocation": {
        "latitude": 39.757068,
        "longitude": -105.032033
      },
      "endLocation": {
        "latitude": 39.724042,
        "longitude": -105.027684
      },
      "startAddress": "4170 John Stravenue",
      "endAddress": "5032 Cooper Parks Suite 717",
      "startCoords": {
        "latitude": 39.742747,
        "longitude": -104.90947
      },
      "endCoords": {
        "latitude": 39.749659,
        "longitude": -104.922934
      },
      "distanceMeters": 73938.1,
      "durationMs": 11425205,
      "drivingDurationMs": 9339858,
      "idlingDurationMs": 2085347,
      "fuelConsumedMl": 9399,
      "fuelConsumedGallons": 2.483,
      "maxSpeedMph": 32.6,
      "averageSpeedMph": 14.5,
      "safetyEvents": [],
      "_no_driver_login": true,
      "_fuel_note": ""
    },
    {
      "id": "trip_48291007_20250522_004",
      "vehicleId": "48291007",
      "driverId": "22831006",
      "startMs": 1747894440000,
      "endMs": 1747897163239,
      "startLocation": {
        "latitude": 39.809443,
        "longitude": -105.061897
      },
      "endLocation": {
        "latitude": 39.802297,
        "longitude": -105.009913
      },
      "startAddress": "70412 Harvey Hill Suite 645",
      "endAddress": "191 Garcia Pines Suite 708",
      "startCoords": {
        "latitude": 39.807925,
        "longitude": -105.025171
      },
      "endCoords": {
        "latitude": 39.762969,
        "longitude": -104.971293
      },
      "distanceMeters": 15518.0,
      "durationMs": 2723240,
      "drivingDurationMs": 2524085,
      "idlingDurationMs": 199154,
      "fuelConsumedMl": 1972,
      "fuelConsumedGallons": 0.521,
      "maxSpeedMph": 40.8,
      "averageSpeedMph": 12.7,
      "safetyEvents": [],
      "_no_driver_login": false,
      "_fuel_note": ""
    },
    {
      "id": "trip_48291007_20250523_001",
      "vehicleId": "48291007",
      "driverId": "22831006",
      "startMs": 1748008080000,
      "endMs": 1748019015877,
      "startLocation": {
        "latitude": 39.714946,
        "longitude": -104.996253
      },
      "endLocation": {
        "latitude": 39.786952,
        "longitude": -104.938437
      },
      "startAddress": "76597 Holly Squares",
      "endAddress": "90752 Jacobs Extensions Suite 016",
      "startCoords": {
        "latitude": 39.698465,
        "longitude": -104.989622
      },
      "endCoords": {
        "latitude": 39.757799,
        "longitude": -105.020752
      },
      "distanceMeters": 70197.2,
      "durationMs": 10935878,
      "drivingDurationMs": 10367255,
      "idlingDurationMs": 568623,
      "fuelConsumedMl": 8926,
      "fuelConsumedGallons": 2.358,
      "maxSpeedMph": 62.5,
      "averageSpeedMph": 14.4,
      "safetyEvents": [],
      "_no_driver_login": false,
      "_fuel_note": "QUIRK 5: fuelConsumedGallons is in US gallons. Multiply by 3.785 for litres. Samsara does not link fuel to specific Onfleet tasks."
    },
    {
      "id": "trip_48291007_20250523_002",
      "vehicleId": "48291007",
      "driverId": null,
      "startMs": 1748004960000,
      "endMs": 1748010889611,
      "startLocation": {
        "latitude": 39.76974,
        "longitude": -104.910956
      },
      "endLocation": {
        "latitude": 39.747835,
        "longitude": -105.036075
      },
      "startAddress": "56350 Valdez Crest Apt. 190",
      "endAddress": "6733 Clark Pike",
      "startCoords": {
        "latitude": 39.743954,
        "longitude": -105.039684
      },
      "endCoords": {
        "latitude": 39.79079,
        "longitude": -104.9222
      },
      "distanceMeters": 26617.7,
      "durationMs": 5929611,
      "drivingDurationMs": 5058371,
      "idlingDurationMs": 871240,
      "fuelConsumedMl": 3384,
      "fuelConsumedGallons": 0.894,
      "maxSpeedMph": 52.2,
      "averageSpeedMph": 10.0,
      "safetyEvents": [],
      "_no_driver_login": true,
      "_fuel_note": ""
    },
    {
      "id": "trip_48291007_20250523_003",
      "vehicleId": "48291007",
      "driverId": null,
      "startMs": 1748013600000,
      "endMs": 1748019464996,
      "startLocation": {
        "latitude": 39.765114,
        "longitude": -104.901296
      },
      "endLocation": {
        "latitude": 39.775004,
        "longitude": -105.044142
      },
      "startAddress": "244 Nancy Stravenue",
      "endAddress": "746 Schmidt Glens",
      "startCoords": {
        "latitude": 39.820135,
        "longitude": -105.023741
      },
      "endCoords": {
        "latitude": 39.71341,
        "longitude": -105.049095
      },
      "distanceMeters": 26978.2,
      "durationMs": 5864997,
      "drivingDurationMs": 5313556,
      "idlingDurationMs": 551441,
      "fuelConsumedMl": 3430,
      "fuelConsumedGallons": 0.906,
      "maxSpeedMph": 35.2,
      "averageSpeedMph": 10.3,
      "safetyEvents": [],
      "_no_driver_login": true,
      "_fuel_note": ""
    },
    {
      "id": "trip_48291007_20250523_004",
      "vehicleId": "48291007",
      "driverId": "22831006",
      "startMs": 1748009820000,
      "endMs": 1748022642733,
      "startLocation": {
        "latitude": 39.787929,
        "longitude": -104.908478
      },
      "endLocation": {
        "latitude": 39.70662,
        "longitude": -105.003825
      },
      "startAddress": "18194 Carlson Via",
      "endAddress": "08067 Melanie Viaduct Apt. 957",
      "startCoords": {
        "latitude": 39.755075,
        "longitude": -104.981184
      },
      "endCoords": {
        "latitude": 39.79133,
        "longitude": -104.922614
      },
      "distanceMeters": 82264.4,
      "durationMs": 12822733,
      "drivingDurationMs": 11026151,
      "idlingDurationMs": 1796582,
      "fuelConsumedMl": 10459,
      "fuelConsumedGallons": 2.763,
      "maxSpeedMph": 62.2,
      "averageSpeedMph": 14.4,
      "safetyEvents": [],
      "_no_driver_login": false,
      "_fuel_note": ""
    },
    {
      "id": "trip_48291007_20250524_001",
      "vehicleId": "48291007",
      "driverId": "22831006",
      "startMs": 1748100900000,
      "endMs": 1748107974175,
      "startLocation": {
        "latitude": 39.784567,
        "longitude": -105.060495
      },
      "endLocation": {
        "latitude": 39.725894,
        "longitude": -104.929634
      },
      "startAddress": "110 Morales Lock",
      "endAddress": "34873 Matthew Crest Apt. 924",
      "startCoords": {
        "latitude": 39.80852,
        "longitude": -105.076525
      },
      "endCoords": {
        "latitude": 39.818073,
        "longitude": -104.986172
      },
      "distanceMeters": 41797.7,
      "durationMs": 7074176,
      "drivingDurationMs": 5754547,
      "idlingDurationMs": 1319629,
      "fuelConsumedMl": 5315,
      "fuelConsumedGallons": 1.404,
      "maxSpeedMph": 41.0,
      "averageSpeedMph": 13.2,
      "safetyEvents": [],
      "_no_driver_login": false,
      "_fuel_note": "QUIRK 5: fuelConsumedGallons is in US gallons. Multiply by 3.785 for litres. Samsara does not link fuel to specific Onfleet tasks."
    },
    {
      "id": "trip_48291007_20250524_002",
      "vehicleId": "48291007",
      "driverId": "22831006",
      "startMs": 1748099820000,
      "endMs": 1748104571994,
      "startLocation": {
        "latitude": 39.788618,
        "longitude": -104.984246
      },
      "endLocation": {
        "latitude": 39.733825,
        "longitude": -105.014176
      },
      "startAddress": "675 Williams Roads Suite 027",
      "endAddress": "985 Yates Summit",
      "startCoords": {
        "latitude": 39.690253,
        "longitude": -104.921602
      },
      "endCoords": {
        "latitude": 39.699133,
        "longitude": -105.036926
      },
      "distanceMeters": 29376.7,
      "durationMs": 4751995,
      "drivingDurationMs": 4350375,
      "idlingDurationMs": 401620,
      "fuelConsumedMl": 3736,
      "fuelConsumedGallons": 0.987,
      "maxSpeedMph": 49.4,
      "averageSpeedMph": 13.8,
      "safetyEvents": [],
      "_no_driver_login": false,
      "_fuel_note": ""
    },
    {
      "id": "trip_48291007_20250525_001",
      "vehicleId": "48291007",
      "driverId": "22831006",
      "startMs": 1748186160000,
      "endMs": 1748195727704,
      "startLocation": {
        "latitude": 39.710728,
        "longitude": -104.996625
      },
      "endLocation": {
        "latitude": 39.699565,
        "longitude": -104.989322
      },
      "startAddress": "52445 Justin Street",
      "endAddress": "60231 Morales Run",
      "startCoords": {
        "latitude": 39.708932,
        "longitude": -105.001502
      },
      "endCoords": {
        "latitude": 39.708605,
        "longitude": -105.029939
      },
      "distanceMeters": 46956.0,
      "durationMs": 9567705,
      "drivingDurationMs": 8352897,
      "idlingDurationMs": 1214808,
      "fuelConsumedMl": 5970,
      "fuelConsumedGallons": 1.577,
      "maxSpeedMph": 32.6,
      "averageSpeedMph": 11.0,
      "safetyEvents": [],
      "_no_driver_login": false,
      "_fuel_note": "QUIRK 5: fuelConsumedGallons is in US gallons. Multiply by 3.785 for litres. Samsara does not link fuel to specific Onfleet tasks."
    },
    {
      "id": "trip_48291007_20250525_002",
      "vehicleId": "48291007",
      "driverId": "22831006",
      "startMs": 1748188320000,
      "endMs": 1748192601451,
      "startLocation": {
        "latitude": 39.756561,
        "longitude": -105.043823
      },
      "endLocation": {
        "latitude": 39.772774,
        "longitude": -105.012881
      },
      "startAddress": "4969 Aguilar Orchard Suite 009",
      "endAddress": "799 Vicki Prairie Apt. 349",
      "startCoords": {
        "latitude": 39.696654,
        "longitude": -104.916707
      },
      "endCoords": {
        "latitude": 39.819162,
        "longitude": -105.051086
      },
      "distanceMeters": 18896.3,
      "durationMs": 4281451,
      "drivingDurationMs": 3642188,
      "idlingDurationMs": 639264,
      "fuelConsumedMl": 2404,
      "fuelConsumedGallons": 0.635,
      "maxSpeedMph": 33.0,
      "averageSpeedMph": 9.9,
      "safetyEvents": [],
      "_no_driver_login": false,
      "_fuel_note": ""
    },
    {
      "id": "trip_48291007_20250525_003",
      "vehicleId": "48291007",
      "driverId": "22831006",
      "startMs": 1748173260000,
      "endMs": 1748180935068,
      "startLocation": {
        "latitude": 39.760956,
        "longitude": -105.022168
      },
      "endLocation": {
        "latitude": 39.732767,
        "longitude": -105.024329
      },
      "startAddress": "7664 Ortega Loaf Apt. 145",
      "endAddress": "383 Monroe Coves",
      "startCoords": {
        "latitude": 39.76336,
        "longitude": -104.914573
      },
      "endCoords": {
        "latitude": 39.691441,
        "longitude": -104.917411
      },
      "distanceMeters": 53736.5,
      "durationMs": 7675068,
      "drivingDurationMs": 7467205,
      "idlingDurationMs": 207863,
      "fuelConsumedMl": 6833,
      "fuelConsumedGallons": 1.805,
      "maxSpeedMph": 30.4,
      "averageSpeedMph": 15.7,
      "safetyEvents": [],
      "_no_driver_login": false,
      "_fuel_note": ""
    },
    {
      "id": "trip_48291007_20250526_001",
      "vehicleId": "48291007",
      "driverId": "22831006",
      "startMs": 1748273340000,
      "endMs": 1748279177872,
      "startLocation": {
        "latitude": 39.771297,
        "longitude": -104.985534
      },
      "endLocation": {
        "latitude": 39.688665,
        "longitude": -104.976944
      },
      "startAddress": "5285 Richard Fort",
      "endAddress": "55353 Spears Creek",
      "startCoords": {
        "latitude": 39.731224,
        "longitude": -104.938509
      },
      "endCoords": {
        "latitude": 39.812936,
        "longitude": -105.004046
      },
      "distanceMeters": 45730.7,
      "durationMs": 5837872,
      "drivingDurationMs": 5214936,
      "idlingDurationMs": 622936,
      "fuelConsumedMl": 5814,
      "fuelConsumedGallons": 1.536,
      "maxSpeedMph": 58.0,
      "averageSpeedMph": 17.5,
      "safetyEvents": [],
      "_no_driver_login": false,
      "_fuel_note": "QUIRK 5: fuelConsumedGallons is in US gallons. Multiply by 3.785 for litres. Samsara does not link fuel to specific Onfleet tasks."
    },
    {
      "id": "trip_48291007_20250526_002",
      "vehicleId": "48291007",
      "driverId": "22831006",
      "startMs": 1748279520000,
      "endMs": 1748291884056,
      "startLocation": {
        "latitude": 39.767909,
        "longitude": -105.049055
      },
      "endLocation": {
        "latitude": 39.729671,
        "longitude": -104.993877
      },
      "startAddress": "0965 Scott Roads",
      "endAddress": "49957 Moore Circles Apt. 010",
      "startCoords": {
        "latitude": 39.800437,
        "longitude": -104.928672
      },
      "endCoords": {
        "latitude": 39.741912,
        "longitude": -104.954598
      },
      "distanceMeters": 76247.7,
      "durationMs": 12364057,
      "drivingDurationMs": 10653678,
      "idlingDurationMs": 1710378,
      "fuelConsumedMl": 9694,
      "fuelConsumedGallons": 2.561,
      "maxSpeedMph": 35.0,
      "averageSpeedMph": 13.8,
      "safetyEvents": [],
      "_no_driver_login": false,
      "_fuel_note": ""
    },
    {
      "id": "trip_48291007_20250526_003",
      "vehicleId": "48291007",
      "driverId": "22831006",
      "startMs": 1748255220000,
      "endMs": 1748264119962,
      "startLocation": {
        "latitude": 39.759733,
        "longitude": -104.902633
      },
      "endLocation": {
        "latitude": 39.701841,
        "longitude": -104.932073
      },
      "startAddress": "4627 Mia Forge Suite 168",
      "endAddress": "361 Bauer Inlet Suite 680",
      "startCoords": {
        "latitude": 39.7439,
        "longitude": -105.056981
      },
      "endCoords": {
        "latitude": 39.716136,
        "longitude": -104.91864
      },
      "distanceMeters": 57505.2,
      "durationMs": 8899962,
      "drivingDurationMs": 7125119,
      "idlingDurationMs": 1774843,
      "fuelConsumedMl": 7310,
      "fuelConsumedGallons": 1.931,
      "maxSpeedMph": 59.5,
      "averageSpeedMph": 14.5,
      "safetyEvents": [],
      "_no_driver_login": false,
      "_fuel_note": ""
    },
    {
      "id": "trip_48291007_20250526_004",
      "vehicleId": "48291007",
      "driverId": "22831006",
      "startMs": 1748248860000,
      "endMs": 1748250788737,
      "startLocation": {
        "latitude": 39.742141,
        "longitude": -104.917788
      },
      "endLocation": {
        "latitude": 39.710821,
        "longitude": -105.045844
      },
      "startAddress": "1000 Fritz Cliff Suite 808",
      "endAddress": "37944 Walker Island",
      "startCoords": {
        "latitude": 39.793839,
        "longitude": -104.989143
      },
      "endCoords": {
        "latitude": 39.826536,
        "longitude": -104.970145
      },
      "distanceMeters": 14901.2,
      "durationMs": 1928737,
      "drivingDurationMs": 1697249,
      "idlingDurationMs": 231488,
      "fuelConsumedMl": 1893,
      "fuelConsumedGallons": 0.5,
      "maxSpeedMph": 44.9,
      "averageSpeedMph": 17.3,
      "safetyEvents": [],
      "_no_driver_login": false,
      "_fuel_note": ""
    },
    {
      "id": "trip_48291007_20250526_005",
      "vehicleId": "48291007",
      "driverId": "22831006",
      "startMs": 1748261100000,
      "endMs": 1748262253719,
      "startLocation": {
        "latitude": 39.796245,
        "longitude": -105.073587
      },
      "endLocation": {
        "latitude": 39.708186,
        "longitude": -105.017748
      },
      "startAddress": "4515 Elizabeth Squares Suite 355",
      "endAddress": "18628 Erin Rue",
      "startCoords": {
        "latitude": 39.779642,
        "longitude": -104.996699
      },
      "endCoords": {
        "latitude": 39.713235,
        "longitude": -104.970556
      },
      "distanceMeters": 8074.1,
      "durationMs": 1153720,
      "drivingDurationMs": 946103,
      "idlingDurationMs": 207617,
      "fuelConsumedMl": 1026,
      "fuelConsumedGallons": 0.271,
      "maxSpeedMph": 52.3,
      "averageSpeedMph": 15.7,
      "safetyEvents": [],
      "_no_driver_login": false,
      "_fuel_note": ""
    },
    {
      "id": "trip_48291007_20250527_001",
      "vehicleId": "48291007",
      "driverId": "22831006",
      "startMs": 1748368380000,
      "endMs": 1748379600000,
      "startLocation": {
        "latitude": 39.802221,
        "longitude": -104.941676
      },
      "endLocation": {
        "latitude": 39.753663,
        "longitude": -105.063237
      },
      "startAddress": "0546 White Roads Apt. 226",
      "endAddress": "272 Galvan Trail",
      "startCoords": {
        "latitude": 39.728759,
        "longitude": -104.98418
      },
      "endCoords": {
        "latitude": 39.798794,
        "longitude": -104.984445
      },
      "distanceMeters": 52758.3,
      "durationMs": 11220000,
      "drivingDurationMs": 10193400,
      "idlingDurationMs": 1026600,
      "fuelConsumedMl": 6708,
      "fuelConsumedGallons": 1.772,
      "maxSpeedMph": 58.2,
      "averageSpeedMph": 10.5,
      "safetyEvents": [],
      "_no_driver_login": false,
      "_fuel_note": "QUIRK 5: fuelConsumedGallons is in US gallons. Multiply by 3.785 for litres. Samsara does not link fuel to specific Onfleet tasks."
    },
    {
      "id": "trip_48291007_20250527_002",
      "vehicleId": "48291007",
      "driverId": "22831006",
      "startMs": 1748354040000,
      "endMs": 1748355527552,
      "startLocation": {
        "latitude": 39.803461,
        "longitude": -105.055878
      },
      "endLocation": {
        "latitude": 39.736466,
        "longitude": -105.059772
      },
      "startAddress": "300 Ann Common",
      "endAddress": "3904 Jonathan Walk Apt. 236",
      "startCoords": {
        "latitude": 39.787293,
        "longitude": -105.022729
      },
      "endCoords": {
        "latitude": 39.722236,
        "longitude": -104.911817
      },
      "distanceMeters": 6335.5,
      "durationMs": 1487553,
      "drivingDurationMs": 1227265,
      "idlingDurationMs": 260288,
      "fuelConsumedMl": 806,
      "fuelConsumedGallons": 0.213,
      "maxSpeedMph": 29.6,
      "averageSpeedMph": 9.5,
      "safetyEvents": [],
      "_no_driver_login": false,
      "_fuel_note": ""
    },
    {
      "id": "trip_48291007_20250527_003",
      "vehicleId": "48291007",
      "driverId": "22831006",
      "startMs": 1748371380000,
      "endMs": 1748379600000,
      "startLocation": {
        "latitude": 39.692756,
        "longitude": -105.065529
      },
      "endLocation": {
        "latitude": 39.813929,
        "longitude": -104.95556
      },
      "startAddress": "3661 Paul Bridge",
      "endAddress": "944 Garrett Burg Apt. 040",
      "startCoords": {
        "latitude": 39.743602,
        "longitude": -104.972264
      },
      "endCoords": {
        "latitude": 39.807675,
        "longitude": -105.029896
      },
      "distanceMeters": 46398.9,
      "durationMs": 8220000,
      "drivingDurationMs": 6576000,
      "idlingDurationMs": 1644000,
      "fuelConsumedMl": 5898,
      "fuelConsumedGallons": 1.558,
      "maxSpeedMph": 28.6,
      "averageSpeedMph": 12.6,
      "safetyEvents": [],
      "_no_driver_login": false,
      "_fuel_note": ""
    },
    {
      "id": "trip_48291007_20250527_004",
      "vehicleId": "48291007",
      "driverId": "22831006",
      "startMs": 1748328180000,
      "endMs": 1748329183573,
      "startLocation": {
        "latitude": 39.691182,
        "longitude": -104.953235
      },
      "endLocation": {
        "latitude": 39.742798,
        "longitude": -105.003078
      },
      "startAddress": "0374 Ramos Vista",
      "endAddress": "678 Gonzalez Falls Suite 642",
      "startCoords": {
        "latitude": 39.753351,
        "longitude": -105.029178
      },
      "endCoords": {
        "latitude": 39.801151,
        "longitude": -104.980402
      },
      "distanceMeters": 6709.5,
      "durationMs": 1003573,
      "drivingDurationMs": 808139,
      "idlingDurationMs": 195435,
      "fuelConsumedMl": 852,
      "fuelConsumedGallons": 0.225,
      "maxSpeedMph": 33.9,
      "averageSpeedMph": 15.0,
      "safetyEvents": [],
      "_no_driver_login": false,
      "_fuel_note": ""
    },
    {
      "id": "trip_48291007_20250527_005",
      "vehicleId": "48291007",
      "driverId": "22831006",
      "startMs": 1748347020000,
      "endMs": 1748356487209,
      "startLocation": {
        "latitude": 39.744047,
        "longitude": -105.048231
      },
      "endLocation": {
        "latitude": 39.71551,
        "longitude": -105.066854
      },
      "startAddress": "82948 Maria Skyway Suite 125",
      "endAddress": "747 Richmond Vista Apt. 132",
      "startCoords": {
        "latitude": 39.69257,
        "longitude": -104.916932
      },
      "endCoords": {
        "latitude": 39.814852,
        "longitude": -105.053322
      },