{
  "vehicleId": "48291002",
  "vehicleName": "DEN-CAR-03",
  "month": "2025_05",
  "pagination": {
    "endCursor": "trip_48291002_20250531_004",
    "hasNextPage": false
  },
  "trips": [
    {
      "id": "trip_48291002_20250501_001",
      "vehicleId": "48291002",
      "driverId": "22831001",
      "startMs": 1746101100000,
      "endMs": 1746104517725,
      "startLocation": {
        "latitude": 39.700755,
        "longitude": -105.084197
      },
      "endLocation": {
        "latitude": 39.7554,
        "longitude": -104.930884
      },
      "startAddress": "36485 Cameron Stravenue",
      "endAddress": "862 Thomas Grove",
      "startCoords": {
        "latitude": 39.730903,
        "longitude": -105.020823
      },
      "endCoords": {
        "latitude": 39.799351,
        "longitude": -104.974697
      },
      "distanceMeters": 24791.4,
      "durationMs": 3417726,
      "drivingDurationMs": 3040894,
      "idlingDurationMs": 376832,
      "fuelConsumedMl": 3153,
      "fuelConsumedGallons": 0.833,
      "maxSpeedMph": 71.2,
      "averageSpeedMph": 16.2,
      "safetyEvents": [
        {
          "type": "speeding",
          "startMs": 1746103680000,
          "maxSpeedMph": 71.2
        }
      ],
      "_no_driver_login": false,
      "_fuel_note": "QUIRK 5: fuelConsumedGallons is in US gallons. Multiply by 3.785 for litres. Samsara does not link fuel to specific Onfleet tasks."
    },
    {
      "id": "trip_48291002_20250501_002",
      "vehicleId": "48291002",
      "driverId": "22831001",
      "startMs": 1746109860000,
      "endMs": 1746118267121,
      "startLocation": {
        "latitude": 39.753174,
        "longitude": -104.914835
      },
      "endLocation": {
        "latitude": 39.747874,
        "longitude": -104.91142
      },
      "startAddress": "6644 Green Expressway",
      "endAddress": "796 Hall Light",
      "startCoords": {
        "latitude": 39.82213,
        "longitude": -104.970586
      },
      "endCoords": {
        "latitude": 39.812502,
        "longitude": -105.065586
      },
      "distanceMeters": 63527.9,
      "durationMs": 8407121,
      "drivingDurationMs": 7358867,
      "idlingDurationMs": 1048255,
      "fuelConsumedMl": 8078,
      "fuelConsumedGallons": 2.134,
      "maxSpeedMph": 51.7,
      "averageSpeedMph": 16.9,
      "safetyEvents": [],
      "_no_driver_login": false,
      "_fuel_note": ""
    },
    {
      "id": "trip_48291002_20250502_001",
      "vehicleId": "48291002",
      "driverId": "22831001",
      "startMs": 1746176220000,
      "endMs": 1746180136561,
      "startLocation": {
        "latitude": 39.762028,
        "longitude": -104.910005
      },
      "endLocation": {
        "latitude": 39.715573,
        "longitude": -105.049186
      },
      "startAddress": "806 Barnes Landing Apt. 373",
      "endAddress": "67196 Charles Turnpike",
      "startCoords": {
        "latitude": 39.770703,
        "longitude": -104.943512
      },
      "endCoords": {
        "latitude": 39.782815,
        "longitude": -105.069605
      },
      "distanceMeters": 21639.0,
      "durationMs": 3916562,
      "drivingDurationMs": 3154509,
      "idlingDurationMs": 762053,
      "fuelConsumedMl": 2752,
      "fuelConsumedGallons": 0.727,
      "maxSpeedMph": 36.9,
      "averageSpeedMph": 12.4,
      "safetyEvents": [],
      "_no_driver_login": false,
      "_fuel_note": "QUIRK 5: fuelConsumedGallons is in US gallons. Multiply by 3.785 for litres. Samsara does not link fuel to specific Onfleet tasks."
    },
    {
      "id": "trip_48291002_20250502_002",
      "vehicleId": "48291002",
      "driverId": "22831001",
      "startMs": 1746199380000,
      "endMs": 1746213397782,
      "startLocation": {
        "latitude": 39.78753,
        "longitude": -104.988029
      },
      "endLocation": {
        "latitude": 39.757458,
        "longitude": -104.983455
      },
      "startAddress": "47909 Sarah Ridges",
      "endAddress": "97910 Cook Light",
      "startCoords": {
        "latitude": 39.69021,
        "longitude": -105.056728
      },
      "endCoords": {
        "latitude": 39.777009,
        "longitude": -105.040664
      },
      "distanceMeters": 83241.9,
      "durationMs": 14017783,
      "drivingDurationMs": 13529240,
      "idlingDurationMs": 488543,
      "fuelConsumedMl": 10584,
      "fuelConsumedGallons": 2.796,
      "maxSpeedMph": 35.4,
      "averageSpeedMph": 13.3,
      "safetyEvents": [],
      "_no_driver_login": false,
      "_fuel_note": ""
    },
    {
      "id": "trip_48291002_20250502_003",
      "vehicleId": "48291002",
      "driverId": "22831001",
      "startMs": 1746208980000,
      "endMs": 1746218204678,
      "startLocation": {
        "latitude": 39.704105,
        "longitude": -105.076133
      },
      "endLocation": {
        "latitude": 39.767691,
        "longitude": -104.986617
      },
      "startAddress": "331 Chavez Viaduct Suite 652",
      "endAddress": "7282 Catherine Port",
      "startCoords": {
        "latitude": 39.770207,
        "longitude": -105.087
      },
      "endCoords": {
        "latitude": 39.810437,
        "longitude": -105.009309
      },
      "distanceMeters": 60567.1,
      "durationMs": 9224679,
      "drivingDurationMs": 7626299,
      "idlingDurationMs": 1598380,
      "fuelConsumedMl": 7700,
      "fuelConsumedGallons": 2.034,
      "maxSpeedMph": 56.4,
      "averageSpeedMph": 14.7,
      "safetyEvents": [],
      "_no_driver_login": false,
      "_fuel_note": ""
    },
    {
      "id": "trip_48291002_20250503_001",
      "vehicleId": "48291002",
      "driverId": "22831001",
      "startMs": 1746285840000,
      "endMs": 1746290307627,
      "startLocation": {
        "latitude": 39.745967,
        "longitude": -104.982041
      },
      "endLocation": {
        "latitude": 39.721366,
        "longitude": -105.061785
      },
      "startAddress": "38693 Nelson Trail Apt. 603",
      "endAddress": "95620 Holly Forges Apt. 755",
      "startCoords": {
        "latitude": 39.793989,
        "longitude": -105.052726
      },
      "endCoords": {
        "latitude": 39.756001,
        "longitude": -105.04895
      },
      "distanceMeters": 30004.7,
      "durationMs": 4467628,
      "drivingDurationMs": 4232314,
      "idlingDurationMs": 235314,
      "fuelConsumedMl": 3816,
      "fuelConsumedGallons": 1.008,
      "maxSpeedMph": 45.9,
      "averageSpeedMph": 15.0,
      "safetyEvents": [],
      "_no_driver_login": false,
      "_fuel_note": "QUIRK 5: fuelConsumedGallons is in US gallons. Multiply by 3.785 for litres. Samsara does not link fuel to specific Onfleet tasks."
    },
    {
      "id": "trip_48291002_20250503_002",
      "vehicleId": "48291002",
      "driverId": "22831001",
      "startMs": 1746261240000,
      "endMs": 1746270944786,
      "startLocation": {
        "latitude": 39.804134,
        "longitude": -105.017409
      },
      "endLocation": {
        "latitude": 39.791203,
        "longitude": -105.013363
      },
      "startAddress": "133 Silva Walk Suite 246",
      "endAddress": "77566 Joseph Spring Suite 627",
      "startCoords": {
        "latitude": 39.751583,
        "longitude": -104.999808
      },
      "endCoords": {
        "latitude": 39.823725,
        "longitude": -105.082555
      },
      "distanceMeters": 67447.9,
      "durationMs": 9704787,
      "drivingDurationMs": 9346497,
      "idlingDurationMs": 358290,
      "fuelConsumedMl": 8574,
      "fuelConsumedGallons": 2.265,
      "maxSpeedMph": 51.5,
      "averageSpeedMph": 15.5,
      "safetyEvents": [],
      "_no_driver_login": false,
      "_fuel_note": ""
    },
    {
      "id": "trip_48291002_20250503_003",
      "vehicleId": "48291002",
      "driverId": "22831001",
      "startMs": 1746281220000,
      "endMs": 1746291963122,
      "startLocation": {
        "latitude": 39.780128,
        "longitude": -104.953414
      },
      "endLocation": {
        "latitude": 39.758873,
        "longitude": -104.942394
      },
      "startAddress": "66383 Richard Run Apt. 195",
      "endAddress": "3353 Wilson Circle",
      "startCoords": {
        "latitude": 39.779771,
        "longitude": -105.009008
      },
      "endCoords": {
        "latitude": 39.82481,
        "longitude": -104.899554
      },
      "distanceMeters": 59420.4,
      "durationMs": 10743122,
      "drivingDurationMs": 8623754,
      "idlingDurationMs": 2119368,
      "fuelConsumedMl": 7556,
      "fuelConsumedGallons": 1.996,
      "maxSpeedMph": 50.1,
      "averageSpeedMph": 12.4,
      "safetyEvents": [],
      "_no_driver_login": false,
      "_fuel_note": ""
    },
    {
      "id": "trip_48291002_20250504_001",
      "vehicleId": "48291002",
      "driverId": "22831001",
      "startMs": 1746347580000,
      "endMs": 1746361754820,
      "startLocation": {
        "latitude": 39.82157,
        "longitude": -105.04228
      },
      "endLocation": {
        "latitude": 39.715485,
        "longitude": -104.911925
      },
      "startAddress": "13169 Murphy Light Apt. 598",
      "endAddress": "9533 Dean Cove Apt. 120",
      "startCoords": {
        "latitude": 39.743519,
        "longitude": -104.901658
      },
      "endCoords": {
        "latitude": 39.70272,
        "longitude": -104.913018
      },
      "distanceMeters": 78344.9,
      "durationMs": 14174820,
      "drivingDurationMs": 12311804,
      "idlingDurationMs": 1863016,
      "fuelConsumedMl": 9959,
      "fuelConsumedGallons": 2.631,
      "maxSpeedMph": 58.1,
      "averageSpeedMph": 12.4,
      "safetyEvents": [],
      "_no_driver_login": false,
      "_fuel_note": "QUIRK 5: fuelConsumedGallons is in US gallons. Multiply by 3.785 for litres. Samsara does not link fuel to specific Onfleet tasks."
    },
    {
      "id": "trip_48291002_20250504_002",
      "vehicleId": "48291002",
      "driverId": "22831001",
      "startMs": 1746373080000,
      "endMs": 1746385480987,
      "startLocation": {
        "latitude": 39.76995,
        "longitude": -104.937759
      },
      "endLocation": {
        "latitude": 39.77097,
        "longitude": -104.90902
      },
      "startAddress": "270 Hernandez Haven",
      "endAddress": "93691 Crystal Glens",
      "startCoords": {
        "latitude": 39.694576,
        "longitude": -104.981252
      },
      "endCoords": {
        "latitude": 39.826368,
        "longitude": -104.907039
      },
      "distanceMeters": 78183.5,
      "durationMs": 12400988,
      "drivingDurationMs": 10794336,
      "idlingDurationMs": 1606652,
      "fuelConsumedMl": 9940,
      "fuelConsumedGallons": 2.626,
      "maxSpeedMph": 65.8,
      "averageSpeedMph": 14.1,
      "safetyEvents": [
        {
          "type": "speeding",
          "startMs": 1746377640000,
          "maxSpeedMph": 65.8
        }
      ],
      "_no_driver_login": false,
      "_fuel_note": ""
    },
    {
      "id": "trip_48291002_20250504_003",
      "vehicleId": "48291002",
      "driverId": "22831001",
      "startMs": 1746375960000,
      "endMs": 1746378933618,
      "startLocation": {
        "latitude": 39.756917,
        "longitude": -105.079943
      },
      "endLocation": {
        "latitude": 39.712879,
        "longitude": -105.017083
      },
      "startAddress": "581 Marks Crossroad Apt. 261",
      "endAddress": "2861 Cobb Oval Suite 999",
      "startCoords": {
        "latitude": 39.71437,
        "longitude": -104.982177
      },
      "endCoords": {
        "latitude": 39.741666,
        "longitude": -105.054981
      },
      "distanceMeters": 17569.1,
      "durationMs": 2973619,
      "drivingDurationMs": 2456221,
      "idlingDurationMs": 517397,
      "fuelConsumedMl": 2233,
      "fuelConsumedGallons": 0.59,
      "maxSpeedMph": 55.7,
      "averageSpeedMph": 13.2,
      "safetyEvents": [],
      "_no_driver_login": false,
      "_fuel_note": ""
    },
    {
      "id": "trip_48291002_20250504_004",
      "vehicleId": "48291002",
      "driverId": "22831001",
      "startMs": 1746365940000,
      "endMs": 1746366913853,
      "startLocation": {
        "latitude": 39.814797,
        "longitude": -104.998327
      },
      "endLocation": {
        "latitude": 39.803603,
        "longitude": -105.027474
      },
      "startAddress": "488 Hall Manor",
      "endAddress": "10726 Jerry Alley Suite 825",
      "startCoords": {
        "latitude": 39.816221,
        "longitude": -105.0365
      },
      "endCoords": {
        "latitude": 39.767642,
        "longitude": -104.952235
      },
      "distanceMeters": 6293.0,
      "durationMs": 973854,
      "drivingDurationMs": 779235,
      "idlingDurationMs": 194619,
      "fuelConsumedMl": 799,
      "fuelConsumedGallons": 0.211,
      "maxSpeedMph": 47.4,
      "averageSpeedMph": 14.5,
      "safetyEvents": [],
      "_no_driver_login": false,
      "_fuel_note": ""
    },
    {
      "id": "trip_48291002_20250505_001",
      "vehicleId": "48291002",
      "driverId": "22831001",
      "startMs": 1746426480000,
      "endMs": 1746432284542,
      "startLocation": {
        "latitude": 39.771048,
        "longitude": -105.069925
      },
      "endLocation": {
        "latitude": 39.687389,
        "longitude": -105.00895
      },
      "startAddress": "268 Donald Ways Apt. 107",
      "endAddress": "4070 Anthony Radial",
      "startCoords": {
        "latitude": 39.766725,
        "longitude": -105.034256
      },
      "endCoords": {
        "latitude": 39.817796,
        "longitude": -104.94889
      },
      "distanceMeters": 40296.9,
      "durationMs": 5804542,
      "drivingDurationMs": 5272062,
      "idlingDurationMs": 532480,
      "fuelConsumedMl": 5122,
      "fuelConsumedGallons": 1.353,
      "maxSpeedMph": 28.1,
      "averageSpeedMph": 15.5,
      "safetyEvents": [],
      "_no_driver_login": false,
      "_fuel_note": "QUIRK 5: fuelConsumedGallons is in US gallons. Multiply by 3.785 for litres. Samsara does not link fuel to specific Onfleet tasks."
    },
    {
      "id": "trip_48291002_20250505_002",
      "vehicleId": "48291002",
      "driverId": "22831001",
      "startMs": 1746425340000,
      "endMs": 1746434084879,
      "startLocation": {
        "latitude": 39.75299,
        "longitude": -105.018879
      },
      "endLocation": {
        "latitude": 39.725039,
        "longitude": -104.913086
      },
      "startAddress": "23553 Lisa Crossroad Suite 404",
      "endAddress": "42085 Eric Brooks Apt. 051",
      "startCoords": {
        "latitude": 39.710871,
        "longitude": -105.001596
      },
      "endCoords": {
        "latitude": 39.696747,
        "longitude": -104.901576
      },
      "distanceMeters": 48199.8,
      "durationMs": 8744880,
      "drivingDurationMs": 8077967,
      "idlingDurationMs": 666912,
      "fuelConsumedMl": 6129,
      "fuelConsumedGallons": 1.619,
      "maxSpeedMph": 46.4,
      "averageSpeedMph": 12.3,
      "safetyEvents": [],
      "_no_driver_login": false,
      "_fuel_note": ""
    },
    {
      "id": "trip_48291002_20250505_003",
      "vehicleId": "48291002",
      "driverId": null,
      "startMs": 1746447780000,
      "endMs": 1746451396303,
      "startLocation": {
        "latitude": 39.749463,
        "longitude": -104.9758
      },
      "endLocation": {
        "latitude": 39.787364,
        "longitude": -105.019112
      },
      "startAddress": "3092 Wagner Via",
      "endAddress": "65677 Austin Club",
      "startCoords": {
        "latitude": 39.754196,
        "longitude": -104.921809
      },
      "endCoords": {
        "latitude": 39.786851,
        "longitude": -105.06776
      },
      "distanceMeters": 25392.4,
      "durationMs": 3616304,
      "drivingDurationMs": 3230836,
      "idlingDurationMs": 385468,
      "fuelConsumedMl": 3229,
      "fuelConsumedGallons": 0.853,
      "maxSpeedMph": 69.0,
      "averageSpeedMph": 15.7,
      "safetyEvents": [
        {
          "type": "speeding",
          "startMs": 1746448020000,
          "maxSpeedMph": 69.0
        }
      ],
      "_no_driver_login": true,
      "_fuel_note": ""
    },
    {
      "id": "trip_48291002_20250506_001",
      "vehicleId": "48291002",
      "driverId": "22831001",
      "startMs": 1746513000000,
      "endMs": 1746527876905,
      "startLocation": {
        "latitude": 39.814577,
        "longitude": -105.085911
      },
      "endLocation": {
        "latitude": 39.68748,
        "longitude": -105.061762
      },
      "startAddress": "6742 Solomon Extensions Apt. 501",
      "endAddress": "47746 Wood Rapid Apt. 327",
      "startCoords": {
        "latitude": 39.781993,
        "longitude": -104.99486
      },
      "endCoords": {
        "latitude": 39.757906,
        "longitude": -105.009746
      },
      "distanceMeters": 79319.6,
      "durationMs": 14876905,
      "drivingDurationMs": 13511100,
      "idlingDurationMs": 1365805,
      "fuelConsumedMl": 10084,
      "fuelConsumedGallons": 2.664,
      "maxSpeedMph": 62.7,
      "averageSpeedMph": 11.9,
      "safetyEvents": [],
      "_no_driver_login": false,
      "_fuel_note": "QUIRK 5: fuelConsumedGallons is in US gallons. Multiply by 3.785 for litres. Samsara does not link fuel to specific Onfleet tasks."
    },
    {
      "id": "trip_48291002_20250506_002",
      "vehicleId": "48291002",
      "driverId": "22831001",
      "startMs": 1746544440000,
      "endMs": 1746547502911,
      "startLocation": {
        "latitude": 39.814923,
        "longitude": -105.068725
      },
      "endLocation": {
        "latitude": 39.82314,
        "longitude": -104.999043
      },
      "startAddress": "5878 William Estates Apt. 616",
      "endAddress": "4550 Stokes Mews",
      "startCoords": {
        "latitude": 39.777355,
        "longitude": -105.017853
      },
      "endCoords": {
        "latitude": 39.819837,
        "longitude": -105.024763
      },
      "distanceMeters": 15354.0,
      "durationMs": 3062912,
      "drivingDurationMs": 2715869,
      "idlingDurationMs": 347043,
      "fuelConsumedMl": 1953,
      "fuelConsumedGallons": 0.516,
      "maxSpeedMph": 56.9,
      "averageSpeedMph": 11.2,
      "safetyEvents": [],
      "_no_driver_login": false,
      "_fuel_note": ""
    },
    {
      "id": "trip_48291002_20250506_003",
      "vehicleId": "48291002",
      "driverId": "22831001",
      "startMs": 1746547860000,
      "endMs": 1746558557048,
      "startLocation": {
        "latitude": 39.763601,
        "longitude": -104.913275
      },
      "endLocation": {
        "latitude": 39.762226,
        "longitude": -104.962712
      },
      "startAddress": "1181 Hall Mission",
      "endAddress": "5045 Brown Field",
      "startCoords": {
        "latitude": 39.782857,
        "longitude": -104.965584
      },
      "endCoords": {
        "latitude": 39.702268,
        "longitude": -105.033099
      },
      "distanceMeters": 78771.6,
      "durationMs": 10697048,
      "drivingDurationMs": 10175082,
      "idlingDurationMs": 521966,
      "fuelConsumedMl": 10016,
      "fuelConsumedGallons": 2.646,
      "maxSpeedMph": 51.8,
      "averageSpeedMph": 16.5,
      "safetyEvents": [],
      "_no_driver_login": false,
      "_fuel_note": ""
    },
    {
      "id": "trip_48291002_20250506_004",
      "vehicleId": "48291002",
      "driverId": "22831001",
      "startMs": 1746550980000,
      "endMs": 1746559315878,
      "startLocation": {
        "latitude": 39.698497,
        "longitude": -105.006905
      },
      "endLocation": {
        "latitude": 39.768973,
        "longitude": -105.060745
      },
      "startAddress": "87737 Danielle Mountain Apt. 351",
      "endAddress": "2697 Kathy Fork",
      "startCoords": {
        "latitude": 39.719212,
        "longitude": -104.942669
      },
      "endCoords": {
        "latitude": 39.775893,
        "longitude": -104.948257
      },
      "distanceMeters": 68101.0,
      "durationMs": 8335879,
      "drivingDurationMs": 8144798,
      "idlingDurationMs": 191080,
      "fuelConsumedMl": 8657,
      "fuelConsumedGallons": 2.287,
      "maxSpeedMph": 63.8,
      "averageSpeedMph": 18.3,
      "safetyEvents": [],
      "_no_driver_login": false,
      "_fuel_note": ""
    },
    {
      "id": "trip_48291002_20250507_001",
      "vehicleId": "48291002",
      "driverId": "22831001",
      "startMs": 1746621840000,
      "endMs": 1746635289643,
      "startLocation": {
        "latitude": 39.792471,
        "longitude": -104.908029
      },
      "endLocation": {
        "latitude": 39.808962,
        "longitude": -105.04721
      },
      "startAddress": "12906 Brendan Islands Suite 136",
      "endAddress": "319 Duran Cliff",
      "startCoords": {
        "latitude": 39.70389,
        "longitude": -104.944016
      },
      "endCoords": {
        "latitude": 39.824749,
        "longitude": -105.038898
      },
      "distanceMeters": 79141.7,
      "durationMs": 13449643,
      "drivingDurationMs": 11445729,
      "idlingDurationMs": 2003914,
      "fuelConsumedMl": 10062,
      "fuelConsumedGallons": 2.658,
      "maxSpeedMph": 32.6,
      "averageSpeedMph": 13.2,
      "safetyEvents": [],
      "_no_driver_login": false,
      "_fuel_note": "QUIRK 5: fuelConsumedGallons is in US gallons. Multiply by 3.785 for litres. Samsara does not link fuel to specific Onfleet tasks."
    },
    {
      "id": "trip_48291002_20250507_002",
      "vehicleId": "48291002",
      "driverId": "22831001",
      "startMs": 1746631200000,
      "endMs": 1746638695053,
      "startLocation": {
        "latitude": 39.711197,
        "longitude": -105.086353
      },
      "endLocation": {
        "latitude": 39.718312,
        "longitude": -104.901447
      },
      "startAddress": "8248 Catherine Meadow Suite 820",
      "endAddress": "54369 Steven Pike Apt. 774",
      "startCoords": {
        "latitude": 39.699451,
        "longitude": -105.028346
      },
      "endCoords": {
        "latitude": 39.808744,
        "longitude": -105.051203
      },
      "distanceMeters": 59510.5,
      "durationMs": 7495054,
      "drivingDurationMs": 7131089,
      "idlingDurationMs": 363965,
      "fuelConsumedMl": 7567,
      "fuelConsumedGallons": 1.999,
      "maxSpeedMph": 42.5,
      "averageSpeedMph": 17.8,
      "safetyEvents": [],
      "_no_driver_login": false,
      "_fuel_note": ""
    },
    {
      "id": "trip_48291002_20250507_003",
      "vehicleId": "48291002",
      "driverId": "22831001",
      "startMs": 1746616320000,
      "endMs": 1746618786489,
      "startLocation": {
        "latitude": 39.734671,
        "longitude": -105.002651
      },
      "endLocation": {
        "latitude": 39.717946,
        "longitude": -104.992838
      },
      "startAddress": "7572 Phillips Villages Apt. 085",
      "endAddress": "0709 Lauren Ville",
      "startCoords": {
        "latitude": 39.725746,
        "longitude": -104.902134
      },
      "endCoords": {
        "latitude": 39.748411,
        "longitude": -105.072549
      },
      "distanceMeters": 17708.7,
      "durationMs": 2466489,
      "drivingDurationMs": 2128649,
      "idlingDurationMs": 337840,
      "fuelConsumedMl": 2252,
      "fuelConsumedGallons": 0.595,
      "maxSpeedMph": 63.4,
      "averageSpeedMph": 16.1,
      "safetyEvents": [],
      "_no_driver_login": false,
      "_fuel_note": ""
    },
    {
      "id": "trip_48291002_20250508_001",
      "vehicleId": "48291002",
      "driverId": "22831001",
      "startMs": 1746710880000,
      "endMs": 1746724249831,
      "startLocation": {
        "latitude": 39.785908,
        "longitude": -104.945401
      },
      "endLocation": {
        "latitude": 39.693944,
        "longitude": -105.085836
      },
      "startAddress": "1105 Alvarado Park Apt. 110",
      "endAddress": "3609 Michael Brooks",
      "startCoords": {
        "latitude": 39.826525,
        "longitude": -105.043341
      },
      "endCoords": {
        "latitude": 39.749549,
        "longitude": -104.908292
      },
      "distanceMeters": 71355.7,
      "durationMs": 13369832,
      "drivingDurationMs": 11549566,
      "idlingDurationMs": 1820266,
      "fuelConsumedMl": 9074,
      "fuelConsumedGallons": 2.397,
      "maxSpeedMph": 39.9,
      "averageSpeedMph": 11.9,
      "safetyEvents": [],
      "_no_driver_login": false,
      "_fuel_note": "QUIRK 5: fuelConsumedGallons is in US gallons. Multiply by 3.785 for litres. Samsara does not link fuel to specific Onfleet tasks."
    },
    {
      "id": "trip_48291002_20250508_002",
      "vehicleId": "48291002",
      "driverId": "22831001",
      "startMs": 1746714660000,
      "endMs": 1746725238985,
      "startLocation": {
        "latitude": 39.684094,
        "longitude": -104.996981
      },
      "endLocation": {
        "latitude": 39.782668,
        "longitude": -105.008797
      },
      "startAddress": "254 Flores Point",
      "endAddress": "590 Wanda Ridges",
      "startCoords": {
        "latitude": 39.730941,
        "longitude": -105.048242
      },
      "endCoords": {
        "latitude": 39.72192,
        "longitude": -105.020146
      },
      "distanceMeters": 73592.9,
      "durationMs": 10578985,
      "drivingDurationMs": 8550503,
      "idlingDurationMs": 2028482,
      "fuelConsumedMl": 9358,
      "fuelConsumedGallons": 2.472,
      "maxSpeedMph": 68.3,
      "averageSpeedMph": 15.6,
      "safetyEvents": [
        {
          "type": "speeding",
          "startMs": 1746715080000,
          "maxSpeedMph": 68.3
        }
      ],
      "_no_driver_login": false,
      "_fuel_note": ""
    },
    {
      "id": "trip_48291002_20250508_003",
      "vehicleId": "48291002",
      "driverId": "22831001",
      "startMs": 1746707460000,
      "endMs": 1746720241692,
      "startLocation": {
        "latitude": 39.694194,
        "longitude": -105.016224
      },
      "endLocation": {
        "latitude": 39.796322,
        "longitude": -104.90269
      },
      "startAddress": "886 Henderson Rapid",
      "endAddress": "01701 Allen Throughway",
      "startCoords": {
        "latitude": 39.712822,
        "longitude": -105.031542
      },
      "endCoords": {
        "latitude": 39.784576,
        "longitude": -105.065248
      },
      "distanceMeters": 82429.9,
      "durationMs": 12781692,
      "drivingDurationMs": 10634868,
      "idlingDurationMs": 2146824,
      "fuelConsumedMl": 10482,
      "fuelConsumedGallons": 2.769,
      "maxSpeedMph": 36.8,
      "averageSpeedMph": 14.4,
      "safetyEvents": [],
      "_no_driver_login": false,
      "_fuel_note": ""
    },
    {
      "id": "trip_48291002_20250508_004",
      "vehicleId": "48291002",
      "driverId": "22831001",
      "startMs": 1746693540000,
      "endMs": 1746704786618,
      "startLocation": {
        "latitude": 39.790725,
        "longitude": -105.086372
      },
      "endLocation": {
        "latitude": 39.795198,
        "longitude": -105.001535
      },
      "startAddress": "599 Barker Crest Suite 952",
      "endAddress": "280 Johnson Bypass Apt. 414",
      "startCoords": {
        "latitude": 39.813295,
        "longitude": -105.04341
      },
      "endCoords": {
        "latitude": 39.69374,
        "longitude": -104.975313
      },
      "distanceMeters": 50846.5,
      "durationMs": 11246618,
      "drivingDurationMs": 9671093,
      "idlingDurationMs": 1575526,
      "fuelConsumedMl": 6465,
      "fuelConsumedGallons": 1.708,
      "maxSpeedMph": 52.4,
      "averageSpeedMph": 10.1,
      "safetyEvents": [],
      "_no_driver_login": false,
      "_fuel_note": ""
    },
    {
      "id": "trip_48291002_20250508_005",
      "vehicleId": "48291002",
      "driverId": "22831001",
      "startMs": 1746714480000,
      "endMs": 1746724028771,
      "startLocation": {
        "latitude": 39.757325,
        "longitude": -104.987825
      },
      "endLocation": {
        "latitude": 39.765033,
        "longitude": -105.075299
      },
      "startAddress": "1590 Cassandra Shoals Apt. 654",
      "endAddress": "9928 Erin Shore Apt. 634",
      "startCoords": {
        "latitude": 39.716244,
        "longitude": -104.941218
      },
      "endCoords": {
        "latitude": 39.750727,
        "longitude": -104.98783
      },
      "distanceMeters": 64109.3,
      "durationMs": 9548772,
      "drivingDurationMs": 7928601,
      "idlingDurationMs": 1620170,
      "fuelConsumedMl": 8150,
      "fuelConsumedGallons": 2.153,
      "maxSpeedMph": 71.0,
      "averageSpeedMph": 15.0,
      "safetyEvents": [
        {
          "type": "speeding",
          "startMs": 1746723000000,
          "maxSpeedMph": 71.0
        }
      ],
      "_no_driver_login": false,
      "_fuel_note": ""
    },
    {
      "id": "trip_48291002_20250509_001",
      "vehicleId": "48291002",
      "driverId": "22831001",
      "startMs": 1746797220000,
      "endMs": 1746800277323,
      "startLocation": {
        "latitude": 39.745572,
        "longitude": -104.907254
      },
      "endLocation": {
        "latitude": 39.823834,
        "longitude": -105.071252
      },
      "startAddress": "71415 Stokes Club Suite 945",
      "endAddress": "9747 Sean Keys",
      "startCoords": {
        "latitude": 39.702343,
        "longitude": -105.012298
      },
      "endCoords": {
        "latitude": 39.715881,
        "longitude": -104.929561
      },
      "distanceMeters": 19370.2,
      "durationMs": 3057324,
      "drivingDurationMs": 2864463,
      "idlingDurationMs": 192860,
      "fuelConsumedMl": 2464,
      "fuelConsumedGallons": 0.651,
      "maxSpeedMph": 54.5,
      "averageSpeedMph": 14.2,
      "safetyEvents": [],
      "_no_driver_login": false,
      "_fuel_note": "QUIRK 5: fuelConsumedGallons is in US gallons. Multiply by 3.785 for litres. Samsara does not link fuel to specific Onfleet tasks."
    },
    {
      "id": "trip_48291002_20250509_002",
      "vehicleId": "48291002",
      "driverId": "22831001",
      "startMs": 1746814260000,
      "endMs": 1746822547422,
      "startLocation": {
        "latitude": 39.709035,
        "longitude": -105.039725
      },
      "endLocation": {
        "latitude": 39.774218,
        "longitude": -105.077307
      },
      "startAddress": "9428 Mcdonald Light Apt. 784",
      "endAddress": "87631 Gilbert Plaza",
      "startCoords": {
        "latitude": 39.811696,
        "longitude": -105.002884
      },
      "endCoords": {
        "latitude": 39.726481,
        "longitude": -105.038962
      },
      "distanceMeters": 64375.6,
      "durationMs": 8287422,
      "drivingDurationMs": 7465014,
      "idlingDurationMs": 822408,
      "fuelConsumedMl": 8184,
      "fuelConsumedGallons": 2.162,
      "maxSpeedMph": 57.2,
      "averageSpeedMph": 17.4,
      "safetyEvents": [],
      "_no_driver_login": false,
      "_fuel_note": ""
    },
    {
      "id": "trip_48291002_20250509_003",
      "vehicleId": "48291002",
      "driverId": "22831001",
      "startMs": 1746812340000,
      "endMs": 1746820655200,
      "startLocation": {
        "latitude": 39.815449,
        "longitude": -104.92632
      },
      "endLocation": {
        "latitude": 39.739629,
        "longitude": -105.041394
      },
      "startAddress": "965 Baker Crossroad",
      "endAddress": "7804 Susan Mission",
      "startCoords": {
        "latitude": 39.809312,
        "longitude": -105.085495
      },
      "endCoords": {
        "latitude": 39.742728,
        "longitude": -105.052043
      },
      "distanceMeters": 64785.0,
      "durationMs": 8315200,
      "drivingDurationMs": 7506351,
      "idlingDurationMs": 808849,
      "fuelConsumedMl": 8237,
      "fuelConsumedGallons": 2.176,
      "maxSpeedMph": 41.8,
      "averageSpeedMph": 17.4,
      "safetyEvents": [],
      "_no_driver_login": false,
      "_fuel_note": ""
    },
    {
      "id": "trip_48291002_20250509_004",
      "vehicleId": "48291002",
      "driverId": "22831001",
      "startMs": 1746779940000,
      "endMs": 1746786303192,
      "startLocation": {
        "latitude": 39.757856,
        "longitude": -105.031533
      },
      "endLocation": {
        "latitude": 39.696489,
        "longitude": -104.957034
      },
      "startAddress": "947 Davis Summit",
      "endAddress": "214 Todd Ford Apt. 800",
      "startCoords": {
        "latitude": 39.807465,
        "longitude": -104.925974
      },
      "endCoords": {
        "latitude": 39.709754,
        "longitude": -105.012087
      },
      "distanceMeters": 46471.7,
      "durationMs": 6363193,
      "drivingDurationMs": 5564709,
      "idlingDurationMs": 798484,
      "fuelConsumedMl": 5909,
      "fuelConsumedGallons": 1.561,
      "maxSpeedMph": 34.0,
      "averageSpeedMph": 16.3,
      "safetyEvents": [],
      "_no_driver_login": false,
      "_fuel_note": ""
    },
    {
      "id": "trip_48291002_20250509_005",
      "vehicleId": "48291002",
      "driverId": "22831001",
      "startMs": 1746776100000,
      "endMs": 1746778406761,
      "startLocation": {
        "latitude": 39.773201,
        "longitude": -104.906862
      },
      "endLocation": {
        "latitude": 39.734887,
        "longitude": -104.933149
      },
      "startAddress": "721 Pratt Plaza",
      "endAddress": "7512 Welch Mountain",
      "startCoords": {
        "latitude": 39.734724,
        "longitude": -104.970355
      },
      "endCoords": {
        "latitude": 39.705349,
        "longitude": -105.013253
      },
      "distanceMeters": 12690.9,
      "durationMs": 2306761,
      "drivingDurationMs": 1957481,
      "idlingDurationMs": 349280,
      "fuelConsumedMl": 1613,
      "fuelConsumedGallons": 0.426,
      "maxSpeedMph": 43.7,
      "averageSpeedMph": 12.3,
      "safetyEvents": [],
      "_no_driver_login": false,
      "_fuel_note": ""
    },
    {
      "id": "trip_48291002_20250510_001",
      "vehicleId": "48291002",
      "driverId": "22831001",
      "startMs": 1746883980000,
      "endMs": 1746888442580,
      "startLocation": {
        "latitude": 39.691355,
        "longitude": -105.02691
      },
      "endLocation": {
        "latitude": 39.778722,
        "longitude": -105.070413
      },
      "startAddress": "9520 Chad Walks",
      "endAddress": "53689 Sharon Terrace",
      "startCoords": {
        "latitude": 39.82624,
        "longitude": -105.076154
      },
      "endCoords": {
        "latitude": 39.745769,
        "longitude": -105.005372
      },
      "distanceMeters": 26612.3,
      "durationMs": 4462581,
      "drivingDurationMs": 3801974,
      "idlingDurationMs": 660606,
      "fuelConsumedMl": 3384,
      "fuelConsumedGallons": 0.894,
      "maxSpeedMph": 33.7,
      "averageSpeedMph": 13.3,
      "safetyEvents": [],
      "_no_driver_login": false,
      "_fuel_note": "QUIRK 5: fuelConsumedGallons is in US gallons. Multiply by 3.785 for litres. Samsara does not link fuel to specific Onfleet tasks."
    },
    {
      "id": "trip_48291002_20250510_002",
      "vehicleId": "48291002",
      "driverId": "22831001",
      "startMs": 1746869640000,
      "endMs": 1746874664171,
      "startLocation": {
        "latitude": 39.73905,
        "longitude": -105.027487
      },
      "endLocation": {
        "latitude": 39.74453,
        "longitude": -104.985631
      },
      "startAddress": "38637 Kayla Haven Suite 458",
      "endAddress": "00243 Nicholas Keys Suite 728",
      "startCoords": {
        "latitude": 39.697717,
        "longitude": -105.068777
      },
      "endCoords": {
        "latitude": 39.74808,
        "longitude": -105.050396
      },
      "distanceMeters": 24048.1,
      "durationMs": 5024171,
      "drivingDurationMs": 4755673,
      "idlingDurationMs": 268499,
      "fuelConsumedMl": 3059,
      "fuelConsumedGallons": 0.808,
      "maxSpeedMph": 61.8,
      "averageSpeedMph": 10.7,
      "safetyEvents": [],
      "_no_driver_login": false,
      "_fuel_note": ""
    },
    {
      "id": "trip_48291002_20250511_001",
      "vehicleId": "48291002",
      "driverId": "22831001",
      "startMs": 1746970140000,
      "endMs": 1746985658259,
      "startLocation": {
        "latitude": 39.760647,
        "longitude": -105.083566
      },
      "endLocation": {
        "latitude": 39.713368,
        "longitude": -104.973164
      },
      "startAddress": "306 Tyler Mountains Suite 475",
      "endAddress": "12014 Cunningham Common Suite 986",
      "startCoords": {
        "latitude": 39.732223,
        "longitude": -104.977916
      },
      "endCoords": {
        "latitude": 39.70909,
        "longitude": -104.904475
      },
      "distanceMeters": 75837.7,
      "durationMs": 15518259,
      "drivingDurationMs": 14015235,
      "idlingDurationMs": 1503024,
      "fuelConsumedMl": 9641,
      "fuelConsumedGallons": 2.547,
      "maxSpeedMph": 28.8,
      "averageSpeedMph": 10.9,
      "safetyEvents": [],
      "_no_driver_login": false,
      "_fuel_note": "QUIRK 5: fuelConsumedGallons is in US gallons. Multiply by 3.785 for litres. Samsara does not link fuel to specific Onfleet tasks."
    },
    {
      "id": "trip_48291002_20250511_002",
      "vehicleId": "48291002",
      "driverId": "22831001",
      "startMs": 1746988140000,
      "endMs": 1746992016258,
      "startLocation": {
        "latitude": 39.748436,
        "longitude": -104.954048
      },
      "endLocation": {
        "latitude": 39.684881,
        "longitude": -104.91044
      },
      "startAddress": "08966 Katherine Drives Suite 991",
      "endAddress": "231 Erica Trafficway",
      "startCoords": {
        "latitude": 39.723641,
        "longitude": -104.920411
      },
      "endCoords": {
        "latitude": 39.813057,
        "longitude": -104.945547
      },
      "distanceMeters": 25226.3,
      "durationMs": 3876258,
      "drivingDurationMs": 3220079,
      "idlingDurationMs": 656179,
      "fuelConsumedMl": 3206,
      "fuelConsumedGallons": 0.847,
      "maxSpeedMph": 60.1,
      "averageSpeedMph": 14.6,
      "safetyEvents": [],
      "_no_driver_login": false,
      "_fuel_note": ""
    },
    {
      "id": "trip_48291002_20250512_001",
      "vehicleId": "48291002",
      "driverId": "22831001",
      "startMs": 1747061580000,
      "endMs": 1747075940028,
      "startLocation": {
        "latitude": 39.694823,
        "longitude": -105.066914
      },
      "endLocation": {
        "latitude": 39.773394,
        "longitude": -104.962629
      },
      "startAddress": "448 Arthur Forge",
      "endAddress": "413 Amy Mountains",
      "startCoords": {
        "latitude": 39.782657,
        "longitude": -105.0303
      },
      "endCoords": {
        "latitude": 39.791961,
        "longitude": -104.998794
      },
      "distanceMeters": 75560.1,
      "durationMs": 14360028,
      "drivingDurationMs": 13218435,
      "idlingDurationMs": 1141593,
      "fuelConsumedMl": 9607,
      "fuelConsumedGallons": 2.538,
      "maxSpeedMph": 36.4,
      "averageSpeedMph": 11.8,
      "safetyEvents": [],
      "_no_driver_login": false,
      "_fuel_note": "QUIRK 5: fuelConsumedGallons is in US gallons. Multiply by 3.785 for litres. Samsara does not link fuel to specific Onfleet tasks."
    },
    {
      "id": "trip_48291002_20250512_002",
      "vehicleId": "48291002",
      "driverId": "22831001",
      "startMs": 1747052640000,
      "endMs": 1747054209538,
      "startLocation": {
        "latitude": 39.753724,
        "longitude": -104.954383
      },
      "endLocation": {
        "latitude": 39.764997,
        "longitude": -104.946569
      },
      "startAddress": "1221 James Track",
      "endAddress": "03860 Gonzalez Streets",
      "startCoords": {
        "latitude": 39.806998,
        "longitude": -104.992101
      },
      "endCoords": {
        "latitude": 39.775821,
        "longitude": -105.015414
      },
      "distanceMeters": 10507.5,
      "durationMs": 1569539,
      "drivingDurationMs": 1270062,
      "idlingDurationMs": 299477,
      "fuelConsumedMl": 1336,
      "fuelConsumedGallons": 0.353,
      "maxSpeedMph": 42.3,
      "averageSpeedMph": 15.0,
      "safetyEvents": [],
      "_no_driver_login": false,
      "_fuel_note": ""
    },
    {
      "id": "trip_48291002_20250512_003",
      "vehicleId": "48291002",
      "driverId": "22831001",
      "startMs": 1747045620000,
      "endMs": 1747057651532,
      "startLocation": {
        "latitude": 39.69819,
        "longitude": -104.979622
      },
      "endLocation": {
        "latitude": 39.769547,
        "longitude": -105.003573
      },
      "startAddress": "3166 Stephen Landing Apt. 570",
      "endAddress": "28574 Austin Mountains",
      "startCoords": {
        "latitude": 39.696943,
        "longitude": -104.953925
      },
      "endCoords": {
        "latitude": 39.74214,
        "longitude": -104.90621
      },
      "distanceMeters": 61633.1,
      "durationMs": 12031533,
      "drivingDurationMs": 10233109,
      "idlingDurationMs": 1798424,
      "fuelConsumedMl": 7836,
      "fuelConsumedGallons": 2.07,
      "maxSpeedMph": 58.7,
      "averageSpeedMph": 11.5,
      "safetyEvents": [],
      "_no_driver_login": false,
      "_fuel_note": ""
    },
    {
      "id": "trip_48291002_20250512_004",
      "vehicleId": "48291002",
      "driverId": "22831001",
      "startMs": 1747041420000,
      "endMs": 1747053274007,
      "startLocation": {
        "latitude": 39.717906,
        "longitude": -104.927776
      },
      "endLocation": {
        "latitude": 39.819758,
        "longitude": -104.989694
      },
      "startAddress": "471 Luis Crossroad",
      "endAddress": "40747 Sierra Fall",
      "startCoords": {
        "latitude": 39.792786,
        "longitude": -104.979289
      },
      "endCoords": {
        "latitude": 39.811837,
        "longitude": -104.975444
      },
      "distanceMeters": 69205.0,
      "durationMs": 11854008,
      "drivingDurationMs": 9604393,
      "idlingDurationMs": 2249615,
      "fuelConsumedMl": 8797,
      "fuelConsumedGallons": 2.324,
      "maxSpeedMph": 71.2,
      "averageSpeedMph": 13.1,
      "safetyEvents": [
        {
          "type": "speeding",
          "startMs": 1747050180000,
          "maxSpeedMph": 71.2
        }
      ],
      "_no_driver_login": false,
      "_fuel_note": ""
    },
    {
      "id": "trip_48291002_20250512_005",
      "vehicleId": "48291002",
      "driverId": "22831001",
      "startMs": 1747074900000,
      "endMs": 1747080090255,
      "startLocation": {
        "latitude": 39.752804,
        "longitude": -105.054017
      },
      "endLocation": {
        "latitude": 39.733487,
        "longitude": -105.020955
      },
      "startAddress": "8444 Martinez Dale",
      "endAddress": "14173 Fitzgerald Views",
      "startCoords": {
        "latitude": 39.813589,
        "longitude": -104.95585
      },
      "endCoords": {
        "latitude": 39.690763,
        "longitude": -104.901464
      },
      "distanceMeters": 37902.8,
      "durationMs": 5190256,
      "drivingDurationMs": 4290153,
      "idlingDurationMs": 900103,
      "fuelConsumedMl": 4819,
      "fuelConsumedGallons": 1.273,
      "maxSpeedMph": 65.5,
      "averageSpeedMph": 16.3,
      "safetyEvents": [
        {
          "type": "speeding",
          "startMs": 1747076880000,
          "maxSpeedMph": 65.5
        }
      ],
      "_no_driver_login": false,
      "_fuel_note": ""
    },
    {
      "id": "trip_48291002_20250512_006",
      "vehicleId": "48291002",
      "driverId": "22831001",
      "startMs": 1747043880000,
      "endMs": 1747054450816,
      "startLocation": {
        "latitude": 39.748444,
        "longitude": -105.041371
      },
      "endLocation": {
        "latitude": 39.746624,
        "longitude": -105.072037
      },
      "startAddress": "94634 Harry Brook",
      "endAddress": "60110 John Hollow",
      "startCoords": {
        "latitude": 39.708286,
        "longitude": -104.919898
      },
      "endCoords": {
        "latitude": 39.706996,
        "longitude": -105.042106
      },
      "distanceMeters": 56692.4,
      "durationMs": 10570817,
      "drivingDurationMs": 8766716,
      "idlingDurationMs": 1804101,
      "fuelConsumedMl": 7207,
      "fuelConsumedGallons": 1.904,
      "maxSpeedMph": 35.9,
      "averageSpeedMph": 12.0,
      "safetyEvents": [],
      "_no_driver_login": false,
      "_fuel_note": ""
    },
    {
      "id": "trip_48291002_20250513_001",
      "vehicleId": "48291002",
      "driverId": "22831001",
      "startMs": 1747125120000,
      "endMs": 1747137933967,
      "startLocation": {
        "latitude": 39.783781,
        "longitude": -105.055044
      },
      "endLocation": {
        "latitude": 39.709786,
        "longitude": -104.983669
      },
      "startAddress": "9279 Myers Shore Suite 608",
      "endAddress": "930 Morales Gardens Suite 115",
      "startCoords": {
        "latitude": 39.684745,
        "longitude": -105.057722
      },
      "endCoords": {
        "latitude": 39.763715,
        "longitude": -105.060718
      },
      "distanceMeters": 80563.7,
      "durationMs": 12813967,
      "drivingDurationMs": 10521445,
      "idlingDurationMs": 2292522,
      "fuelConsumedMl": 10243,
      "fuelConsumedGallons": 2.706,
      "maxSpeedMph": 65.7,
      "averageSpeedMph": 14.1,
      "safetyEvents": [
        {
          "type": "speeding",
          "startMs": 1747133040000,
          "maxSpeedMph": 65.7
        }
      ],
      "_no_driver_login": false,
      "_fuel_note": "QUIRK 5: fuelConsumedGallons is in US gallons. Multiply by 3.785 for litres. Samsara does not link fuel to specific Onfleet tasks."
    },
    {
      "id": "trip_48291002_20250513_002",
      "vehicleId": "48291002",
      "driverId": "22831001",
      "startMs": 1747119300000,
      "endMs": 1747126340700,
      "startLocation": {
        "latitude": 39.712582,
        "longitude": -104.948086
      },
      "endLocation": {
        "latitude": 39.809387,
        "longitude": -105.051115
      },
      "startAddress": "6898 Randall Street",
      "endAddress": "34530 Marshall Port Suite 944",
      "startCoords": {
        "latitude": 39.701683,
        "longitude": -105.022421
      },
      "endCoords": {
        "latitude": 39.719367,
        "longitude": -104.919227
      },
      "distanceMeters": 36762.2,
      "durationMs": 7040701,
      "drivingDurationMs": 5725855,
      "idlingDurationMs": 1314845,
      "fuelConsumedMl": 4675,
      "fuelConsumedGallons": 1.235,
      "maxSpeedMph": 33.1,
      "averageSpeedMph": 11.7,
      "safetyEvents": [],
      "_no_driver_login": false,
      "_fuel_note": ""
    },
    {
      "id": "trip_48291002_20250513_003",
      "vehicleId": "48291002",
      "driverId": "22831001",
      "startMs": 1747155480000,
      "endMs": 1747164799717,
      "startLocation": {
        "latitude": 39.793183,
        "longitude": -105.052979
      },
      "endLocation": {
        "latitude": 39.789396,
        "longitude": -105.07087
      },
      "startAddress": "839 Flowers Rapids Apt. 039",
      "endAddress": "195 Baxter Square",
      "startCoords": {
        "latitude": 39.701816,
        "longitude": -105.019419
      },
      "endCoords": {
        "latitude": 39.7335,
        "longitude": -105.083678
      },
      "distanceMeters": 68220.6,
      "durationMs": 9319718,
      "drivingDurationMs": 8775874,
      "idlingDurationMs": 543844,
      "fuelConsumedMl": 8672,
      "fuelConsumedGallons": 2.291,
      "maxSpeedMph": 33.1,
      "averageSpeedMph": 16.4,
      "safetyEvents": [],
      "_no_driver_login": false,
      "_fuel_note": ""
    },
    {
      "id": "trip_48291002_20250513_004",
      "vehicleId": "48291002",
      "driverId": "22831001",
      "startMs": 1747158900000,
      "endMs": 1747166000374,
      "startLocation": {
        "latitude": 39.792076,
        "longitude": -105.044049
      },
      "endLocation": {
        "latitude": 39.799071,
        "longitude": -104.968481
      },
      "startAddress": "94044 Angela Meadows",
      "endAddress": "2108 Nunez Camp",
      "startCoords": {
        "latitude": 39.7971,
        "longitude": -105.067021
      },
      "endCoords": {
        "latitude": 39.731974,
        "longitude": -105.022325
      },
      "distanceMeters": 35805.9,
      "durationMs": 7100375,
      "drivingDurationMs": 6740513,
      "idlingDurationMs": 359861,
      "fuelConsumedMl": 4554,
      "fuelConsumedGallons": 1.203,
      "maxSpeedMph": 69.9,
      "averageSpeedMph": 11.3,
      "safetyEvents": [
        {
          "type": "speeding",
          "startMs": 1747159620000,
          "maxSpeedMph": 69.9
        }
      ],
      "_no_driver_login": false,
      "_fuel_note": ""
    },
    {
      "id": "trip_48291002_20250513_005",
      "vehicleId": "48291002",
      "driverId": "22831001",
      "startMs": 1747156860000,
      "endMs": 1747167777372,
      "startLocation": {
        "latitude": 39.713816,
        "longitude": -105.053065
      },
      "endLocation": {
        "latitude": 39.806724,
        "longitude": -104.978997
      },
      "startAddress": "47789 Kelley Courts Apt. 075",
      "endAddress": "6991 Jennifer Mills",
      "startCoords": {
        "latitude": 39.733208,
        "longitude": -104.929558
      },
      "endCoords": {
        "latitude": 39.711971,
        "longitude": -105.073234
      },
      "distanceMeters": 76313.7,
      "durationMs": 10917373,
      "drivingDurationMs": 8762600,
      "idlingDurationMs": 2154773,
      "fuelConsumedMl": 9702,
      "fuelConsumedGallons": 2.563,
      "maxSpeedMph": 52.4,
      "averageSpeedMph": 15.6,
      "safetyEvents": [],
      "_no_driver_login": false,
      "_fuel_note": ""
    },
    {
      "id": "trip_48291002_20250513_006",
      "vehicleId": "48291002",
      "driverId": "22831001",
      "startMs": 1747144620000,
      "endMs": 1747146391369,
      "startLocation": {
        "latitude": 39.825144,
        "longitude": -104.987851
      },
      "endLocation": {
        "latitude": 39.710511,
        "longitude": -105.050521
      },
      "startAddress": "953 Eric Glen",
      "endAddress": "2435 Rebecca Mountain",
      "startCoords": {
        "latitude": 39.811765,
        "longitude": -104.917881
      },
      "endCoords": {
        "latitude": 39.824908,
        "longitude": -105.004244
      },
      "distanceMeters": 8950.9,
      "durationMs": 1771369,
      "drivingDurationMs": 1476822,
      "idlingDurationMs": 294547,
      "fuelConsumedMl": 1139,
      "fuelConsumedGallons": 0.301,
      "maxSpeedMph": 37.2,
      "averageSpeedMph": 11.3,
      "safetyEvents": [],
      "_no_driver_login": false,
      "_fuel_note": ""
    },
    {
      "id": "trip_48291002_20250514_001",
      "vehicleId": "48291002",
      "driverId": "22831001",
      "startMs": 1747228080000,
      "endMs": 1747238429265,
      "startLocation": {
        "latitude": 39.752732,
        "longitude": -105.018071
      },
      "endLocation": {
        "latitude": 39.735685,
        "longitude": -105.001251
      },
      "startAddress": "65622 Mikayla Grove Suite 869",
      "endAddress": "0808 Katie Road",
      "startCoords": {
        "latitude": 39.765476,
        "longitude": -104.965451
      },
      "endCoords": {
        "latitude": 39.707553,
        "longitude": -104.97248
      },
      "distanceMeters": 76538.7,
      "durationMs": 10349266,
      "drivingDurationMs": 9187080,
      "idlingDurationMs": 1162186,
      "fuelConsumedMl": 9732,
      "fuelConsumedGallons": 2.571,
      "maxSpeedMph": 40.5,
      "averageSpeedMph": 16.5,
      "safetyEvents": [],
      "_no_driver_login": false,
      "_fuel_note": "QUIRK 5: fuelConsumedGallons is in US gallons. Multiply by 3.785 for litres. Samsara does not link fuel to specific Onfleet tasks."
    },
    {
      "id": "trip_48291002_20250514_002",
      "vehicleId": "48291002",
      "driverId": "22831001",
      "startMs": 1747211700000,
      "endMs": 1747223412938,
      "startLocation": {
        "latitude": 39.772432,
        "longitude": -104.97694
      },
      "endLocation": {
        "latitude": 39.692467,
        "longitude": -104.9535
      },
      "startAddress": "4400 Brown Ridge",
      "endAddress": "2869 Devin Shore",
      "startCoords": {
        "latitude": 39.775526,
        "longitude": -104.940132
      },
      "endCoords": {
        "latitude": 39.704024,
        "longitude": -104.957352
      },
      "distanceMeters": 61785.0,
      "durationMs": 11712939,
      "drivingDurationMs": 10766252,
      "idlingDurationMs": 946687,
      "fuelConsumedMl": 7855,
      "fuelConsumedGallons": 2.075,
      "maxSpeedMph": 31.2,
      "averageSpeedMph": 11.8,
      "safetyEvents": [],
      "_no_driver_login": false,
      "_fuel_note": ""
    },
    {
      "id": "trip_48291002_20250514_003",
      "vehicleId": "48291002",
      "driverId": "22831001",
      "startMs": 1747215960000,
      "endMs": 1747226456751,
      "startLocation": {
        "latitude": 39.68664,
        "longitude": -105.077122
      },
      "endLocation": {
        "latitude": 39.80931,
        "longitude": -105.08168
      },
      "startAddress": "377 Vaughan Station",
      "endAddress": "55679 Gonzalez Mount",
      "startCoords": {
        "latitude": 39.792519,
        "longitude": -104.973554
      },
      "endCoords": {
        "latitude": 39.755267,
        "longitude": -105.009949
      },
      "distanceMeters": 57745.5,
      "durationMs": 10496752,
      "drivingDurationMs": 9278497,
      "idlingDurationMs": 1218255,
      "fuelConsumedMl": 7344,
      "fuelConsumedGallons": 1.94,
      "maxSpeedMph": 50.9,
      "averageSpeedMph": 12.3,
      "safetyEvents": [],
      "_no_driver_login": false,
      "_fuel_note": ""
    },
    {
      "id": "trip_48291002_20250515_001",
      "vehicleId": "48291002",
      "driverId": null,
      "startMs": 1747321920000,
      "endMs": 1747332628870,
      "startLocation": {
        "latitude": 39.764714,
        "longitude": -105.030983
      },
      "endLocation": {
        "latitude": 39.810049,
        "longitude": -104.948497
      },
      "startAddress": "14037 Jonathan Union Apt. 522",
      "endAddress": "235 Garcia Cliffs Suite 510",
      "startCoords": {
        "latitude": 39.807331,
        "longitude": -105.037443
      },
      "endCoords": {
        "latitude": 39.702776,
        "longitude": -104.911528
      },
      "distanceMeters": 80013.8,
      "durationMs": 10708871,
      "drivingDurationMs": 9664315,
      "idlingDurationMs": 1044555,
      "fuelConsumedMl": 10171,
      "fuelConsumedGallons": 2.687,
      "maxSpeedMph": 55.1,
      "averageSpeedMph": 16.7,
      "safetyEvents": [],
      "_no_driver_login": true,
      "_fuel_note": "QUIRK 5: fuelConsumedGallons is in US gallons. Multiply by 3.785 for litres. Samsara does not link fuel to specific Onfleet tasks."
    },
    {
      "id": "trip_48291002_20250515_002",
      "vehicleId": "48291002",
      "driverId": "22831001",
      "startMs": 1747302420000,
      "endMs": 1747305254299,
      "startLocation": {
        "latitude": 39.68391,
        "longitude": -104.972307
      },
      "endLocation": {
        "latitude": 39.703612,
        "longitude": -105.063381
      },
      "startAddress": "358 Hudson Mount",
      "endAddress": "28533 Diaz Mall Apt. 749",
      "startCoords": {
        "latitude": 39.818231,
        "longitude": -104.923104
      },
      "endCoords": {
        "latitude": 39.730552,
        "longitude": -105.008105
      },
      "distanceMeters": 16420.0,
      "durationMs": 2834299,
      "drivingDurationMs": 2541539,
      "idlingDurationMs": 292760,
      "fuelConsumedMl": 2090,
      "fuelConsumedGallons": 0.552,
      "maxSpeedMph": 65.5,
      "averageSpeedMph": 13.0,
      "safetyEvents": [
        {
          "type": "speeding",
          "startMs": 1747303980000,
          "maxSpeedMph": 65.5
        }
      ],
      "_no_driver_login": false,
      "_fuel_note": ""
    },
    {
      "id": "trip_48291002_20250515_003",
      "vehicleId": "48291002",
      "driverId": "22831001",
      "startMs": 1747291260000,
      "endMs": 1747300548627,
      "startLocation": {
        "latitude": 39.686791,
        "longitude": -104.99753
      },
      "endLocation": {
        "latitude": 39.810515,
        "longitude": -105.032629
      },
      "startAddress": "32374 Brian Ridges",
      "endAddress": "0873 Burke Spurs",
      "startCoords": {
        "latitude": 39.708674,
        "longitude": -105.019043
      },
      "endCoords": {
        "latitude": 39.784209,
        "longitude": -104.912556
      },
      "distanceMeters": 74991.1,
      "durationMs": 9288628,
      "drivingDurationMs": 9091583,
      "idlingDurationMs": 197045,
      "fuelConsumedMl": 9535,
      "fuelConsumedGallons": 2.519,
      "maxSpeedMph": 48.7,
      "averageSpeedMph": 18.1,
      "safetyEvents": [],
      "_no_driver_login": false,
      "_fuel_note": ""
    },
    {
      "id": "trip_48291002_20250516_001",
      "vehicleId": "48291002",
      "driverId": "22831001",
      "startMs": 1747387500000,
      "endMs": 1747394414975,
      "startLocation": {
        "latitude": 39.817263,
        "longitude": -104.969668
      },
      "endLocation": {
        "latitude": 39.726648,
        "longitude": -104.959641
      },
      "startAddress": "975 Taylor Drive Apt. 412",
      "endAddress": "352 Katrina Plain",
      "startCoords": {
        "latitude": 39.753742,
        "longitude": -105.045128
      },
      "endCoords": {
        "latitude": 39.765335,
        "longitude": -105.05629
      },
      "distanceMeters": 45007.2,
      "durationMs": 6914975,
      "drivingDurationMs": 5591203,
      "idlingDurationMs": 1323772,
      "fuelConsumedMl": 5724,
      "fuelConsumedGallons": 1.512,
      "maxSpeedMph": 35.2,
      "averageSpeedMph": 14.6,
      "safetyEvents": [],
      "_no_driver_login": false,
      "_fuel_note": "QUIRK 5: fuelConsumedGallons is in US gallons. Multiply by 3.785 for litres. Samsara does not link fuel to specific Onfleet tasks."
    },
    {
      "id": "trip_48291002_20250516_002",
      "vehicleId": "48291002",
      "driverId": "22831001",
      "startMs": 1747406220000,
      "endMs": 1747418711164,
      "startLocation": {
        "latitude": 39.815856,
        "longitude": -104.940122
      },
      "endLocation": {
        "latitude": 39.801012,
        "longitude": -104.979738
      },
      "startAddress": "98651 Kathleen Place Suite 196",
      "endAddress": "223 Heather Haven",
      "startCoords": {
        "latitude": 39.685491,
        "longitude": -105.021976
      },
      "endCoords": {
        "latitude": 39.813207,
        "longitude": -105.055842
      },
      "distanceMeters": 84005.8,
      "durationMs": 12491164,
      "drivingDurationMs": 10420489,
      "idlingDurationMs": 2070675,
      "fuelConsumedMl": 10682,
      "fuelConsumedGallons": 2.822,
      "maxSpeedMph": 54.7,
      "averageSpeedMph": 15.0,
      "safetyEvents": [],
      "_no_driver_login": false,
      "_fuel_note": ""
    },
    {
      "id": "trip_48291002_20250516_003",
      "vehicleId": "48291002",
      "driverId": "22831001",
      "startMs": 1747399620000,
      "endMs": 1747407420730,
      "startLocation": {
        "latitude": 39.748242,
        "longitude": -104.919023
      },
      "endLocation": {
        "latitude": 39.692716,
        "longitude": -105.062237
      },
      "startAddress": "539 Oconnell Via",
      "endAddress": "260 Chaney Ridge",
      "startCoords": {
        "latitude": 39.725268,
        "longitude": -105.016148
      },
      "endCoords": {
        "latitude": 39.802733,
        "longitude": -104.945504
      },
      "distanceMeters": 51076.7,
      "durationMs": 7800730,
      "drivingDurationMs": 7477350,
      "idlingDurationMs": 323380,
      "fuelConsumedMl": 6496,
      "fuelConsumedGallons": 1.716,
      "maxSpeedMph": 71.2,
      "averageSpeedMph": 14.6,
      "safetyEvents": [
        {
          "type": "speeding",
          "startMs": 1747406760000,
          "maxSpeedMph": 71.2
        }
      ],
      "_no_driver_login": false,
      "_fuel_note": ""
    },
    {
      "id": "trip_48291002_20250517_001",
      "vehicleId": "48291002",
      "driverId": "22831001",
      "startMs": 1747498740000,
      "endMs": 1747511721994,
      "startLocation": {
        "latitude": 39.757142,
        "longitude": -104.941875
      },
      "endLocation": {
        "latitude": 39.820675,
        "longitude": -104.968432
      },
      "startAddress": "466 Stewart Fork Apt. 667",
      "endAddress": "0566 Valdez Centers",
      "startCoords": {
        "latitude": 39.818757,
        "longitude": -104.990115
      },
      "endCoords": {
        "latitude": 39.717408,
        "longitude": -105.046517
      },
      "distanceMeters": 78229.7,
      "durationMs": 12981994,
      "drivingDurationMs": 12431648,
      "idlingDurationMs": 550346,
      "fuelConsumedMl": 9948,
      "fuelConsumedGallons": 2.628,
      "maxSpeedMph": 33.9,
      "averageSpeedMph": 13.5,
      "safetyEvents": [],
      "_no_driver_login": false,
      "_fuel_note": "QUIRK 5: fuelConsumedGallons is in US gallons. Multiply by 3.785 for litres. Samsara does not link fuel to specific Onfleet tasks."
    },
    {
      "id": "trip_48291002_20250517_002",
      "vehicleId": "48291002",
      "driverId": "22831001",
      "startMs": 1747492260000,
      "endMs": 1747505857046,
      "startLocation": {
        "latitude": 39.722724,
        "longitude": -105.05771
      },
      "endLocation": {
        "latitude": 39.801541,
        "longitude": -105.08509
      },
      "startAddress": "9112 Jessica Parkway Suite 616",
      "endAddress": "9184 Anthony Vista Suite 844",
      "startCoords": {
        "latitude": 39.809118,
        "longitude": -104.903015
      },
      "endCoords": {
        "latitude": 39.701768,
        "longitude": -104.939203
      },
      "distanceMeters": 64212.1,
      "durationMs": 13597047,
      "drivingDurationMs": 11007577,
      "idlingDurationMs": 2589470,
      "fuelConsumedMl": 8165,
      "fuelConsumedGallons": 2.157,
      "maxSpeedMph": 50.6,
      "averageSpeedMph": 10.6,
      "safetyEvents": [],
      "_no_driver_login": false,
      "_fuel_note": ""
    },
    {
      "id": "trip_48291002_20250518_001",
      "vehicleId": "48291002",
      "driverId": "22831001",
      "startMs": 1747580280000,
      "endMs": 1747582572616,
      "startLocation": {
        "latitude": 39.827658,
        "longitude": -104.961629
      },
      "endLocation": {
        "latitude": 39.759572,
        "longitude": -105.072406
      },
      "startAddress": "8270 Strickland Flat",
      "endAddress": "23737 Penny Parkway Apt. 110",
      "startCoords": {
        "latitude": 39.787488,
        "longitude": -104.911893
      },
      "endCoords": {
        "latitude": 39.732527,
        "longitude": -104.957507
      },
      "distanceMeters": 13105.1,
      "durationMs": 2292617,
      "drivingDurationMs": 1935615,
      "idlingDurationMs": 357002,
      "fuelConsumedMl": 1666,
      "fuelConsumedGallons": 0.44,
      "maxSpeedMph": 43.1,
      "averageSpeedMph": 12.8,
      "safetyEvents": [],
      "_no_driver_login": false,
      "_fuel_note": "QUIRK 5: fuelConsumedGallons is in US gallons. Multiply by 3.785 for litres. Samsara does not link fuel to specific Onfleet tasks."
    },
    {
      "id": "trip_48291002_20250519_001",
      "vehicleId": "48291002",
      "driverId": "22831001",
      "startMs": 1747645560000,
      "endMs": 1747652774524,
      "startLocation": {
        "latitude": 39.77566,
        "longitude": -105.054363
      },
      "endLocation": {
        "latitude": 39.717271,
        "longitude": -105.004421
      },
      "startAddress": "28130 Williams Knoll",
      "endAddress": "676 Brad Islands Suite 838",
      "startCoords": {
        "latitude": 39.755909,
        "longitude": -104.908864
      },
      "endCoords": {
        "latitude": 39.762506,
        "longitude": -105.045058
      },
      "distanceMeters": 48182.1,
      "durationMs": 7214524,
      "drivingDurationMs": 5822803,
      "idlingDurationMs": 1391721,
      "fuelConsumedMl": 6125,
      "fuelConsumedGallons": 1.618,
      "maxSpeedMph": 45.3,
      "averageSpeedMph": 14.9,
      "safetyEvents": [],
      "_no_driver_login": false,
      "_fuel_note": "QUIRK 5: fuelConsumedGallons is in US gallons. Multiply by 3.785 for litres. Samsara does not link fuel to specific Onfleet tasks."
    },
    {
      "id": "trip_48291002_20250519_002",
      "vehicleId": "48291002",
      "driverId": "22831001",
      "startMs": 1747676280000,
      "endMs": 1747679879161,
      "startLocation": {
        "latitude": 39.714871,
        "longitude": -104.968393
      },
      "endLocation": {
        "latitude": 39.738027,
        "longitude": -104.986748
      },
      "startAddress": "8699 Amber Lake",
      "endAddress": "89258 Chambers Ville",
      "startCoords": {
        "latitude": 39.716487,
        "longitude": -105.01954
      },
      "endCoords": {
        "latitude": 39.756263,
        "longitude": -105.066079
      },
      "distanceMeters": 21300.4,
      "durationMs": 3599161,
      "drivingDurationMs": 3047044,
      "idlingDurationMs": 552118,
      "fuelConsumedMl": 2707,
      "fuelConsumedGallons": 0.715,
      "maxSpeedMph": 66.2,
      "averageSpeedMph": 13.2,
      "safetyEvents": [
        {
          "type": "speeding",
          "startMs": 1747678080000,
          "maxSpeedMph": 66.2
        }
      ],
      "_no_driver_login": false,
      "_fuel_note": ""
    },
    {
      "id": "trip_48291002_20250519_003",
      "vehicleId": "48291002",
      "driverId": "22831001",
      "startMs": 1747648080000,
      "endMs": 1747656349893,
      "startLocation": {
        "latitude": 39.741651,
        "longitude": -104.948591
      },
      "endLocation": {
        "latitude": 39.786613,
        "longitude": -104.946353
      },
      "startAddress": "29456 James Terrace Apt. 384",
      "endAddress": "75509 Martin Mountain",
      "startCoords": {
        "latitude": 39.805978,
        "longitude": -105.004923
      },
      "endCoords": {
        "latitude": 39.733537,
        "longitude": -105.086041
      },
      "distanceMeters": 54967.7,
      "durationMs": 8269893,
      "drivingDurationMs": 7274595,
      "idlingDurationMs": 995298,
      "fuelConsumedMl": 6988,
      "fuelConsumedGallons": 1.846,
      "maxSpeedMph": 61.8,
      "averageSpeedMph": 14.9,
      "safetyEvents": [],
      "_no_driver_login": false,
      "_fuel_note": ""
    },
    {
      "id": "trip_48291002_20250519_004",
      "vehicleId": "48291002",
      "driverId": "22831001",
      "startMs": 1747657080000,
      "endMs": 1747665107638,
      "startLocation": {
        "latitude": 39.702116,
        "longitude": -104.945131
      },
      "endLocation": {
        "latitude": 39.765979,
        "longitude": -104.979187
      },
      "startAddress": "407 Long Vista Suite 596",
      "endAddress": "074 Ian Ferry Suite 740",
      "startCoords": {
        "latitude": 39.793577,
        "longitude": -104.934176
      },
      "endCoords": {
        "latitude": 39.723235,
        "longitude": -105.007744
      },
      "distanceMeters": 35945.5,
      "durationMs": 8027638,
      "drivingDurationMs": 6936322,
      "idlingDurationMs": 1091317,
      "fuelConsumedMl": 4569,
      "fuelConsumedGallons": 1.207,
      "maxSpeedMph": 32.2,
      "averageSpeedMph": 10.0,
      "safetyEvents": [],
      "_no_driver_login": false,
      "_fuel_note": ""
    },
    {
      "id": "trip_48291002_20250519_005",
      "vehicleId": "48291002",
      "driverId": "22831001",
      "startMs": 1747680360000,
      "endMs": 1747687949199,
      "startLocation": {
        "latitude": 39.793292,
        "longitude": -105.000746
      },
      "endLocation": {
        "latitude": 39.770757,
        "longitude": -105.037737
      },
      "startAddress": "9667 Joshua Mission",
      "endAddress": "597 Ryan Summit",
      "startCoords": {
        "latitude": 39.719775,
        "longitude": -105.086981
      },
      "endCoords": {
        "latitude": 39.75959,
        "longitude": -105.049291
      },
      "distanceMeters": 60916.1,
      "durationMs": 7589200,
      "drivingDurationMs": 7373529,
      "idlingDurationMs": 215671,
      "fuelConsumedMl": 7745,
      "fuelConsumedGallons": 2.046,
      "maxSpeedMph": 47.3,
      "averageSpeedMph": 18.0,
      "safetyEvents": [],
      "_no_driver_login": false,
      "_fuel_note": ""
    },
    {
      "id": "trip_48291002_20250519_006",
      "vehicleId": "48291002",
      "driverId": "22831001",
      "startMs": 1747661400000,
      "endMs": 1747670961181,
      "startLocation": {
        "latitude": 39.694161,
        "longitude": -104.977611
      },
      "endLocation": {
        "latitude": 39.822967,
        "longitude": -105.002666
      },
      "startAddress": "992 Desiree Motorway Suite 556",
      "endAddress": "99557 Gary Mill",
      "startCoords": {
        "latitude": 39.791414,
        "longitude": -105.073356
      },
      "endCoords": {
        "latitude": 39.717845,
        "longitude": -105.039504
      },
      "distanceMeters": 63539.8,
      "durationMs": 9561181,
      "drivingDurationMs": 8693459,
      "idlingDurationMs": 867722,
      "fuelConsumedMl": 8078,
      "fuelConsumedGallons": 2.134,
      "maxSpeedMph": 50.1,
      "averageSpeedMph": 14.9,
      "safetyEvents": [],
      "_no_driver_login": false,
      "_fuel_note": ""
    },
    {
      "id": "trip_48291002_20250520_001",
      "vehicleId": "48291002",
      "driverId": "22831001",
      "startMs": 1747757520000,
      "endMs": 1747765936900,
      "startLocation": {
        "latitude": 39.738093,
        "longitude": -104.969831
      },
      "endLocation": {
        "latitude": 39.7831,
        "longitude": -104.982327
      },
      "startAddress": "93895 Holmes Avenue Suite 203",
      "endAddress": "772 Michael Mill Apt. 545",
      "startCoords": {
        "latitude": 39.684638,
        "longitude": -105.031966
      },
      "endCoords": {
        "latitude": 39.786473,
        "longitude": -104.98896
      },
      "distanceMeters": 57481.9,
      "durationMs": 8416901,
      "drivingDurationMs": 7948144,
      "idlingDurationMs": 468757,
      "fuelConsumedMl": 7310,
      "fuelConsumedGallons": 1.931,
      "maxSpeedMph": 62.6,
      "averageSpeedMph": 15.3,
      "safetyEvents": [],
      "_no_driver_login": false,
      "_fuel_note": "QUIRK 5: fuelConsumedGallons is in US gallons. Multiply by 3.785 for litres. Samsara does not link fuel to specific Onfleet tasks."
    },
    {
      "id": "trip_48291002_20250520_002",
      "vehicleId": "48291002",
      "driverId": "22831001",
      "startMs": 1747750260000,
      "endMs": 1747764801477,
      "startLocation": {
        "latitude": 39.704143,
        "longitude": -104.955816
      },
      "endLocation": {
        "latitude": 39.709276,
        "longitude": -105.011666
      },
      "startAddress": "51637 Michael Orchard",
      "endAddress": "52682 Henry Bridge Suite 321",
      "startCoords": {
        "latitude": 39.738715,
        "longitude": -104.945849
      },
      "endCoords": {
        "latitude": 39.73789,
        "longitude": -105.084833
      },
      "distanceMeters": 82157.5,
      "durationMs": 14541477,
      "drivingDurationMs": 11671590,
      "idlingDurationMs": 2869887,
      "fuelConsumedMl": 10444,
      "fuelConsumedGallons": 2.759,
      "maxSpeedMph": 49.5,
      "averageSpeedMph": 12.6,
      "safetyEvents": [],
      "_no_driver_login": false,
      "_fuel_note": ""
    },
    {
      "id": "trip_48291002_20250520_003",
      "vehicleId": "48291002",
      "driverId": "22831001",
      "startMs": 1747730820000,
      "endMs": 1747732754887,
      "startLocation": {
        "latitude": 39.750436,
        "longitude": -105.042133
      },
      "endLocation": {
        "latitude": 39.763545,
        "longitude": -104.992789
      },
      "startAddress": "8971 Julie Land Apt. 256",
      "endAddress": "693 Kimberly View",
      "startCoords": {
        "latitude": 39.748166,
        "longitude": -105.015201
      },
      "endCoords": {
        "latitude": 39.697115,
        "longitude": -105.037341
      },
      "distanceMeters": 10048.4,
      "durationMs": 1934887,
      "drivingDurationMs": 1622427,
      "idlingDurationMs": 312460,
      "fuelConsumedMl": 1279,
      "fuelConsumedGallons": 0.338,
      "maxSpeedMph": 35.8,
      "averageSpeedMph": 11.6,
      "safetyEvents": [],
      "_no_driver_login": false,
      "_fuel_note": ""
    },
    {
      "id": "trip_48291002_20250520_004",
      "vehicleId": "48291002",
      "driverId": "22831001",
      "startMs": 1747746300000,
      "endMs": 1747754684611,
      "startLocation": {
        "latitude": 39.733744,
        "longitude": -105.023706
      },
      "endLocation": {
        "latitude": 39.717036,
        "longitude": -104.931965
      },
      "startAddress": "64902 Flowers Brooks Apt. 556",
      "endAddress": "83194 Lopez Station Apt. 115",
      "startCoords": {
        "latitude": 39.740303,
        "longitude": -105.007483
      },
      "endCoords": {
        "latitude": 39.723606,
        "longitude": -104.936874
      },
      "distanceMeters": 53929.9,
      "durationMs": 8384611,
      "drivingDurationMs": 7633774,
      "idlingDurationMs": 750837,
      "fuelConsumedMl": 6855,
      "fuelConsumedGallons": 1.811,
      "maxSpeedMph": 37.7,
      "averageSpeedMph": 14.4,
      "safetyEvents": [],
      "_no_driver_login": false,
      "_fuel_note": ""
    },
    {
      "id": "trip_48291002_20250520_005",
      "vehicleId": "48291002",
      "driverId": "22831001",
      "startMs": 1747746300000,
      "endMs": 1747747308257,
      "startLocation": {
        "latitude": 39.692092,
        "longitude": -105.018133
      },
      "endLocation": {
        "latitude": 39.774634,
        "longitude": -105.070348
      },
      "startAddress": "02233 Cody Parkway Suite 798",
      "endAddress": "98081 Eric Tunnel",
      "startCoords": {
        "latitude": 39.690218,
        "longitude": -104.927743
      },
      "endCoords": {
        "latitude": 39.721147,
        "longitude": -104.910791
      },
      "distanceMeters": 5618.6,
      "durationMs": 1008257,
      "drivingDurationMs": 811984,
      "idlingDurationMs": 196273,
      "fuelConsumedMl": 715,
      "fuelConsumedGallons": 0.189,
      "maxSpeedMph": 28.9,
      "averageSpeedMph": 12.5,
      "safetyEvents": [],
      "_no_driver_login": false,
      "_fuel_note": ""
    },
    {
      "id": "trip_48291002_20250520_006",
      "vehicleId": "48291002",
      "driverId": "22831001",
      "startMs": 1747728060000,
      "endMs": 1747734946631,
      "startLocation": {
        "latitude": 39.732408,
        "longitude": -104.959128
      },
      "endLocation": {
        "latitude": 39.780851,
        "longitude": -104.966503
      },
      "startAddress": "46701 Savannah Views",
      "endAddress": "77275 Tracy Forge",
      "startCoords": {
        "latitude": 39.698745,
        "longitude": -104.942837
      },
      "endCoords": {
        "latitude": 39.724972,
        "longitude": -104.918019
      },
      "distanceMeters": 45670.4,
      "durationMs": 6886631,
      "drivingDurationMs": 6691594,
      "idlingDurationMs": 195037,
      "fuelConsumedMl": 5807,
      "fuelConsumedGallons": 1.534,
      "maxSpeedMph": 61.1,
      "averageSpeedMph": 14.8,
      "safetyEvents": [],
      "_no_driver_login": false,
      "_fuel_note": ""
    },
    {
      "id": "trip_48291002_20250521_001",
      "vehicleId": "48291002",
      "driverId": "22831001",
      "startMs": 1747835220000,
      "endMs": 1747843557961,
      "startLocation": {
        "latitude": 39.777677,
        "longitude": -105.002286
      },
      "endLocation": {
        "latitude": 39.714781,
        "longitude": -104.997059
      },
      "startAddress": "53312 Erica Ports",
      "endAddress": "70829 Anderson Wells Apt. 016",
      "startCoords": {
        "latitude": 39.77867,
        "longitude": -105.087193
      },
      "endCoords": {
        "latitude": 39.740485,
        "longitude": -104.904128
      },
      "distanceMeters": 53763.2,
      "durationMs": 8337961,
      "drivingDurationMs": 6687323,
      "idlingDurationMs": 1650638,
      "fuelConsumedMl": 6836,
      "fuelConsumedGallons": 1.806,
      "maxSpeedMph": 49.4,
      "averageSpeedMph": 14.4,
      "safetyEvents": [],
      "_no_driver_login": false,
      "_fuel_note": "QUIRK 5: fuelConsumedGallons is in US gallons. Multiply by 3.785 for litres. Samsara does not link fuel to specific Onfleet tasks."
    },
    {
      "id": "trip_48291002_20250521_002",
      "vehicleId": "48291002",
      "driverId": "22831001",
      "startMs": 1747839720000,
      "endMs": 1747844414856,
      "startLocation": {
        "latitude": 39.754856,
        "longitude": -105.067166
      },
      "endLocation": {
        "latitude": 39.752623,
        "longitude": -105.045777
      },
      "startAddress": "9823 Angela Rapid Apt. 042",
      "endAddress": "515 Anderson Keys Apt. 240",
      "startCoords": {
        "latitude": 39.70251,
        "longitude": -104.981461
      },
      "endCoords": {
        "latitude": 39.760324,
        "longitude": -104.916085
      },
      "distanceMeters": 26516.7,
      "durationMs": 4694857,
      "drivingDurationMs": 4240500,
      "idlingDurationMs": 454357,
      "fuelConsumedMl": 3373,
      "fuelConsumedGallons": 0.891,
      "maxSpeedMph": 65.7,
      "averageSpeedMph": 12.6,
      "safetyEvents": [
        {
          "type": "speeding",
          "startMs": 1747843320000,
          "maxSpeedMph": 65.7
        }
      ],
      "_no_driver_login": false,
      "_fuel_note": ""
    },
    {
      "id": "trip_48291002_20250522_001",
      "vehicleId": "48291002",
      "driverId": null,
      "startMs": 1747922820000,
      "endMs": 1747925367129,
      "startLocation": {
        "latitude": 39.687881,
        "longitude": -104.986571
      },
      "endLocation": {
        "latitude": 39.75311,
        "longitude": -104.920117
      },
      "startAddress": "40288 Russell Street",
      "endAddress": "921 Kelly Tunnel",
      "startCoords": {
        "latitude": 39.78637,
        "longitude": -104.922949
      },
      "endCoords": {
        "latitude": 39.764932,
        "longitude": -104.955431
      },
      "distanceMeters": 15539.8,
      "durationMs": 2547130,
      "drivingDurationMs": 2103484,
      "idlingDurationMs": 443646,
      "fuelConsumedMl": 1976,
      "fuelConsumedGallons": 0.522,
      "maxSpeedMph": 42.9,
      "averageSpeedMph": 13.6,
      "safetyEvents": [],
      "_no_driver_login": true,
      "_fuel_note": "QUIRK 5: fuelConsumedGallons is in US gallons. Multiply by 3.785 for litres. Samsara does not link fuel to specific Onfleet tasks."
    },
    {
      "id": "trip_48291002_20250522_002",
      "vehicleId": "48291002",
      "driverId": "22831001",
      "startMs": 1747919520000,
      "endMs": 1747933394450,
      "startLocation": {
        "latitude": 39.774478,
        "longitude": -104.910537
      },
      "endLocation": {
        "latitude": 39.707169,
        "longitude": -105.08191
      },
      "startAddress": "5698 Monica Glen Suite 885",
      "endAddress": "873 Jason Points Apt. 381",
      "startCoords": {
        "latitude": 39.817779,
        "longitude": -105.000724
      },
      "endCoords": {
        "latitude": 39.78791,
        "longitude": -105.023536
      },
      "distanceMeters": 74731.4,
      "durationMs": 13874450,
      "drivingDurationMs": 12999174,
      "idlingDurationMs": 875277,
      "fuelConsumedMl": 9501,
      "fuelConsumedGallons": 2.51,
      "maxSpeedMph": 55.5,
      "averageSpeedMph": 12.0,
      "safetyEvents": [],
      "_no_driver_login": false,
      "_fuel_note": ""
    },
    {
      "id": "trip_48291002_20250522_003",
      "vehicleId": "48291002",
      "driverId": "22831001",
      "startMs": 1747893900000,
      "endMs": 1747896487696,
      "startLocation": {
        "latitude": 39.815092,
        "longitude": -105.009707
      },
      "endLocation": {
        "latitude": 39.803636,
        "longitude": -104.924067
      },
      "startAddress": "216 Bishop Spur Suite 534",
      "endAddress": "3206 Taylor Village",
      "startCoords": {
        "latitude": 39.785957,
        "longitude": -104.977775
      },
      "endCoords": {
        "latitude": 39.701201,
        "longitude": -105.001262
      },
      "distanceMeters": 11572.6,
      "durationMs": 2587696,
      "drivingDurationMs": 2222625,
      "idlingDurationMs": 365071,
      "fuelConsumedMl": 1473,
      "fuelConsumedGallons": 0.389,
      "maxSpeedMph": 51.8,
      "averageSpeedMph": 10.0,
      "safetyEvents": [],
      "_no_driver_login": false,
      "_fuel_note": ""
    },
    {
      "id": "trip_48291002_20250523_001",
      "vehicleId": "48291002",
      "driverId": "22831001",
      "startMs": 1747983120000,
      "endMs": 1747992076145,
      "startLocation": {
        "latitude": 39.82327,
        "longitude": -104.958517
      },
      "endLocation": {
        "latitude": 39.729746,
        "longitude": -105.077813
      },
      "startAddress": "957 Beltran Heights Apt. 836",
      "endAddress": "22266 Rodriguez Ranch Suite 688",
      "startCoords": {
        "latitude": 39.751622,
        "longitude": -105.017384
      },
      "endCoords": {
        "latitude": 39.811416,
        "longitude": -105.048601
      },
      "distanceMeters": 57007.1,
      "durationMs": 8956145,
      "drivingDurationMs": 8187725,
      "idlingDurationMs": 768420,
      "fuelConsumedMl": 7249,
      "fuelConsumedGallons": 1.915,
      "maxSpeedMph": 43.6,
      "averageSpeedMph": 14.2,
      "safetyEvents": [],
      "_no_driver_login": false,
      "_fuel_note": "QUIRK 5: fuelConsumedGallons is in US gallons. Multiply by 3.785 for litres. Samsara does not link fuel to specific Onfleet tasks."
    },
    {
      "id": "trip_48291002_20250523_002",
      "vehicleId": "48291002",
      "driverId": "22831001",
      "startMs": 1747987560000,
      "endMs": 1747997321622,
      "startLocation": {
        "latitude": 39.760222,
        "longitude": -105.065916
      },
      "endLocation": {
        "latitude": 39.824662,
        "longitude": -105.021722
      },
      "startAddress": "307 Pierce Stream Apt. 017",
      "endAddress": "6484 Diane Loaf",
      "startCoords": {
        "latitude": 39.794374,
        "longitude": -105.087593
      },
      "endCoords": {
        "latitude": 39.758744,
        "longitude": -104.924566
      },
      "distanceMeters": 51408.1,
      "durationMs": 9761622,
      "drivingDurationMs": 8101401,
      "idlingDurationMs": 1660221,
      "fuelConsumedMl": 6537,
      "fuelConsumedGallons": 1.727,
      "maxSpeedMph": 60.0,
      "averageSpeedMph": 11.8,
      "safetyEvents": [],
      "_no_driver_login": false,
      "_fuel_note": ""
    },
    {
      "id": "trip_48291002_20250524_001",
      "vehicleId": "48291002",
      "driverId": "22831001",
      "startMs": 1748067720000,
      "endMs": 1748069715426,
      "startLocation": {
        "latitude": 39.742628,
        "longitude": -105.024676
      },
      "endLocation": {
        "latitude": 39.762698,
        "longitude": -104.9743
      },
      "startAddress": "00815 Sarah Canyon",
      "endAddress": "5156 Mclaughlin River",
      "startCoords": {
        "latitude": 39.745574,
        "longitude": -105.043169
      },
      "endCoords": {
        "latitude": 39.725842,
        "longitude": -104.972548
      },
      "distanceMeters": 13515.5,
      "durationMs": 1995427,
      "drivingDurationMs": 1603606,
      "idlingDurationMs": 391821,
      "fuelConsumedMl": 1719,
      "fuelConsumedGallons": 0.454,
      "maxSpeedMph": 68.5,
      "averageSpeedMph": 15.2,
      "safetyEvents": [
        {
          "type": "speeding",
          "startMs": 1748068260000,
          "maxSpeedMph": 68.5
        }
      ],
      "_no_driver_login": false,
      "_fuel_note": "QUIRK 5: fuelConsumedGallons is in US gallons. Multiply by 3.785 for litres. Samsara does not link fuel to specific Onfleet tasks."
    },
    {
      "id": "trip_48291002_20250524_002",
      "vehicleId": "48291002",
      "driverId": null,
      "startMs": 1748094660000,
      "endMs": 1748106770716,
      "startLocation": {
        "latitude": 39.794169,
        "longitude": -105.033871
      },
      "endLocation": {
        "latitude": 39.77177,
        "longitude": -104.907469
      },
      "startAddress": "492 Wayne Plains Suite 721",
      "endAddress": "707 Maureen Trace Suite 223",
      "startCoords": {
        "latitude": 39.757991,
        "longitude": -105.065415
      },
      "endCoords": {
        "latitude": 39.746014,
        "longitude": -104.906997
      },
      "distanceMeters": 72225.5,
      "durationMs": 12110716,
      "drivingDurationMs": 10524105,
      "idlingDurationMs": 1586611,
      "fuelConsumedMl": 9183,
      "fuelConsumedGallons": 2.426,
      "maxSpeedMph": 38.0,
      "averageSpeedMph": 13.3,
      "safetyEvents": [],
      "_no_driver_login": true,
      "_fuel_note": ""
    },
    {
      "id": "trip_48291002_20250525_001",
      "vehicleId": "48291002",
      "driverId": "22831001",
      "startMs": 1748187420000,
      "endMs": 1748196619098,
      "startLocation": {
        "latitude": 39.735716,
        "longitude": -105.004235
      },
      "endLocation": {
        "latitude": 39.817181,
        "longitude": -105.063723
      },
      "startAddress": "58716 Roberson Knoll Apt. 913",
      "endAddress": "9074 Kyle Trace Suite 832",
      "startCoords": {
        "latitude": 39.733879,
        "longitude": -104.995248
      },
      "endCoords": {
        "latitude": 39.714375,
        "longitude": -105.01808
      },
      "distanceMeters": 55511.3,
      "durationMs": 9199099,
      "drivingDurationMs": 8044074,
      "idlingDurationMs": 1155025,
      "fuelConsumedMl": 7056,
      "fuelConsumedGallons": 1.864,
      "maxSpeedMph": 63.0,
      "averageSpeedMph": 13.5,
      "safetyEvents": [],
      "_no_driver_login": false,
      "_fuel_note": "QUIRK 5: fuelConsumedGallons is in US gallons. Multiply by 3.785 for litres. Samsara does not link fuel to specific Onfleet tasks."
    },
    {
      "id": "trip_48291002_20250525_002",
      "vehicleId": "48291002",
      "driverId": "22831001",
      "startMs": 1748165160000,
      "endMs": 1748177853109,
      "startLocation": {
        "latitude": 39.742228,
        "longitude": -105.042473
      },
      "endLocation": {
        "latitude": 39.801599,
        "longitude": -105.052567
      },
      "startAddress": "38898 Hall Pine Suite 592",
      "endAddress": "86358 Jones Spur",
      "startCoords": {
        "latitude": 39.71235,
        "longitude": -105.046538
      },
      "endCoords": {
        "latitude": 39.713107,
        "longitude": -104.97806
      },
      "distanceMeters": 54024.9,
      "durationMs": 12693109,
      "drivingDurationMs": 10502313,
      "idlingDurationMs": 2190796,
      "fuelConsumedMl": 6871,
      "fuelConsumedGallons": 1.815,
      "maxSpeedMph": 38.7,
      "averageSpeedMph": 9.5,
      "safetyEvents": [],
      "_no_driver_login": false,
      "_fuel_note": ""
    },
    {
      "id": "trip_48291002_20250525_003",
      "vehicleId": "48291002",
      "driverId": "22831001",
      "startMs": 1748167860000,
      "endMs": 1748169073389,
      "startLocation": {
        "latitude": 39.824287,
        "longitude": -105.043376
      },
      "endLocation": {
        "latitude": 39.754577,
        "longitude": -104.964883
      },
      "startAddress": "4669 Brittney Isle Suite 621",
      "endAddress": "0432 Krista Tunnel Suite 263",
      "startCoords": {
        "latitude": 39.797631,
        "longitude": -104.938725
      },
      "endCoords": {
        "latitude": 39.769068,
        "longitude": -104.908147
      },
      "distanceMeters": 8157.8,
      "durationMs": 1213389,
      "drivingDurationMs": 989257,
      "idlingDurationMs": 224132,
      "fuelConsumedMl": 1037,
      "fuelConsumedGallons": 0.274,
      "maxSpeedMph": 64.3,
      "averageSpeedMph": 15.0,
      "safetyEvents": [],
      "_no_driver_login": false,
      "_fuel_note": ""
    },
    {
      "id": "trip_48291002_20250525_004",
      "vehicleId": "48291002",
      "driverId": "22831001",
      "startMs": 1748172360000,
      "endMs": 1748183517382,
      "startLocation": {
        "latitude": 39.77458,
        "longitude": -105.071543
      },
      "endLocation": {
        "latitude": 39.758995,
        "longitude": -104.959604
      },
      "startAddress": "003 Kelsey Circle Suite 953",
      "endAddress": "666 Patrick Mountain",
      "startCoords": {
        "latitude": 39.732029,
        "longitude": -104.985659
      },
      "endCoords": {
        "latitude": 39.816991,
        "longitude": -104.999255
      },
      "distanceMeters": 55388.7,
      "durationMs": 11157383,
      "drivingDurationMs": 10570604,
      "idlingDurationMs": 586779,
      "fuelConsumedMl": 7041,
      "fuelConsumedGallons": 1.86,
      "maxSpeedMph": 69.9,
      "averageSpeedMph": 11.1,
      "safetyEvents": [
        {
          "type": "speeding",
          "startMs": 1748181780000,
          "maxSpeedMph": 69.9
        }
      ],
      "_no_driver_login": false,
      "_fuel_note": ""
    },
    {
      "id": "trip_48291002_20250526_001",
      "vehicleId": "48291002",
      "driverId": null,
      "startMs": 1748254920000,
      "endMs": 1748260689069,
      "startLocation": {
        "latitude": 39.785638,
        "longitude": -104.989249
      },
      "endLocation": {
        "latitude": 39.812719,
        "longitude": -104.91548
      },
      "startAddress": "124 Johnson Underpass Apt. 862",
      "endAddress": "66063 Mary Highway",
      "startCoords": {
        "latitude": 39.809843,
        "longitude": -104.946906
      },
      "endCoords": {
        "latitude": 39.724283,
        "longitude": -105.019058
      },
      "distanceMeters": 30978.2,
      "durationMs": 5769069,
      "drivingDurationMs": 4717387,
      "idlingDurationMs": 1051682,
      "fuelConsumedMl": 3937,
      "fuelConsumedGallons": 1.04,
      "maxSpeedMph": 61.5,
      "averageSpeedMph": 12.0,
      "safetyEvents": [],
      "_no_driver_login": true,
      "_fuel_note": "QUIRK 5: fuelConsumedGallons is in US gallons. Multiply by 3.785 for litres. Samsara does not link fuel to specific Onfleet tasks."
    },
    {
      "id": "trip_48291002_20250526_002",
      "vehicleId": "48291002",
      "driverId": "22831001",
      "startMs": 1748276220000,
      "endMs": 1748286550180,
      "startLocation": {
        "latitude": 39.808253,
        "longitude": -104.995334
      },
      "endLocation": {
        "latitude": 39.729984,
        "longitude": -105.026742
      },
      "startAddress": "3658 Sandra Valley",
      "endAddress": "0092 Jason Vista Suite 831",
      "startCoords": {
        "latitude": 39.742026,
        "longitude": -105.023457
      },
      "endCoords": {
        "latitude": 39.817782,
        "longitude": -104.96939
      },
      "distanceMeters": 47002.1,
      "durationMs": 10330181,
      "drivingDurationMs": 8710593,
      "idlingDurationMs": 1619588,
      "fuelConsumedMl": 5977,
      "fuelConsumedGallons": 1.579,
      "maxSpeedMph": 64.7,
      "averageSpeedMph": 10.2,
      "safetyEvents": [],
      "_no_driver_login": false,
      "_fuel_note": ""
    },
    {
      "id": "trip_48291002_20250526_003",
      "vehicleId": "48291002",
      "driverId": "22831001",
      "startMs": 1748249520000,
      "endMs": 1748256574559,
      "startLocation": {
        "latitude": 39.805147,
        "longitude": -104.965318
      },
      "endLocation": {
        "latitude": 39.738514,
        "longitude": -104.91953
      },
      "startAddress": "56331 Zachary Harbors",
      "endAddress": "03241 Ethan Loop Suite 212",
      "startCoords": {
        "latitude": 39.788178,
        "longitude": -105.060832
      },
      "endCoords": {
        "latitude": 39.707679,
        "longitude": -104.928677
      },
      "distanceMeters": 50397.9,
      "durationMs": 7054560,
      "drivingDurationMs": 6107782,
      "idlingDurationMs": 946778,
      "fuelConsumedMl": 6409,
      "fuelConsumedGallons": 1.693,
      "maxSpeedMph": 71.4,
      "averageSpeedMph": 16.0,
      "safetyEvents": [
        {
          "type": "speeding",
          "startMs": 1748251320000,
          "maxSpeedMph": 71.4
        }
      ],
      "_no_driver_login": false,
      "_fuel_note": ""
    },
    {
      "id": "trip_48291002_20250527_001",
      "vehicleId": "48291002",
      "driverId": "22831001",
      "startMs": 1748331600000,
      "endMs": 1748340210641,
      "startLocation": {
        "latitude": 39.699268,
        "longitude": -104.997998
      },
      "endLocation": {
        "latitude": 39.75323,
        "longitude": -104.928815
      },
      "startAddress": "8412 Michelle Lane",
      "endAddress": "939 Denise Extensions",
      "startCoords": {
        "latitude": 39.78622,
        "longitude": -104.913485
      },
      "endCoords": {
        "latitude": 39.77722,
        "longitude": -105.05715
      },
      "distanceMeters": 61059.6,
      "durationMs": 8610642,
      "drivingDurationMs": 8026012,
      "idlingDurationMs": 584630,
      "fuelConsumedMl": 7764,
      "fuelConsumedGallons": 2.051,
      "maxSpeedMph": 32.8,
      "averageSpeedMph": 15.9,
      "safetyEvents": [],
      "_no_driver_login": false,
      "_fuel_note": "QUIRK 5: fuelConsumedGallons is in US gallons. Multiply by 3.785 for litres. Samsara does not link fuel to specific Onfleet tasks."
    },
    {
      "id": "trip_48291002_20250527_002",
      "vehicleId": "48291002",
      "driverId": "22831001",
      "startMs": 1748353560000,
      "endMs": 1748354375489,
      "startLocation": {
        "latitude": 39.797718,
        "longitude": -105.068781
      },
      "endLocation": {
        "latitude": 39.735595,
        "longitude": -104.988033
      },
      "startAddress": "7137 Todd Road",
      "endAddress": "89491 Anthony Garden",
      "startCoords": {
        "latitude": 39.775988,
        "longitude": -104.948089
      },
      "endCoords": {
        "latitude": 39.727922,
        "longitude": -105.05095
      },
      "distanceMeters": 5339.4,
      "durationMs": 815489,
      "drivingDurationMs": 638427,
      "idlingDurationMs": 177062,
      "fuelConsumedMl": 678,
      "fuelConsumedGallons": 0.179,
      "maxSpeedMph": 49.9,
      "averageSpeedMph": 14.6,
      "safetyEvents": [],
      "_no_driver_login": false,
      "_fuel_note": ""
    },
    {
      "id": "trip_48291002_20250527_003",
      "vehicleId": "48291002",
      "driverId": "22831001",
      "startMs": 1748364540000,
      "endMs": 1748379600000,
      "startLocation": {
        "latitude": 39.819103,
        "longitude": -105.042437
      },
      "endLocation": {
        "latitude": 39.731505,
        "longitude": -105.003376
      },
      "startAddress": "909 Brown Brook",
      "endAddress": "3365 Nicolas Locks",
      "startCoords": {
        "latitude": 39.720568,
        "longitude": -104.915394
      },
      "endCoords": {
        "latitude": 39.816087,
        "longitude": -104.979123
      },
      "distanceMeters": 67309.0,
      "durationMs": 15060000,
      "drivingDurationMs": 12120412,
      "idlingDurationMs": 2939588,
      "fuelConsumedMl": 8559,
      "fuelConsumedGallons": 2.261,
      "maxSpeedMph": 56.2,
      "averageSpeedMph": 10.0,
      "safetyEvents": [],
      "_no_driver_login": false,
      "_fuel_note": ""
    },
    {
      "id": "trip_48291002_20250528_001",
      "vehicleId": "48291002",
      "driverId": null,
      "startMs": 1748457600000,
      "endMs": 1748466000000,
      "startLocation": {
        "latitude": 39.776427,
        "longitude": -104.912758
      },
      "endLocation": {
        "latitude": 39.687291,
        "longitude": -104.972106
      },
      "startAddress": "3168 Baker Estates Apt. 932",
      "endAddress": "01484 Schneider Lodge",
      "startCoords": {
        "latitude": 39.767774,
        "longitude": -104.957905
      },
      "endCoords": {
        "latitude": 39.772375,
        "longitude": -105.034957
      },
      "distanceMeters": 39781.2,
      "durationMs": 8400000,
      "drivingDurationMs": 6720000,
      "idlingDurationMs": 1680000,
      "fuelConsumedMl": 5057,
      "fuelConsumedGallons": 1.336,
      "maxSpeedMph": 51.9,
      "averageSpeedMph": 10.6,
      "safetyEvents": [],
      "_no_driver_login": true,
      "_fuel_note": "QUIRK 5: fuelConsumedGallons is in US gallons. Multiply by 3.785 for litres. Samsara does not link fuel to specific Onfleet tasks."
    },
    {
      "id": "trip_48291002_20250528_002",
      "vehicleId": "48291002",
      "driverId": "22831001",
      "startMs": 1748419380000,
      "endMs": 1748424152907,
      "startLocation": {
        "latitude": 39.810266,
        "longitude": -105.03089
      },
      "endLocation": {
        "latitude": 39.710227,
        "longitude": -104.932734
      },
      "startAddress": "95336 Nicholas Field",
      "endAddress": "962 Sherry Landing",
      "startCoords": {
        "latitude": 39.820713,
        "longitude": -105.007904
      },
      "endCoords": {
        "latitude": 39.813308,
        "longitude": -105.005944
      },
      "distanceMeters": 21854.9,
      "durationMs": 4772907,
      "drivingDurationMs": 3940544,
      "idlingDurationMs": 832363,
      "fuelConsumedMl": 2778,
      "fuelConsumedGallons": 0.734,
      "maxSpeedMph": 41.0,
      "averageSpeedMph": 10.2,
      "safetyEvents": [],
      "_no_driver_login": false,
      "_fuel_note": ""
    },
    {
      "id": "trip_48291002_20250528_003",
      "vehicleId": "48291002",
      "driverId": "22831001",
      "startMs": 1748444520000,
      "endMs": 1748454220857,
      "startLocation": {
        "latitude": 39.729049,
        "longitude": -105.074558
      },
      "endLocation": {
        "latitude": 39.779975,
        "longitude": -105.027396
      },
      "startAddress": "73238 Martin Squares",
      "endAddress": "8269 Charles Manor Apt. 494",
      "startCoords": {
        "latitude": 39.749973,
        "longitude": -104.914088
      },
      "endCoords": {
        "latitude": 39.749483,
        "longitude": -105.003508
      },
      "distanceMeters": 62584.3,
      "durationMs": 9700858,
      "drivingDurationMs": 7846291,
      "idlingDurationMs": 1854566,
      "fuelConsumedMl": 7957,
      "fuelConsumedGallons": 2.102,
      "maxSpeedMph": 60.7,
      "averageSpeedMph": 14.4,
      "safetyEvents": [],
      "_no_driver_login": false,
      "_fuel_note": ""
    },
    {
      "id": "trip_48291002_20250528_004",
      "vehicleId": "48291002",
      "driverId": "22831001",
      "startMs": 1748423700000,
      "endMs": 1748438092883,
      "startLocation": {
        "latitude": 39.767767,
        "longitude": -105.008376
      },
      "endLocation": {
        "latitude": 39.749438,
        "longitude": -104.901938
      },
      "startAddress": "22606 Clark Village",
      "endAddress": "3142 Browning Walks Suite 764",
      "startCoords": {
        "latitude": 39.711125,
        "longitude": -104.901729
      },
      "endCoords": {
        "latitude": 39.746545,
        "longitude": -104.906784
      },