{
  "vehicleId": "48291011",
  "vehicleName": "DEN-CAR-12",
  "month": "2025_05",
  "pagination": {
    "endCursor": "trip_48291011_20250531_001",
    "hasNextPage": false
  },
  "trips": [
    {
      "id": "trip_48291011_20250501_001",
      "vehicleId": "48291011",
      "driverId": "22831010",
      "startMs": 1746119160000,
      "endMs": 1746122742335,
      "startLocation": {
        "latitude": 39.768558,
        "longitude": -105.038629
      },
      "endLocation": {
        "latitude": 39.811771,
        "longitude": -104.909602
      },
      "startAddress": "2320 Susan Drive Apt. 186",
      "endAddress": "185 Roger Rest Suite 474",
      "startCoords": {
        "latitude": 39.759604,
        "longitude": -104.900379
      },
      "endCoords": {
        "latitude": 39.772904,
        "longitude": -105.054764
      },
      "distanceMeters": 23434.9,
      "durationMs": 3582336,
      "drivingDurationMs": 3196953,
      "idlingDurationMs": 385383,
      "fuelConsumedMl": 2979,
      "fuelConsumedGallons": 0.787,
      "maxSpeedMph": 64.9,
      "averageSpeedMph": 14.6,
      "safetyEvents": [],
      "_no_driver_login": false,
      "_fuel_note": "QUIRK 5: fuelConsumedGallons is in US gallons. Multiply by 3.785 for litres. Samsara does not link fuel to specific Onfleet tasks."
    },
    {
      "id": "trip_48291011_20250501_002",
      "vehicleId": "48291011",
      "driverId": "22831010",
      "startMs": 1746089400000,
      "endMs": 1746095006627,
      "startLocation": {
        "latitude": 39.749661,
        "longitude": -105.039046
      },
      "endLocation": {
        "latitude": 39.781626,
        "longitude": -105.055043
      },
      "startAddress": "2662 Johnson Mountain Suite 840",
      "endAddress": "131 Christopher Wall Suite 733",
      "startCoords": {
        "latitude": 39.685763,
        "longitude": -104.987985
      },
      "endCoords": {
        "latitude": 39.759169,
        "longitude": -104.99048
      },
      "distanceMeters": 26623.4,
      "durationMs": 5606628,
      "drivingDurationMs": 4617641,
      "idlingDurationMs": 988987,
      "fuelConsumedMl": 3384,
      "fuelConsumedGallons": 0.894,
      "maxSpeedMph": 48.0,
      "averageSpeedMph": 10.6,
      "safetyEvents": [],
      "_no_driver_login": false,
      "_fuel_note": ""
    },
    {
      "id": "trip_48291011_20250501_003",
      "vehicleId": "48291011",
      "driverId": "22831010",
      "startMs": 1746093840000,
      "endMs": 1746106228811,
      "startLocation": {
        "latitude": 39.821579,
        "longitude": -104.939846
      },
      "endLocation": {
        "latitude": 39.719703,
        "longitude": -104.900361
      },
      "startAddress": "36164 Johnson Club",
      "endAddress": "1129 Cohen Grove",
      "startCoords": {
        "latitude": 39.69882,
        "longitude": -105.061737
      },
      "endCoords": {
        "latitude": 39.78323,
        "longitude": -104.988975
      },
      "distanceMeters": 62803.1,
      "durationMs": 12388812,
      "drivingDurationMs": 10834103,
      "idlingDurationMs": 1554709,
      "fuelConsumedMl": 7983,
      "fuelConsumedGallons": 2.109,
      "maxSpeedMph": 60.0,
      "averageSpeedMph": 11.3,
      "safetyEvents": [],
      "_no_driver_login": false,
      "_fuel_note": ""
    },
    {
      "id": "trip_48291011_20250501_004",
      "vehicleId": "48291011",
      "driverId": null,
      "startMs": 1746087120000,
      "endMs": 1746097965749,
      "startLocation": {
        "latitude": 39.746832,
        "longitude": -105.038045
      },
      "endLocation": {
        "latitude": 39.780043,
        "longitude": -104.961196
      },
      "startAddress": "69349 Joseph Viaduct",
      "endAddress": "586 Heath Keys Apt. 999",
      "startCoords": {
        "latitude": 39.764302,
        "longitude": -104.982576
      },
      "endCoords": {
        "latitude": 39.683794,
        "longitude": -104.956727
      },
      "distanceMeters": 49189.5,
      "durationMs": 10845750,
      "drivingDurationMs": 9557412,
      "idlingDurationMs": 1288338,
      "fuelConsumedMl": 6253,
      "fuelConsumedGallons": 1.652,
      "maxSpeedMph": 54.7,
      "averageSpeedMph": 10.1,
      "safetyEvents": [],
      "_no_driver_login": true,
      "_fuel_note": ""
    },
    {
      "id": "trip_48291011_20250502_001",
      "vehicleId": "48291011",
      "driverId": "22831010",
      "startMs": 1746170340000,
      "endMs": 1746176544199,
      "startLocation": {
        "latitude": 39.695806,
        "longitude": -105.024638
      },
      "endLocation": {
        "latitude": 39.697117,
        "longitude": -104.935914
      },
      "startAddress": "5608 Jennifer Centers Suite 698",
      "endAddress": "8349 Watson Drive Apt. 553",
      "startCoords": {
        "latitude": 39.770764,
        "longitude": -104.921785
      },
      "endCoords": {
        "latitude": 39.758047,
        "longitude": -104.911404
      },
      "distanceMeters": 29647.0,
      "durationMs": 6204200,
      "drivingDurationMs": 5530649,
      "idlingDurationMs": 673551,
      "fuelConsumedMl": 3770,
      "fuelConsumedGallons": 0.996,
      "maxSpeedMph": 69.4,
      "averageSpeedMph": 10.7,
      "safetyEvents": [
        {
          "type": "speeding",
          "startMs": 1746175260000,
          "maxSpeedMph": 69.4
        }
      ],
      "_no_driver_login": false,
      "_fuel_note": "QUIRK 5: fuelConsumedGallons is in US gallons. Multiply by 3.785 for litres. Samsara does not link fuel to specific Onfleet tasks."
    },
    {
      "id": "trip_48291011_20250502_002",
      "vehicleId": "48291011",
      "driverId": "22831010",
      "startMs": 1746206100000,
      "endMs": 1746216099379,
      "startLocation": {
        "latitude": 39.806133,
        "longitude": -104.989958
      },
      "endLocation": {
        "latitude": 39.758573,
        "longitude": -105.020004
      },
      "startAddress": "301 Destiny Freeway Suite 985",
      "endAddress": "4374 Moore Pine Apt. 153",
      "startCoords": {
        "latitude": 39.796789,
        "longitude": -105.030871
      },
      "endCoords": {
        "latitude": 39.769311,
        "longitude": -104.961852
      },
      "distanceMeters": 62479.4,
      "durationMs": 9999379,
      "drivingDurationMs": 8022125,
      "idlingDurationMs": 1977254,
      "fuelConsumedMl": 7946,
      "fuelConsumedGallons": 2.099,
      "maxSpeedMph": 65.3,
      "averageSpeedMph": 14.0,
      "safetyEvents": [
        {
          "type": "speeding",
          "startMs": 1746214620000,
          "maxSpeedMph": 65.3
        }
      ],
      "_no_driver_login": false,
      "_fuel_note": ""
    },
    {
      "id": "trip_48291011_20250502_003",
      "vehicleId": "48291011",
      "driverId": "22831010",
      "startMs": 1746173400000,
      "endMs": 1746188112809,
      "startLocation": {
        "latitude": 39.773729,
        "longitude": -104.960909
      },
      "endLocation": {
        "latitude": 39.71163,
        "longitude": -104.938084
      },
      "startAddress": "7316 Nicholas Mall",
      "endAddress": "529 John Landing",
      "startCoords": {
        "latitude": 39.7836,
        "longitude": -105.078923
      },
      "endCoords": {
        "latitude": 39.754493,
        "longitude": -105.073261
      },
      "distanceMeters": 78427.8,
      "durationMs": 14712809,
      "drivingDurationMs": 14386376,
      "idlingDurationMs": 326433,
      "fuelConsumedMl": 9971,
      "fuelConsumedGallons": 2.634,
      "maxSpeedMph": 51.9,
      "averageSpeedMph": 11.9,
      "safetyEvents": [],
      "_no_driver_login": false,
      "_fuel_note": ""
    },
    {
      "id": "trip_48291011_20250502_004",
      "vehicleId": "48291011",
      "driverId": "22831010",
      "startMs": 1746190680000,
      "endMs": 1746203584660,
      "startLocation": {
        "latitude": 39.787948,
        "longitude": -104.948881
      },
      "endLocation": {
        "latitude": 39.791747,
        "longitude": -105.054749
      },
      "startAddress": "44213 Christine Throughway",
      "endAddress": "81816 Riley Canyon Suite 239",
      "startCoords": {
        "latitude": 39.825286,
        "longitude": -104.931487
      },
      "endCoords": {
        "latitude": 39.755207,
        "longitude": -104.981962
      },
      "distanceMeters": 65439.6,
      "durationMs": 12904661,
      "drivingDurationMs": 11641520,
      "idlingDurationMs": 1263140,
      "fuelConsumedMl": 8320,
      "fuelConsumedGallons": 2.198,
      "maxSpeedMph": 32.7,
      "averageSpeedMph": 11.3,
      "safetyEvents": [],
      "_no_driver_login": false,
      "_fuel_note": ""
    },
    {
      "id": "trip_48291011_20250502_005",
      "vehicleId": "48291011",
      "driverId": "22831010",
      "startMs": 1746206580000,
      "endMs": 1746210384240,
      "startLocation": {
        "latitude": 39.748006,
        "longitude": -104.991657
      },
      "endLocation": {
        "latitude": 39.791119,
        "longitude": -104.983461
      },
      "startAddress": "150 Kristy Keys",
      "endAddress": "719 David Squares",
      "startCoords": {
        "latitude": 39.81826,
        "longitude": -105.079273
      },
      "endCoords": {
        "latitude": 39.824611,
        "longitude": -104.966968
      },
      "distanceMeters": 18042.8,
      "durationMs": 3804241,
      "drivingDurationMs": 3558189,
      "idlingDurationMs": 246052,
      "fuelConsumedMl": 2294,
      "fuelConsumedGallons": 0.606,
      "maxSpeedMph": 62.3,
      "averageSpeedMph": 10.6,
      "safetyEvents": [],
      "_no_driver_login": false,
      "_fuel_note": ""
    },
    {
      "id": "trip_48291011_20250503_001",
      "vehicleId": "48291011",
      "driverId": "22831010",
      "startMs": 1746294780000,
      "endMs": 1746306000000,
      "startLocation": {
        "latitude": 39.711391,
        "longitude": -104.907433
      },
      "endLocation": {
        "latitude": 39.725019,
        "longitude": -104.933536
      },
      "startAddress": "6662 Knight Common",
      "endAddress": "002 Meyer Course",
      "startCoords": {
        "latitude": 39.745038,
        "longitude": -104.907658
      },
      "endCoords": {
        "latitude": 39.823824,
        "longitude": -104.992456
      },
      "distanceMeters": 58966.9,
      "durationMs": 11220000,
      "drivingDurationMs": 9124297,
      "idlingDurationMs": 2095703,
      "fuelConsumedMl": 7499,
      "fuelConsumedGallons": 1.981,
      "maxSpeedMph": 60.5,
      "averageSpeedMph": 11.8,
      "safetyEvents": [],
      "_no_driver_login": false,
      "_fuel_note": "QUIRK 5: fuelConsumedGallons is in US gallons. Multiply by 3.785 for litres. Samsara does not link fuel to specific Onfleet tasks."
    },
    {
      "id": "trip_48291011_20250503_002",
      "vehicleId": "48291011",
      "driverId": "22831010",
      "startMs": 1746269160000,
      "endMs": 1746273083498,
      "startLocation": {
        "latitude": 39.822746,
        "longitude": -104.925131
      },
      "endLocation": {
        "latitude": 39.776317,
        "longitude": -104.993674
      },
      "startAddress": "8577 Craig Circles",
      "endAddress": "17770 Ferguson Shores",
      "startCoords": {
        "latitude": 39.796892,
        "longitude": -104.957847
      },
      "endCoords": {
        "latitude": 39.788601,
        "longitude": -105.058284
      },
      "distanceMeters": 23265.1,
      "durationMs": 3923499,
      "drivingDurationMs": 3470791,
      "idlingDurationMs": 452708,
      "fuelConsumedMl": 2956,
      "fuelConsumedGallons": 0.781,
      "maxSpeedMph": 63.7,
      "averageSpeedMph": 13.3,
      "safetyEvents": [],
      "_no_driver_login": false,
      "_fuel_note": ""
    },
    {
      "id": "trip_48291011_20250503_003",
      "vehicleId": "48291011",
      "driverId": "22831010",
      "startMs": 1746289980000,
      "endMs": 1746292559033,
      "startLocation": {
        "latitude": 39.784071,
        "longitude": -104.937738
      },
      "endLocation": {
        "latitude": 39.805097,
        "longitude": -105.040721
      },
      "startAddress": "1622 Howell Lodge Suite 805",
      "endAddress": "9655 Hall Fords",
      "startCoords": {
        "latitude": 39.792183,
        "longitude": -105.027274
      },
      "endCoords": {
        "latitude": 39.707662,
        "longitude": -105.021322
      },
      "distanceMeters": 11977.1,
      "durationMs": 2579033,
      "drivingDurationMs": 2136809,
      "idlingDurationMs": 442224,
      "fuelConsumedMl": 1522,
      "fuelConsumedGallons": 0.402,
      "maxSpeedMph": 69.2,
      "averageSpeedMph": 10.4,
      "safetyEvents": [
        {
          "type": "speeding",
          "startMs": 1746291600000,
          "maxSpeedMph": 69.2
        }
      ],
      "_no_driver_login": false,
      "_fuel_note": ""
    },
    {
      "id": "trip_48291011_20250504_001",
      "vehicleId": "48291011",
      "driverId": "22831010",
      "startMs": 1746382980000,
      "endMs": 1746392400000,
      "startLocation": {
        "latitude": 39.706528,
        "longitude": -105.075065
      },
      "endLocation": {
        "latitude": 39.695044,
        "longitude": -105.075262
      },
      "startAddress": "3304 Debbie Roads Suite 985",
      "endAddress": "550 Lauren Keys",
      "startCoords": {
        "latitude": 39.824457,
        "longitude": -105.016005
      },
      "endCoords": {
        "latitude": 39.74197,
        "longitude": -104.970408
      },
      "distanceMeters": 48704.3,
      "durationMs": 9420000,
      "drivingDurationMs": 9044676,
      "idlingDurationMs": 375324,
      "fuelConsumedMl": 6193,
      "fuelConsumedGallons": 1.636,
      "maxSpeedMph": 54.6,
      "averageSpeedMph": 11.6,
      "safetyEvents": [],
      "_no_driver_login": false,
      "_fuel_note": "QUIRK 5: fuelConsumedGallons is in US gallons. Multiply by 3.785 for litres. Samsara does not link fuel to specific Onfleet tasks."
    },
    {
      "id": "trip_48291011_20250504_002",
      "vehicleId": "48291011",
      "driverId": "22831010",
      "startMs": 1746370320000,
      "endMs": 1746372988240,
      "startLocation": {
        "latitude": 39.806871,
        "longitude": -105.028526
      },
      "endLocation": {
        "latitude": 39.703948,
        "longitude": -105.065483
      },
      "startAddress": "433 Luna Bypass Suite 598",
      "endAddress": "224 Clark Shoal Apt. 050",
      "startCoords": {
        "latitude": 39.819955,
        "longitude": -105.076655
      },
      "endCoords": {
        "latitude": 39.790847,
        "longitude": -105.023854
      },
      "distanceMeters": 18582.3,
      "durationMs": 2668240,
      "drivingDurationMs": 2176732,
      "idlingDurationMs": 491508,
      "fuelConsumedMl": 2362,
      "fuelConsumedGallons": 0.624,
      "maxSpeedMph": 33.3,
      "averageSpeedMph": 15.6,
      "safetyEvents": [],
      "_no_driver_login": false,
      "_fuel_note": ""
    },
    {
      "id": "trip_48291011_20250504_003",
      "vehicleId": "48291011",
      "driverId": "22831010",
      "startMs": 1746384000000,
      "endMs": 1746392400000,
      "startLocation": {
        "latitude": 39.82042,
        "longitude": -105.017618
      },
      "endLocation": {
        "latitude": 39.75501,
        "longitude": -105.003121
      },
      "startAddress": "043 Bryan Inlet",
      "endAddress": "1243 Dylan Trafficway",
      "startCoords": {
        "latitude": 39.809476,
        "longitude": -104.929737
      },
      "endCoords": {
        "latitude": 39.702737,
        "longitude": -104.904653
      },
      "distanceMeters": 52807.7,
      "durationMs": 8400000,
      "drivingDurationMs": 7881183,
      "idlingDurationMs": 518817,
      "fuelConsumedMl": 6715,
      "fuelConsumedGallons": 1.774,
      "maxSpeedMph": 55.0,
      "averageSpeedMph": 14.1,
      "safetyEvents": [],
      "_no_driver_login": false,
      "_fuel_note": ""
    },
    {
      "id": "trip_48291011_20250505_001",
      "vehicleId": "48291011",
      "driverId": "22831010",
      "startMs": 1746460560000,
      "endMs": 1746467449644,
      "startLocation": {
        "latitude": 39.796515,
        "longitude": -104.969093
      },
      "endLocation": {
        "latitude": 39.825656,
        "longitude": -105.032083
      },
      "startAddress": "03557 Ward Center Suite 425",
      "endAddress": "016 Hammond Extensions",
      "startCoords": {
        "latitude": 39.785091,
        "longitude": -104.902165
      },
      "endCoords": {
        "latitude": 39.729468,
        "longitude": -104.951029
      },
      "distanceMeters": 52713.6,
      "durationMs": 6889644,
      "drivingDurationMs": 6638005,
      "idlingDurationMs": 251639,
      "fuelConsumedMl": 6704,
      "fuelConsumedGallons": 1.771,
      "maxSpeedMph": 45.9,
      "averageSpeedMph": 17.1,
      "safetyEvents": [],
      "_no_driver_login": false,
      "_fuel_note": "QUIRK 5: fuelConsumedGallons is in US gallons. Multiply by 3.785 for litres. Samsara does not link fuel to specific Onfleet tasks."
    },
    {
      "id": "trip_48291011_20250505_002",
      "vehicleId": "48291011",
      "driverId": "22831010",
      "startMs": 1746437760000,
      "endMs": 1746443522844,
      "startLocation": {
        "latitude": 39.707597,
        "longitude": -105.022043
      },
      "endLocation": {
        "latitude": 39.719618,
        "longitude": -104.988232
      },
      "startAddress": "1182 Pham Turnpike",
      "endAddress": "99010 Gonzales Glens",
      "startCoords": {
        "latitude": 39.686352,
        "longitude": -105.061784
      },
      "endCoords": {
        "latitude": 39.685399,
        "longitude": -104.940916
      },
      "distanceMeters": 30535.0,
      "durationMs": 5762845,
      "drivingDurationMs": 5062260,
      "idlingDurationMs": 700585,
      "fuelConsumedMl": 3884,
      "fuelConsumedGallons": 1.026,
      "maxSpeedMph": 69.1,
      "averageSpeedMph": 11.9,
      "safetyEvents": [
        {
          "type": "speeding",
          "startMs": 1746439320000,
          "maxSpeedMph": 69.1
        }
      ],
      "_no_driver_login": false,
      "_fuel_note": ""
    },
    {
      "id": "trip_48291011_20250505_003",
      "vehicleId": "48291011",
      "driverId": "22831010",
      "startMs": 1746461100000,
      "endMs": 1746468656660,
      "startLocation": {
        "latitude": 39.791905,
        "longitude": -105.060618
      },
      "endLocation": {
        "latitude": 39.736543,
        "longitude": -105.012442
      },
      "startAddress": "586 Russell Road",
      "endAddress": "49713 Ryan Plaza",
      "startCoords": {
        "latitude": 39.806301,
        "longitude": -105.018676
      },
      "endCoords": {
        "latitude": 39.726428,
        "longitude": -104.927376
      },
      "distanceMeters": 55830.4,
      "durationMs": 7556660,
      "drivingDurationMs": 6400031,
      "idlingDurationMs": 1156629,
      "fuelConsumedMl": 7098,
      "fuelConsumedGallons": 1.875,
      "maxSpeedMph": 41.9,
      "averageSpeedMph": 16.5,
      "safetyEvents": [],
      "_no_driver_login": false,
      "_fuel_note": ""
    },
    {
      "id": "trip_48291011_20250506_001",
      "vehicleId": "48291011",
      "driverId": "22831010",
      "startMs": 1746546000000,
      "endMs": 1746557430709,
      "startLocation": {
        "latitude": 39.694925,
        "longitude": -105.013836
      },
      "endLocation": {
        "latitude": 39.685334,
        "longitude": -104.907519
      },
      "startAddress": "81411 Sanchez Unions",
      "endAddress": "07741 Oneal Cove",
      "startCoords": {
        "latitude": 39.695904,
        "longitude": -104.936511
      },
      "endCoords": {
        "latitude": 39.808917,
        "longitude": -105.007661
      },
      "distanceMeters": 70303.8,
      "durationMs": 11430710,
      "drivingDurationMs": 10575775,
      "idlingDurationMs": 854935,
      "fuelConsumedMl": 8937,
      "fuelConsumedGallons": 2.361,
      "maxSpeedMph": 69.3,
      "averageSpeedMph": 13.8,
      "safetyEvents": [
        {
          "type": "speeding",
          "startMs": 1746547980000,
          "maxSpeedMph": 69.3
        }
      ],
      "_no_driver_login": false,
      "_fuel_note": "QUIRK 5: fuelConsumedGallons is in US gallons. Multiply by 3.785 for litres. Samsara does not link fuel to specific Onfleet tasks."
    },
    {
      "id": "trip_48291011_20250506_002",
      "vehicleId": "48291011",
      "driverId": "22831010",
      "startMs": 1746548820000,
      "endMs": 1746557859852,
      "startLocation": {
        "latitude": 39.686,
        "longitude": -105.072425
      },
      "endLocation": {
        "latitude": 39.77261,
        "longitude": -105.049942
      },
      "startAddress": "2369 Marc Common",
      "endAddress": "7661 David Way",
      "startCoords": {
        "latitude": 39.81319,
        "longitude": -105.019217
      },
      "endCoords": {
        "latitude": 39.727293,
        "longitude": -105.048557
      },
      "distanceMeters": 68972.8,
      "durationMs": 9039853,
      "drivingDurationMs": 8341432,
      "idlingDurationMs": 698421,
      "fuelConsumedMl": 8771,
      "fuelConsumedGallons": 2.317,
      "maxSpeedMph": 52.0,
      "averageSpeedMph": 17.1,
      "safetyEvents": [],
      "_no_driver_login": false,
      "_fuel_note": ""
    },
    {
      "id": "trip_48291011_20250506_003",
      "vehicleId": "48291011",
      "driverId": "22831010",
      "startMs": 1746540600000,
      "endMs": 1746543417297,
      "startLocation": {
        "latitude": 39.70045,
        "longitude": -104.929972
      },
      "endLocation": {
        "latitude": 39.757256,
        "longitude": -105.01146
      },
      "startAddress": "03351 Christopher Plaza Suite 156",
      "endAddress": "730 Scott Lane",
      "startCoords": {
        "latitude": 39.769439,
        "longitude": -105.051054
      },
      "endCoords": {
        "latitude": 39.705491,
        "longitude": -104.980736
      },
      "distanceMeters": 15398.1,
      "durationMs": 2817298,
      "drivingDurationMs": 2471449,
      "idlingDurationMs": 345848,
      "fuelConsumedMl": 1957,
      "fuelConsumedGallons": 0.517,
      "maxSpeedMph": 31.5,
      "averageSpeedMph": 12.2,
      "safetyEvents": [],
      "_no_driver_login": false,
      "_fuel_note": ""
    },
    {
      "id": "trip_48291011_20250506_004",
      "vehicleId": "48291011",
      "driverId": "22831010",
      "startMs": 1746529560000,
      "endMs": 1746535705797,
      "startLocation": {
        "latitude": 39.687656,
        "longitude": -105.018909
      },
      "endLocation": {
        "latitude": 39.824705,
        "longitude": -105.01656
      },
      "startAddress": "2446 Brandon Mills",
      "endAddress": "6759 Andrea Landing",
      "startCoords": {
        "latitude": 39.712355,
        "longitude": -105.060023
      },
      "endCoords": {
        "latitude": 39.751132,
        "longitude": -105.002076
      },
      "distanceMeters": 35683.9,
      "durationMs": 6145797,
      "drivingDurationMs": 5482093,
      "idlingDurationMs": 663704,
      "fuelConsumedMl": 4539,
      "fuelConsumedGallons": 1.199,
      "maxSpeedMph": 34.9,
      "averageSpeedMph": 13.0,
      "safetyEvents": [],
      "_no_driver_login": false,
      "_fuel_note": ""
    },
    {
      "id": "trip_48291011_20250506_005",
      "vehicleId": "48291011",
      "driverId": "22831010",
      "startMs": 1746542580000,
      "endMs": 1746543641412,
      "startLocation": {
        "latitude": 39.735696,
        "longitude": -104.969599
      },
      "endLocation": {
        "latitude": 39.707248,
        "longitude": -104.958894
      },
      "startAddress": "24945 Jason Causeway",
      "endAddress": "788 Gilmore Locks",
      "startCoords": {
        "latitude": 39.776825,
        "longitude": -105.044543
      },
      "endCoords": {
        "latitude": 39.706641,
        "longitude": -104.933869
      },
      "distanceMeters": 5023.1,
      "durationMs": 1061413,
      "drivingDurationMs": 871133,
      "idlingDurationMs": 190280,
      "fuelConsumedMl": 640,
      "fuelConsumedGallons": 0.169,
      "maxSpeedMph": 54.7,
      "averageSpeedMph": 10.6,
      "safetyEvents": [],
      "_no_driver_login": false,
      "_fuel_note": ""
    },
    {
      "id": "trip_48291011_20250506_006",
      "vehicleId": "48291011",
      "driverId": "22831010",
      "startMs": 1746528360000,
      "endMs": 1746531050376,
      "startLocation": {
        "latitude": 39.795326,
        "longitude": -104.997722
      },
      "endLocation": {
        "latitude": 39.810383,
        "longitude": -105.054684
      },
      "startAddress": "59323 Jessica Rapids",
      "endAddress": "227 George Islands",
      "startCoords": {
        "latitude": 39.813274,
        "longitude": -104.90791
      },
      "endCoords": {
        "latitude": 39.722311,
        "longitude": -104.948079
      },
      "distanceMeters": 13911.1,
      "durationMs": 2690377,
      "drivingDurationMs": 2192916,
      "idlingDurationMs": 497460,
      "fuelConsumedMl": 1768,
      "fuelConsumedGallons": 0.467,
      "maxSpeedMph": 55.0,
      "averageSpeedMph": 11.6,
      "safetyEvents": [],
      "_no_driver_login": false,
      "_fuel_note": ""
    },
    {
      "id": "trip_48291011_20250507_001",
      "vehicleId": "48291011",
      "driverId": "22831010",
      "startMs": 1746634920000,
      "endMs": 1746643795173,
      "startLocation": {
        "latitude": 39.714962,
        "longitude": -104.911295
      },
      "endLocation": {
        "latitude": 39.82456,
        "longitude": -104.918605
      },
      "startAddress": "81247 Anthony Tunnel",
      "endAddress": "79047 Andrew Ridge",
      "startCoords": {
        "latitude": 39.694623,
        "longitude": -104.954769
      },
      "endCoords": {
        "latitude": 39.826529,
        "longitude": -104.914666
      },
      "distanceMeters": 51034.1,
      "durationMs": 8875173,
      "drivingDurationMs": 8194197,
      "idlingDurationMs": 680976,
      "fuelConsumedMl": 6488,
      "fuelConsumedGallons": 1.714,
      "maxSpeedMph": 56.3,
      "averageSpeedMph": 12.9,
      "safetyEvents": [],
      "_no_driver_login": false,
      "_fuel_note": "QUIRK 5: fuelConsumedGallons is in US gallons. Multiply by 3.785 for litres. Samsara does not link fuel to specific Onfleet tasks."
    },
    {
      "id": "trip_48291011_20250507_002",
      "vehicleId": "48291011",
      "driverId": "22831010",
      "startMs": 1746605820000,
      "endMs": 1746614719921,
      "startLocation": {
        "latitude": 39.79121,
        "longitude": -105.072025
      },
      "endLocation": {
        "latitude": 39.737485,
        "longitude": -105.079564
      },
      "startAddress": "9363 Sabrina Drive Apt. 789",
      "endAddress": "31436 Davies Rest Suite 612",
      "startCoords": {
        "latitude": 39.809628,
        "longitude": -105.029881
      },
      "endCoords": {
        "latitude": 39.802572,
        "longitude": -105.049702
      },
      "distanceMeters": 57363.6,
      "durationMs": 8899922,
      "drivingDurationMs": 7173583,
      "idlingDurationMs": 1726339,
      "fuelConsumedMl": 7294,
      "fuelConsumedGallons": 1.927,
      "maxSpeedMph": 28.8,
      "averageSpeedMph": 14.4,
      "safetyEvents": [],
      "_no_driver_login": false,
      "_fuel_note": ""
    },
    {
      "id": "trip_48291011_20250507_003",
      "vehicleId": "48291011",
      "driverId": "22831010",
      "startMs": 1746642420000,
      "endMs": 1746647523018,
      "startLocation": {
        "latitude": 39.816664,
        "longitude": -105.002302
      },
      "endLocation": {
        "latitude": 39.760872,
        "longitude": -105.068828
      },
      "startAddress": "687 Juan Mountain Suite 279",
      "endAddress": "6031 Joshua Grove Suite 716",
      "startCoords": {
        "latitude": 39.716318,
        "longitude": -104.941825
      },
      "endCoords": {
        "latitude": 39.771302,
        "longitude": -104.999389
      },
      "distanceMeters": 27548.5,
      "durationMs": 5103018,
      "drivingDurationMs": 4570980,
      "idlingDurationMs": 532038,
      "fuelConsumedMl": 3502,
      "fuelConsumedGallons": 0.925,
      "maxSpeedMph": 50.9,
      "averageSpeedMph": 12.1,
      "safetyEvents": [],
      "_no_driver_login": false,
      "_fuel_note": ""
    },
    {
      "id": "trip_48291011_20250507_004",
      "vehicleId": "48291011",
      "driverId": "22831010",
      "startMs": 1746613680000,
      "endMs": 1746622917522,
      "startLocation": {
        "latitude": 39.758541,
        "longitude": -105.021559
      },
      "endLocation": {
        "latitude": 39.814119,
        "longitude": -105.001865
      },
      "startAddress": "601 Susan Course Apt. 851",
      "endAddress": "97399 Lydia Hills Apt. 110",
      "startCoords": {
        "latitude": 39.758201,
        "longitude": -105.023141
      },
      "endCoords": {
        "latitude": 39.710241,
        "longitude": -105.00654
      },
      "distanceMeters": 75009.2,
      "durationMs": 9237522,
      "drivingDurationMs": 8597635,
      "idlingDurationMs": 639887,
      "fuelConsumedMl": 9535,
      "fuelConsumedGallons": 2.519,
      "maxSpeedMph": 28.4,
      "averageSpeedMph": 18.2,
      "safetyEvents": [],
      "_no_driver_login": false,
      "_fuel_note": ""
    },
    {
      "id": "trip_48291011_20250507_005",
      "vehicleId": "48291011",
      "driverId": "22831010",
      "startMs": 1746640620000,
      "endMs": 1746649285105,
      "startLocation": {
        "latitude": 39.749274,
        "longitude": -105.08106
      },
      "endLocation": {
        "latitude": 39.780905,
        "longitude": -104.969356
      },
      "startAddress": "473 Knight Forge Suite 290",
      "endAddress": "563 Miller Wall",
      "startCoords": {
        "latitude": 39.808805,
        "longitude": -104.939816
      },
      "endCoords": {
        "latitude": 39.712093,
        "longitude": -104.979409
      },
      "distanceMeters": 38126.7,
      "durationMs": 8665105,
      "drivingDurationMs": 7180521,
      "idlingDurationMs": 1484584,
      "fuelConsumedMl": 4849,
      "fuelConsumedGallons": 1.281,
      "maxSpeedMph": 36.8,
      "averageSpeedMph": 9.8,
      "safetyEvents": [],
      "_no_driver_login": false,
      "_fuel_note": ""
    },
    {
      "id": "trip_48291011_20250507_006",
      "vehicleId": "48291011",
      "driverId": "22831010",
      "startMs": 1746642840000,
      "endMs": 1746647521250,
      "startLocation": {
        "latitude": 39.722934,
        "longitude": -105.048557
      },
      "endLocation": {
        "latitude": 39.785391,
        "longitude": -104.910904
      },
      "startAddress": "6063 Brandt Trace",
      "endAddress": "7507 Kristin Coves Apt. 359",
      "startCoords": {
        "latitude": 39.773564,
        "longitude": -105.080769
      },
      "endCoords": {
        "latitude": 39.716418,
        "longitude": -105.050542
      },
      "distanceMeters": 24156.3,
      "durationMs": 4681250,
      "drivingDurationMs": 3832603,
      "idlingDurationMs": 848648,
      "fuelConsumedMl": 3070,
      "fuelConsumedGallons": 0.811,
      "maxSpeedMph": 71.1,
      "averageSpeedMph": 11.5,
      "safetyEvents": [
        {
          "type": "speeding",
          "startMs": 1746645480000,
          "maxSpeedMph": 71.1
        }
      ],
      "_no_driver_login": false,
      "_fuel_note": ""
    },
    {
      "id": "trip_48291011_20250508_001",
      "vehicleId": "48291011",
      "driverId": "22831010",
      "startMs": 1746702060000,
      "endMs": 1746716361526,
      "startLocation": {
        "latitude": 39.718417,
        "longitude": -104.958755
      },
      "endLocation": {
        "latitude": 39.728842,
        "longitude": -105.02188
      },
      "startAddress": "662 Mora Cliffs Suite 251",
      "endAddress": "983 Nicole Point",
      "startCoords": {
        "latitude": 39.804388,
        "longitude": -105.064517
      },
      "endCoords": {
        "latitude": 39.771425,
        "longitude": -105.049678
      },
      "distanceMeters": 70796.7,
      "durationMs": 14301526,
      "drivingDurationMs": 11712042,
      "idlingDurationMs": 2589484,
      "fuelConsumedMl": 9002,
      "fuelConsumedGallons": 2.378,
      "maxSpeedMph": 67.9,
      "averageSpeedMph": 11.1,
      "safetyEvents": [
        {
          "type": "speeding",
          "startMs": 1746712560000,
          "maxSpeedMph": 67.9
        }
      ],
      "_no_driver_login": false,
      "_fuel_note": "QUIRK 5: fuelConsumedGallons is in US gallons. Multiply by 3.785 for litres. Samsara does not link fuel to specific Onfleet tasks."
    },
    {
      "id": "trip_48291011_20250508_002",
      "vehicleId": "48291011",
      "driverId": "22831010",
      "startMs": 1746697500000,
      "endMs": 1746701386020,
      "startLocation": {
        "latitude": 39.779327,
        "longitude": -105.010342
      },
      "endLocation": {
        "latitude": 39.758376,
        "longitude": -105.076474
      },
      "startAddress": "7002 Vicki Greens",
      "endAddress": "43701 Victor Trafficway",
      "startCoords": {
        "latitude": 39.744516,
        "longitude": -104.931356
      },
      "endCoords": {
        "latitude": 39.80502,
        "longitude": -104.961884
      },
      "distanceMeters": 26477.7,
      "durationMs": 3886021,
      "drivingDurationMs": 3129682,
      "idlingDurationMs": 756339,
      "fuelConsumedMl": 3365,
      "fuelConsumedGallons": 0.889,
      "maxSpeedMph": 34.9,
      "averageSpeedMph": 15.2,
      "safetyEvents": [],
      "_no_driver_login": false,
      "_fuel_note": ""
    },
    {
      "id": "trip_48291011_20250509_001",
      "vehicleId": "48291011",
      "driverId": "22831010",
      "startMs": 1746806580000,
      "endMs": 1746815550656,
      "startLocation": {
        "latitude": 39.778756,
        "longitude": -105.048225
      },
      "endLocation": {
        "latitude": 39.75822,
        "longitude": -104.903411
      },
      "startAddress": "52980 Clark Drive Suite 903",
      "endAddress": "90013 Tammy Crescent Apt. 207",
      "startCoords": {
        "latitude": 39.78121,
        "longitude": -104.994393
      },
      "endCoords": {
        "latitude": 39.779509,
        "longitude": -105.022285
      },
      "distanceMeters": 51281.7,
      "durationMs": 8970656,
      "drivingDurationMs": 7654402,
      "idlingDurationMs": 1316255,
      "fuelConsumedMl": 6518,
      "fuelConsumedGallons": 1.722,
      "maxSpeedMph": 50.8,
      "averageSpeedMph": 12.8,
      "safetyEvents": [],
      "_no_driver_login": false,
      "_fuel_note": "QUIRK 5: fuelConsumedGallons is in US gallons. Multiply by 3.785 for litres. Samsara does not link fuel to specific Onfleet tasks."
    },
    {
      "id": "trip_48291011_20250509_002",
      "vehicleId": "48291011",
      "driverId": "22831010",
      "startMs": 1746781860000,
      "endMs": 1746787582684,
      "startLocation": {
        "latitude": 39.81932,
        "longitude": -104.919624
      },
      "endLocation": {
        "latitude": 39.765265,
        "longitude": -104.999687
      },
      "startAddress": "925 White Flats",
      "endAddress": "65827 Wilson Shoals",
      "startCoords": {
        "latitude": 39.79357,
        "longitude": -105.07583
      },
      "endCoords": {
        "latitude": 39.706623,
        "longitude": -104.955172
      },
      "distanceMeters": 39501.8,
      "durationMs": 5722684,
      "drivingDurationMs": 4773369,
      "idlingDurationMs": 949315,
      "fuelConsumedMl": 5023,
      "fuelConsumedGallons": 1.327,
      "maxSpeedMph": 67.5,
      "averageSpeedMph": 15.4,
      "safetyEvents": [
        {
          "type": "speeding",
          "startMs": 1746786120000,
          "maxSpeedMph": 67.5
        }
      ],
      "_no_driver_login": false,
      "_fuel_note": ""
    },
    {
      "id": "trip_48291011_20250509_003",
      "vehicleId": "48291011",
      "driverId": "22831010",
      "startMs": 1746770940000,
      "endMs": 1746778788064,
      "startLocation": {
        "latitude": 39.799139,
        "longitude": -105.059895
      },
      "endLocation": {
        "latitude": 39.72927,
        "longitude": -105.049063
      },
      "startAddress": "80446 Gregory Underpass Suite 629",
      "endAddress": "7149 Hood Circles Apt. 926",
      "startCoords": {
        "latitude": 39.686088,
        "longitude": -104.988842
      },
      "endCoords": {
        "latitude": 39.701814,
        "longitude": -104.933496
      },
      "distanceMeters": 41090.8,
      "durationMs": 7848064,
      "drivingDurationMs": 6797211,
      "idlingDurationMs": 1050853,
      "fuelConsumedMl": 5224,
      "fuelConsumedGallons": 1.38,
      "maxSpeedMph": 42.9,
      "averageSpeedMph": 11.7,
      "safetyEvents": [],
      "_no_driver_login": false,
      "_fuel_note": ""
    },
    {
      "id": "trip_48291011_20250509_004",
      "vehicleId": "48291011",
      "driverId": "22831010",
      "startMs": 1746799920000,
      "endMs": 1746801231106,
      "startLocation": {
        "latitude": 39.708433,
        "longitude": -105.051847
      },
      "endLocation": {
        "latitude": 39.752315,
        "longitude": -104.958073
      },
      "startAddress": "543 Kimberly Inlet",
      "endAddress": "68007 Eric Dale",
      "startCoords": {
        "latitude": 39.68584,
        "longitude": -104.962898
      },
      "endCoords": {
        "latitude": 39.8273,
        "longitude": -105.005266
      },
      "distanceMeters": 7401.3,
      "durationMs": 1311106,
      "drivingDurationMs": 1069180,
      "idlingDurationMs": 241926,
      "fuelConsumedMl": 943,
      "fuelConsumedGallons": 0.249,
      "maxSpeedMph": 59.0,
      "averageSpeedMph": 12.6,
      "safetyEvents": [],
      "_no_driver_login": false,
      "_fuel_note": ""
    },
    {
      "id": "trip_48291011_20250509_005",
      "vehicleId": "48291011",
      "driverId": "22831010",
      "startMs": 1746782700000,
      "endMs": 1746783726501,
      "startLocation": {
        "latitude": 39.716313,
        "longitude": -105.055351
      },
      "endLocation": {
        "latitude": 39.767502,
        "longitude": -104.901098
      },
      "startAddress": "0439 Cody Fords",
      "endAddress": "9354 Jeffrey Fords",
      "startCoords": {
        "latitude": 39.72902,
        "longitude": -104.948025
      },
      "endCoords": {
        "latitude": 39.698705,
        "longitude": -105.031833
      },
      "distanceMeters": 5840.6,
      "durationMs": 1026501,
      "drivingDurationMs": 835707,
      "idlingDurationMs": 190794,
      "fuelConsumedMl": 742,
      "fuelConsumedGallons": 0.196,
      "maxSpeedMph": 29.4,
      "averageSpeedMph": 12.7,
      "safetyEvents": [],
      "_no_driver_login": false,
      "_fuel_note": ""
    },
    {
      "id": "trip_48291011_20250510_001",
      "vehicleId": "48291011",
      "driverId": null,
      "startMs": 1746899400000,
      "endMs": 1746910800000,
      "startLocation": {
        "latitude": 39.775195,
        "longitude": -105.082329
      },
      "endLocation": {
        "latitude": 39.802298,
        "longitude": -104.901078
      },
      "startAddress": "64930 Jason Cliffs",
      "endAddress": "258 Mcdonald Skyway",
      "startCoords": {
        "latitude": 39.70028,
        "longitude": -105.040365
      },
      "endCoords": {
        "latitude": 39.70163,
        "longitude": -105.008665
      },
      "distanceMeters": 54454.2,
      "durationMs": 11400000,
      "drivingDurationMs": 9850353,
      "idlingDurationMs": 1549647,
      "fuelConsumedMl": 6924,
      "fuelConsumedGallons": 1.829,
      "maxSpeedMph": 53.7,
      "averageSpeedMph": 10.7,
      "safetyEvents": [],
      "_no_driver_login": true,
      "_fuel_note": "QUIRK 5: fuelConsumedGallons is in US gallons. Multiply by 3.785 for litres. Samsara does not link fuel to specific Onfleet tasks."
    },
    {
      "id": "trip_48291011_20250510_002",
      "vehicleId": "48291011",
      "driverId": "22831010",
      "startMs": 1746893700000,
      "endMs": 1746902287685,
      "startLocation": {
        "latitude": 39.757886,
        "longitude": -105.085697
      },
      "endLocation": {
        "latitude": 39.788137,
        "longitude": -105.07395
      },
      "startAddress": "3697 Dennis Street",
      "endAddress": "18865 Taylor Mills Suite 678",
      "startCoords": {
        "latitude": 39.826228,
        "longitude": -104.90003
      },
      "endCoords": {
        "latitude": 39.766252,
        "longitude": -104.952067
      },
      "distanceMeters": 51786.0,
      "durationMs": 8587685,
      "drivingDurationMs": 6971149,
      "idlingDurationMs": 1616536,
      "fuelConsumedMl": 6583,
      "fuelConsumedGallons": 1.739,
      "maxSpeedMph": 59.1,
      "averageSpeedMph": 13.5,
      "safetyEvents": [],
      "_no_driver_login": false,
      "_fuel_note": ""
    },
    {
      "id": "trip_48291011_20250510_003",
      "vehicleId": "48291011",
      "driverId": null,
      "startMs": 1746885000000,
      "endMs": 1746889996029,
      "startLocation": {
        "latitude": 39.762268,
        "longitude": -104.977128
      },
      "endLocation": {
        "latitude": 39.811418,
        "longitude": -105.039738
      },
      "startAddress": "2705 Maurice Dam Apt. 669",
      "endAddress": "4630 Rogers Spurs",
      "startCoords": {
        "latitude": 39.735321,
        "longitude": -104.904648
      },
      "endCoords": {
        "latitude": 39.751901,
        "longitude": -105.073441
      },
      "distanceMeters": 30989.8,
      "durationMs": 4996030,
      "drivingDurationMs": 4358339,
      "idlingDurationMs": 637691,
      "fuelConsumedMl": 3941,
      "fuelConsumedGallons": 1.041,
      "maxSpeedMph": 70.7,
      "averageSpeedMph": 13.9,
      "safetyEvents": [
        {
          "type": "speeding",
          "startMs": 1746886320000,
          "maxSpeedMph": 70.7
        }
      ],
      "_no_driver_login": true,
      "_fuel_note": ""
    },
    {
      "id": "trip_48291011_20250511_001",
      "vehicleId": "48291011",
      "driverId": "22831010",
      "startMs": 1746975960000,
      "endMs": 1746988566955,
      "startLocation": {
        "latitude": 39.77261,
        "longitude": -104.972059
      },
      "endLocation": {
        "latitude": 39.761598,
        "longitude": -105.069615
      },
      "startAddress": "221 Willie Pine Suite 596",
      "endAddress": "56425 Wagner Burg Suite 592",
      "startCoords": {
        "latitude": 39.745312,
        "longitude": -105.074925
      },
      "endCoords": {
        "latitude": 39.687869,
        "longitude": -105.041706
      },
      "distanceMeters": 78987.7,
      "durationMs": 12606955,
      "drivingDurationMs": 11560429,
      "idlingDurationMs": 1046527,
      "fuelConsumedMl": 10043,
      "fuelConsumedGallons": 2.653,
      "maxSpeedMph": 42.4,
      "averageSpeedMph": 14.0,
      "safetyEvents": [],
      "_no_driver_login": false,
      "_fuel_note": "QUIRK 5: fuelConsumedGallons is in US gallons. Multiply by 3.785 for litres. Samsara does not link fuel to specific Onfleet tasks."
    },
    {
      "id": "trip_48291011_20250511_002",
      "vehicleId": "48291011",
      "driverId": "22831010",
      "startMs": 1746958080000,
      "endMs": 1746965076563,
      "startLocation": {
        "latitude": 39.788724,
        "longitude": -105.027537
      },
      "endLocation": {
        "latitude": 39.779126,
        "longitude": -105.022359
      },
      "startAddress": "63065 Donald Ridge Apt. 058",
      "endAddress": "782 Castaneda Cliff",
      "startCoords": {
        "latitude": 39.730093,
        "longitude": -105.073398
      },
      "endCoords": {
        "latitude": 39.820326,
        "longitude": -105.001819
      },
      "distanceMeters": 46939.3,
      "durationMs": 6996564,
      "drivingDurationMs": 6359415,
      "idlingDurationMs": 637149,
      "fuelConsumedMl": 5970,
      "fuelConsumedGallons": 1.577,
      "maxSpeedMph": 64.5,
      "averageSpeedMph": 15.0,
      "safetyEvents": [],
      "_no_driver_login": false,
      "_fuel_note": ""
    },
    {
      "id": "trip_48291011_20250511_003",
      "vehicleId": "48291011",
      "driverId": "22831010",
      "startMs": 1746964560000,
      "endMs": 1746970504607,
      "startLocation": {
        "latitude": 39.779328,
        "longitude": -104.979439
      },
      "endLocation": {
        "latitude": 39.771724,
        "longitude": -104.905335
      },
      "startAddress": "7442 Gonzalez Turnpike Suite 450",
      "endAddress": "1406 Jeremy Valley Apt. 552",
      "startCoords": {
        "latitude": 39.68915,
        "longitude": -104.992414
      },
      "endCoords": {
        "latitude": 39.765569,
        "longitude": -104.96199
      },
      "distanceMeters": 27732.2,
      "durationMs": 5944607,
      "drivingDurationMs": 5133902,
      "idlingDurationMs": 810706,
      "fuelConsumedMl": 3524,
      "fuelConsumedGallons": 0.931,
      "maxSpeedMph": 64.9,
      "averageSpeedMph": 10.4,
      "safetyEvents": [],
      "_no_driver_login": false,
      "_fuel_note": ""
    },
    {
      "id": "trip_48291011_20250511_004",
      "vehicleId": "48291011",
      "driverId": "22831010",
      "startMs": 1746985620000,
      "endMs": 1746989827264,
      "startLocation": {
        "latitude": 39.766664,
        "longitude": -104.90352
      },
      "endLocation": {
        "latitude": 39.692467,
        "longitude": -105.058426
      },
      "startAddress": "4148 Erin Valley Apt. 769",
      "endAddress": "246 Jones Lake",
      "startCoords": {
        "latitude": 39.82534,
        "longitude": -104.961371
      },
      "endCoords": {
        "latitude": 39.800935,
        "longitude": -105.000327
      },
      "distanceMeters": 18100.4,
      "durationMs": 4207265,
      "drivingDurationMs": 3610321,
      "idlingDurationMs": 596944,
      "fuelConsumedMl": 2302,
      "fuelConsumedGallons": 0.608,
      "maxSpeedMph": 36.6,
      "averageSpeedMph": 9.6,
      "safetyEvents": [],
      "_no_driver_login": false,
      "_fuel_note": ""
    },
    {
      "id": "trip_48291011_20250512_001",
      "vehicleId": "48291011",
      "driverId": "22831010",
      "startMs": 1747073280000,
      "endMs": 1747076466480,
      "startLocation": {
        "latitude": 39.801703,
        "longitude": -105.031327
      },
      "endLocation": {
        "latitude": 39.726612,
        "longitude": -105.033636
      },
      "startAddress": "3696 Jake Roads Apt. 464",
      "endAddress": "3942 Ellis Ranch Suite 343",
      "startCoords": {
        "latitude": 39.707431,
        "longitude": -105.011263
      },
      "endCoords": {
        "latitude": 39.724812,
        "longitude": -105.011853
      },
      "distanceMeters": 21818.3,
      "durationMs": 3186481,
      "drivingDurationMs": 2747288,
      "idlingDurationMs": 439192,
      "fuelConsumedMl": 2775,
      "fuelConsumedGallons": 0.733,
      "maxSpeedMph": 54.8,
      "averageSpeedMph": 15.3,
      "safetyEvents": [],
      "_no_driver_login": false,
      "_fuel_note": "QUIRK 5: fuelConsumedGallons is in US gallons. Multiply by 3.785 for litres. Samsara does not link fuel to specific Onfleet tasks."
    },
    {
      "id": "trip_48291011_20250512_002",
      "vehicleId": "48291011",
      "driverId": "22831010",
      "startMs": 1747060980000,
      "endMs": 1747064375297,
      "startLocation": {
        "latitude": 39.81367,
        "longitude": -104.901053
      },
      "endLocation": {
        "latitude": 39.763984,
        "longitude": -104.942384
      },
      "startAddress": "2981 Mitchell Place",
      "endAddress": "2809 April Extension Suite 238",
      "startCoords": {
        "latitude": 39.717433,
        "longitude": -104.952606
      },
      "endCoords": {
        "latitude": 39.731496,
        "longitude": -104.95181
      },
      "distanceMeters": 16628.5,
      "durationMs": 3395298,
      "drivingDurationMs": 2884789,
      "idlingDurationMs": 510509,
      "fuelConsumedMl": 2116,
      "fuelConsumedGallons": 0.559,
      "maxSpeedMph": 31.2,
      "averageSpeedMph": 11.0,
      "safetyEvents": [],
      "_no_driver_login": false,
      "_fuel_note": ""
    },
    {
      "id": "trip_48291011_20250512_003",
      "vehicleId": "48291011",
      "driverId": "22831010",
      "startMs": 1747033080000,
      "endMs": 1747045148420,
      "startLocation": {
        "latitude": 39.756603,
        "longitude": -105.014096
      },
      "endLocation": {
        "latitude": 39.68874,
        "longitude": -105.007234
      },
      "startAddress": "556 Ramirez Extensions Apt. 001",
      "endAddress": "97763 West Hill Apt. 514",
      "startCoords": {
        "latitude": 39.75687,
        "longitude": -105.05309
      },
      "endCoords": {
        "latitude": 39.795931,
        "longitude": -105.031317
      },
      "distanceMeters": 77546.9,
      "durationMs": 12068421,
      "drivingDurationMs": 10723463,
      "idlingDurationMs": 1344958,
      "fuelConsumedMl": 9861,
      "fuelConsumedGallons": 2.605,
      "maxSpeedMph": 37.7,
      "averageSpeedMph": 14.4,
      "safetyEvents": [],
      "_no_driver_login": false,
      "_fuel_note": ""
    },
    {
      "id": "trip_48291011_20250512_004",
      "vehicleId": "48291011",
      "driverId": "22831010",
      "startMs": 1747054020000,
      "endMs": 1747056876743,
      "startLocation": {
        "latitude": 39.703903,
        "longitude": -104.932291
      },
      "endLocation": {
        "latitude": 39.720619,
        "longitude": -105.086959
      },
      "startAddress": "25027 Wilson Haven Apt. 656",
      "endAddress": "475 Yates Flats",
      "startCoords": {
        "latitude": 39.747918,
        "longitude": -105.007195
      },
      "endCoords": {
        "latitude": 39.713861,
        "longitude": -104.950475
      },
      "distanceMeters": 22800.5,
      "durationMs": 2856743,
      "drivingDurationMs": 2609551,
      "idlingDurationMs": 247192,
      "fuelConsumedMl": 2900,
      "fuelConsumedGallons": 0.766,
      "maxSpeedMph": 55.0,
      "averageSpeedMph": 17.9,
      "safetyEvents": [],
      "_no_driver_login": false,
      "_fuel_note": ""
    },
    {
      "id": "trip_48291011_20250512_005",
      "vehicleId": "48291011",
      "driverId": "22831010",
      "startMs": 1747043220000,
      "endMs": 1747060127375,
      "startLocation": {
        "latitude": 39.735697,
        "longitude": -105.018217
      },
      "endLocation": {
        "latitude": 39.80993,
        "longitude": -104.921933
      },
      "startAddress": "5025 Nicole Village",
      "endAddress": "1458 Thomas Radial",
      "startCoords": {
        "latitude": 39.773935,
        "longitude": -105.029744
      },
      "endCoords": {
        "latitude": 39.70169,
        "longitude": -104.951697
      },
      "distanceMeters": 81122.0,
      "durationMs": 16907375,
      "drivingDurationMs": 15139640,
      "idlingDurationMs": 1767736,
      "fuelConsumedMl": 10315,
      "fuelConsumedGallons": 2.725,
      "maxSpeedMph": 36.2,
      "averageSpeedMph": 10.7,
      "safetyEvents": [],
      "_no_driver_login": false,
      "_fuel_note": ""
    },
    {
      "id": "trip_48291011_20250513_001",
      "vehicleId": "48291011",
      "driverId": "22831010",
      "startMs": 1747140600000,
      "endMs": 1747150587142,
      "startLocation": {
        "latitude": 39.775662,
        "longitude": -104.999083
      },
      "endLocation": {
        "latitude": 39.782649,
        "longitude": -104.944328
      },
      "startAddress": "602 Ronald Islands",
      "endAddress": "26157 Arnold Turnpike",
      "startCoords": {
        "latitude": 39.685414,
        "longitude": -104.958509
      },
      "endCoords": {
        "latitude": 39.712355,
        "longitude": -105.064812
      },
      "distanceMeters": 69271.7,
      "durationMs": 9987143,
      "drivingDurationMs": 9287002,
      "idlingDurationMs": 700140,
      "fuelConsumedMl": 8809,
      "fuelConsumedGallons": 2.327,
      "maxSpeedMph": 36.9,
      "averageSpeedMph": 15.5,
      "safetyEvents": [],
      "_no_driver_login": false,
      "_fuel_note": "QUIRK 5: fuelConsumedGallons is in US gallons. Multiply by 3.785 for litres. Samsara does not link fuel to specific Onfleet tasks."
    },
    {
      "id": "trip_48291011_20250513_002",
      "vehicleId": "48291011",
      "driverId": "22831010",
      "startMs": 1747155480000,
      "endMs": 1747163755704,
      "startLocation": {
        "latitude": 39.685875,
        "longitude": -104.906076
      },
      "endLocation": {
        "latitude": 39.717238,
        "longitude": -105.083565
      },
      "startAddress": "952 Sandra Estate",
      "endAddress": "64268 Dale Park",
      "startCoords": {
        "latitude": 39.776137,
        "longitude": -104.961686
      },
      "endCoords": {
        "latitude": 39.781711,
        "longitude": -105.060471
      },
      "distanceMeters": 58202.2,
      "durationMs": 8275705,
      "drivingDurationMs": 6652058,
      "idlingDurationMs": 1623647,
      "fuelConsumedMl": 7400,
      "fuelConsumedGallons": 1.955,
      "maxSpeedMph": 61.6,
      "averageSpeedMph": 15.7,
      "safetyEvents": [],
      "_no_driver_login": false,
      "_fuel_note": ""
    },
    {
      "id": "trip_48291011_20250513_003",
      "vehicleId": "48291011",
      "driverId": "22831010",
      "startMs": 1747128540000,
      "endMs": 1747140323020,
      "startLocation": {
        "latitude": 39.789973,
        "longitude": -105.075683
      },
      "endLocation": {
        "latitude": 39.752004,
        "longitude": -104.902477
      },
      "startAddress": "01647 Carrie Branch",
      "endAddress": "17011 Anderson Mount Suite 494",
      "startCoords": {
        "latitude": 39.810232,
        "longitude": -104.987885
      },
      "endCoords": {
        "latitude": 39.788429,
        "longitude": -105.022272
      },
      "distanceMeters": 59158.1,
      "durationMs": 11783021,
      "drivingDurationMs": 9558797,
      "idlingDurationMs": 2224224,
      "fuelConsumedMl": 7522,
      "fuelConsumedGallons": 1.987,
      "maxSpeedMph": 54.4,
      "averageSpeedMph": 11.2,
      "safetyEvents": [],
      "_no_driver_login": false,
      "_fuel_note": ""
    },
    {
      "id": "trip_48291011_20250513_004",
      "vehicleId": "48291011",
      "driverId": "22831010",
      "startMs": 1747134120000,
      "endMs": 1747136443105,
      "startLocation": {
        "latitude": 39.718166,
        "longitude": -105.060458
      },
      "endLocation": {
        "latitude": 39.713846,
        "longitude": -104.911809
      },
      "startAddress": "384 Albert Terrace Apt. 281",
      "endAddress": "0007 John Field",
      "startCoords": {
        "latitude": 39.738342,
        "longitude": -105.05238
      },
      "endCoords": {
        "latitude": 39.763813,
        "longitude": -104.910704
      },
      "distanceMeters": 10706.8,
      "durationMs": 2323106,
      "drivingDurationMs": 2046848,
      "idlingDurationMs": 276258,
      "fuelConsumedMl": 1363,
      "fuelConsumedGallons": 0.36,
      "maxSpeedMph": 71.8,
      "averageSpeedMph": 10.3,
      "safetyEvents": [
        {
          "type": "speeding",
          "startMs": 1747135500000,
          "maxSpeedMph": 71.8
        }
      ],
      "_no_driver_login": false,
      "_fuel_note": ""
    },
    {
      "id": "trip_48291011_20250513_005",
      "vehicleId": "48291011",
      "driverId": "22831010",
      "startMs": 1747141080000,
      "endMs": 1747149475262,
      "startLocation": {
        "latitude": 39.703663,
        "longitude": -104.994962
      },
      "endLocation": {
        "latitude": 39.744961,
        "longitude": -105.039691
      },
      "startAddress": "996 Herrera Vista",
      "endAddress": "163 Allen Terrace",
      "startCoords": {
        "latitude": 39.808149,
        "longitude": -105.082424
      },
      "endCoords": {
        "latitude": 39.748963,
        "longitude": -104.931584
      },
      "distanceMeters": 52049.3,
      "durationMs": 8395262,
      "drivingDurationMs": 7379059,
      "idlingDurationMs": 1016203,
      "fuelConsumedMl": 6617,
      "fuelConsumedGallons": 1.748,
      "maxSpeedMph": 38.5,
      "averageSpeedMph": 13.9,
      "safetyEvents": [],
      "_no_driver_login": false,
      "_fuel_note": ""
    },
    {
      "id": "trip_48291011_20250514_001",
      "vehicleId": "48291011",
      "driverId": "22831010",
      "startMs": 1747219860000,
      "endMs": 1747221383646,
      "startLocation": {
        "latitude": 39.775941,
        "longitude": -104.990447
      },
      "endLocation": {
        "latitude": 39.684395,
        "longitude": -104.93321
      },
      "startAddress": "5091 Douglas Mission",
      "endAddress": "60896 Arnold Walk",
      "startCoords": {
        "latitude": 39.684607,
        "longitude": -105.057586
      },
      "endCoords": {
        "latitude": 39.789607,
        "longitude": -105.016129
      },
      "distanceMeters": 11449.4,
      "durationMs": 1523647,
      "drivingDurationMs": 1309765,
      "idlingDurationMs": 213882,
      "fuelConsumedMl": 1457,
      "fuelConsumedGallons": 0.385,
      "maxSpeedMph": 32.0,
      "averageSpeedMph": 16.8,
      "safetyEvents": [],
      "_no_driver_login": false,
      "_fuel_note": "QUIRK 5: fuelConsumedGallons is in US gallons. Multiply by 3.785 for litres. Samsara does not link fuel to specific Onfleet tasks."
    },
    {
      "id": "trip_48291011_20250514_002",
      "vehicleId": "48291011",
      "driverId": "22831010",
      "startMs": 1747213980000,
      "endMs": 1747222653321,
      "startLocation": {
        "latitude": 39.758734,
        "longitude": -104.911663
      },
      "endLocation": {
        "latitude": 39.719152,
        "longitude": -105.047041
      },
      "startAddress": "172 Jones Wall",
      "endAddress": "0002 Heath Pines",
      "startCoords": {
        "latitude": 39.688712,
        "longitude": -104.964063
      },
      "endCoords": {
        "latitude": 39.721768,
        "longitude": -104.901585
      },
      "distanceMeters": 48903.4,
      "durationMs": 8673322,
      "drivingDurationMs": 7950032,
      "idlingDurationMs": 723290,
      "fuelConsumedMl": 6219,
      "fuelConsumedGallons": 1.643,
      "maxSpeedMph": 45.6,
      "averageSpeedMph": 12.6,
      "safetyEvents": [],
      "_no_driver_login": false,
      "_fuel_note": ""
    },
    {
      "id": "trip_48291011_20250514_003",
      "vehicleId": "48291011",
      "driverId": "22831010",
      "startMs": 1747231380000,
      "endMs": 1747239623588,
      "startLocation": {
        "latitude": 39.773962,
        "longitude": -105.021144
      },
      "endLocation": {
        "latitude": 39.728635,
        "longitude": -105.021847
      },
      "startAddress": "442 Hines Streets",
      "endAddress": "67095 Jason Streets",
      "startCoords": {
        "latitude": 39.73419,
        "longitude": -105.034583
      },
      "endCoords": {
        "latitude": 39.760998,
        "longitude": -104.903604
      },
      "distanceMeters": 37534.6,
      "durationMs": 8243589,
      "drivingDurationMs": 7044895,
      "idlingDurationMs": 1198693,
      "fuelConsumedMl": 4773,
      "fuelConsumedGallons": 1.261,
      "maxSpeedMph": 58.6,
      "averageSpeedMph": 10.2,
      "safetyEvents": [],
      "_no_driver_login": false,
      "_fuel_note": ""
    },
    {
      "id": "trip_48291011_20250514_004",
      "vehicleId": "48291011",
      "driverId": "22831010",
      "startMs": 1747213860000,
      "endMs": 1747228160885,
      "startLocation": {
        "latitude": 39.7753,
        "longitude": -105.015735
      },
      "endLocation": {
        "latitude": 39.759461,
        "longitude": -104.900564
      },
      "startAddress": "52415 Levine Camp Apt. 491",
      "endAddress": "08931 Burns Island Suite 132",
      "startCoords": {
        "latitude": 39.691635,
        "longitude": -105.005657
      },
      "endCoords": {
        "latitude": 39.715111,
        "longitude": -105.030308
      },
      "distanceMeters": 70601.0,
      "durationMs": 14300886,
      "drivingDurationMs": 12600149,
      "idlingDurationMs": 1700737,
      "fuelConsumedMl": 8975,
      "fuelConsumedGallons": 2.371,
      "maxSpeedMph": 63.3,
      "averageSpeedMph": 11.0,
      "safetyEvents": [],
      "_no_driver_login": false,
      "_fuel_note": ""
    },
    {
      "id": "trip_48291011_20250514_005",
      "vehicleId": "48291011",
      "driverId": "22831010",
      "startMs": 1747233240000,
      "endMs": 1747240192043,
      "startLocation": {
        "latitude": 39.824579,
        "longitude": -104.926537
      },
      "endLocation": {
        "latitude": 39.763288,
        "longitude": -104.916148
      },
      "startAddress": "32289 Davis Forks",
      "endAddress": "52360 Kristi Hills",
      "startCoords": {
        "latitude": 39.769637,
        "longitude": -104.970849
      },
      "endCoords": {
        "latitude": 39.765391,
        "longitude": -104.927388
      },
      "distanceMeters": 50575.6,
      "durationMs": 6952044,
      "drivingDurationMs": 5774393,
      "idlingDurationMs": 1177650,
      "fuelConsumedMl": 6431,
      "fuelConsumedGallons": 1.699,
      "maxSpeedMph": 43.7,
      "averageSpeedMph": 16.3,
      "safetyEvents": [],
      "_no_driver_login": false,
      "_fuel_note": ""
    },
    {
      "id": "trip_48291011_20250515_001",
      "vehicleId": "48291011",
      "driverId": "22831010",
      "startMs": 1747327740000,
      "endMs": 1747331316504,
      "startLocation": {
        "latitude": 39.760068,
        "longitude": -104.964839
      },
      "endLocation": {
        "latitude": 39.689151,
        "longitude": -104.981159
      },
      "startAddress": "6882 Kerry Common Suite 248",
      "endAddress": "86201 Smith Point Suite 779",
      "startCoords": {
        "latitude": 39.724117,
        "longitude": -104.943166
      },
      "endCoords": {
        "latitude": 39.720334,
        "longitude": -104.924768
      },
      "distanceMeters": 24241.1,
      "durationMs": 3576505,
      "drivingDurationMs": 3273513,
      "idlingDurationMs": 302992,
      "fuelConsumedMl": 3081,
      "fuelConsumedGallons": 0.814,
      "maxSpeedMph": 48.9,
      "averageSpeedMph": 15.2,
      "safetyEvents": [],
      "_no_driver_login": false,
      "_fuel_note": "QUIRK 5: fuelConsumedGallons is in US gallons. Multiply by 3.785 for litres. Samsara does not link fuel to specific Onfleet tasks."
    },
    {
      "id": "trip_48291011_20250515_002",
      "vehicleId": "48291011",
      "driverId": "22831010",
      "startMs": 1747325460000,
      "endMs": 1747330119883,
      "startLocation": {
        "latitude": 39.739431,
        "longitude": -104.907226
      },
      "endLocation": {
        "latitude": 39.74889,
        "longitude": -105.045609
      },
      "startAddress": "212 Erika River",
      "endAddress": "0275 Yvonne Courts Apt. 900",
      "startCoords": {
        "latitude": 39.742533,
        "longitude": -105.012766
      },
      "endCoords": {
        "latitude": 39.762049,
        "longitude": -105.040949
      },
      "distanceMeters": 22795.8,
      "durationMs": 4659884,
      "drivingDurationMs": 3983685,
      "idlingDurationMs": 676199,
      "fuelConsumedMl": 2900,
      "fuelConsumedGallons": 0.766,
      "maxSpeedMph": 31.3,
      "averageSpeedMph": 10.9,
      "safetyEvents": [],
      "_no_driver_login": false,
      "_fuel_note": ""
    },
    {
      "id": "trip_48291011_20250515_003",
      "vehicleId": "48291011",
      "driverId": "22831010",
      "startMs": 1747328400000,
      "endMs": 1747336395661,
      "startLocation": {
        "latitude": 39.692079,
        "longitude": -104.945462
      },
      "endLocation": {
        "latitude": 39.823555,
        "longitude": -105.024994
      },
      "startAddress": "46205 Hill Courts Apt. 843",
      "endAddress": "055 Jackson Ferry Apt. 890",
      "startCoords": {
        "latitude": 39.783864,
        "longitude": -105.06643
      },
      "endCoords": {
        "latitude": 39.75891,
        "longitude": -104.973651
      },
      "distanceMeters": 55795.0,
      "durationMs": 7995661,
      "drivingDurationMs": 6717105,
      "idlingDurationMs": 1278557,
      "fuelConsumedMl": 7094,
      "fuelConsumedGallons": 1.874,
      "maxSpeedMph": 55.9,
      "averageSpeedMph": 15.6,
      "safetyEvents": [],
      "_no_driver_login": false,
      "_fuel_note": ""
    },
    {
      "id": "trip_48291011_20250515_004",
      "vehicleId": "48291011",
      "driverId": "22831010",
      "startMs": 1747332180000,
      "endMs": 1747335500968,
      "startLocation": {
        "latitude": 39.780497,
        "longitude": -104.934184
      },
      "endLocation": {
        "latitude": 39.778186,
        "longitude": -105.066072
      },
      "startAddress": "89932 Joseph River Suite 841",
      "endAddress": "623 Garcia Shore",
      "startCoords": {
        "latitude": 39.773963,
        "longitude": -104.933073
      },
      "endCoords": {
        "latitude": 39.696901,
        "longitude": -105.058024
      },
      "distanceMeters": 17033.9,
      "durationMs": 3320968,
      "drivingDurationMs": 3032202,
      "idlingDurationMs": 288766,
      "fuelConsumedMl": 2165,
      "fuelConsumedGallons": 0.572,
      "maxSpeedMph": 30.3,
      "averageSpeedMph": 11.5,
      "safetyEvents": [],
      "_no_driver_login": false,
      "_fuel_note": ""
    },
    {
      "id": "trip_48291011_20250515_005",
      "vehicleId": "48291011",
      "driverId": "22831010",
      "startMs": 1747293720000,
      "endMs": 1747299317420,
      "startLocation": {
        "latitude": 39.812443,
        "longitude": -104.935895
      },
      "endLocation": {
        "latitude": 39.686891,
        "longitude": -104.97197
      },
      "startAddress": "6432 Torres Canyon",
      "endAddress": "346 Lewis Summit Suite 538",
      "startCoords": {
        "latitude": 39.68388,
        "longitude": -105.015825
      },
      "endCoords": {
        "latitude": 39.702389,
        "longitude": -104.983114
      },
      "distanceMeters": 35069.2,
      "durationMs": 5597421,
      "drivingDurationMs": 5088333,
      "idlingDurationMs": 509087,
      "fuelConsumedMl": 4459,
      "fuelConsumedGallons": 1.178,
      "maxSpeedMph": 50.4,
      "averageSpeedMph": 14.0,
      "safetyEvents": [],
      "_no_driver_login": false,
      "_fuel_note": ""
    },
    {
      "id": "trip_48291011_20250515_006",
      "vehicleId": "48291011",
      "driverId": "22831010",
      "startMs": 1747319520000,
      "endMs": 1747328226193,
      "startLocation": {
        "latitude": 39.818629,
        "longitude": -105.085118
      },
      "endLocation": {
        "latitude": 39.802745,
        "longitude": -105.007017
      },
      "startAddress": "50817 George Squares Suite 739",
      "endAddress": "53368 Stephanie Mills",
      "startCoords": {
        "latitude": 39.780261,
        "longitude": -105.010637
      },
      "endCoords": {
        "latitude": 39.737008,
        "longitude": -105.028397
      },
      "distanceMeters": 61321.3,
      "durationMs": 8706193,
      "drivingDurationMs": 8460968,
      "idlingDurationMs": 245225,
      "fuelConsumedMl": 7798,
      "fuelConsumedGallons": 2.06,
      "maxSpeedMph": 56.6,
      "averageSpeedMph": 15.8,
      "safetyEvents": [],
      "_no_driver_login": false,
      "_fuel_note": ""
    },
    {
      "id": "trip_48291011_20250516_001",
      "vehicleId": "48291011",
      "driverId": "22831010",
      "startMs": 1747417860000,
      "endMs": 1747425126086,
      "startLocation": {
        "latitude": 39.779146,
        "longitude": -104.907079
      },
      "endLocation": {
        "latitude": 39.822083,
        "longitude": -105.042047
      },
      "startAddress": "557 Figueroa Mission Suite 188",
      "endAddress": "566 Turner Points",
      "startCoords": {
        "latitude": 39.717203,
        "longitude": -104.909409
      },
      "endCoords": {
        "latitude": 39.737673,
        "longitude": -105.075509
      },
      "distanceMeters": 39440.6,
      "durationMs": 7266087,
      "drivingDurationMs": 6042937,
      "idlingDurationMs": 1223149,
      "fuelConsumedMl": 5016,
      "fuelConsumedGallons": 1.325,
      "maxSpeedMph": 62.7,
      "averageSpeedMph": 12.1,
      "safetyEvents": [],
      "_no_driver_login": false,
      "_fuel_note": "QUIRK 5: fuelConsumedGallons is in US gallons. Multiply by 3.785 for litres. Samsara does not link fuel to specific Onfleet tasks."
    },
    {
      "id": "trip_48291011_20250516_002",
      "vehicleId": "48291011",
      "driverId": "22831010",
      "startMs": 1747396500000,
      "endMs": 1747405445944,
      "startLocation": {
        "latitude": 39.764288,
        "longitude": -105.025071
      },
      "endLocation": {
        "latitude": 39.814708,
        "longitude": -105.044079
      },
      "startAddress": "6630 King Stravenue",
      "endAddress": "363 Ashley Crescent Suite 516",
      "startCoords": {
        "latitude": 39.725654,
        "longitude": -104.956406
      },
      "endCoords": {
        "latitude": 39.806605,
        "longitude": -104.977434
      },
      "distanceMeters": 59082.3,
      "durationMs": 8945944,
      "drivingDurationMs": 8502559,
      "idlingDurationMs": 443386,
      "fuelConsumedMl": 7510,
      "fuelConsumedGallons": 1.984,
      "maxSpeedMph": 39.1,
      "averageSpeedMph": 14.8,
      "safetyEvents": [],
      "_no_driver_login": false,
      "_fuel_note": ""
    },
    {
      "id": "trip_48291011_20250517_001",
      "vehicleId": "48291011",
      "driverId": "22831010",
      "startMs": 1747493880000,
      "endMs": 1747495299305,
      "startLocation": {
        "latitude": 39.807442,
        "longitude": -105.074442
      },
      "endLocation": {
        "latitude": 39.824756,
        "longitude": -105.030588
      },
      "startAddress": "6243 Jacqueline Radial",
      "endAddress": "435 Julia Trace",
      "startCoords": {
        "latitude": 39.713036,
        "longitude": -104.97907
      },
      "endCoords": {
        "latitude": 39.728009,
        "longitude": -104.924569
      },
      "distanceMeters": 7744.3,
      "durationMs": 1419305,
      "drivingDurationMs": 1192981,
      "idlingDurationMs": 226324,
      "fuelConsumedMl": 984,
      "fuelConsumedGallons": 0.26,
      "maxSpeedMph": 62.0,
      "averageSpeedMph": 12.2,
      "safetyEvents": [],
      "_no_driver_login": false,
      "_fuel_note": "QUIRK 5: fuelConsumedGallons is in US gallons. Multiply by 3.785 for litres. Samsara does not link fuel to specific Onfleet tasks."
    },
    {
      "id": "trip_48291011_20250517_002",
      "vehicleId": "48291011",
      "driverId": "22831010",
      "startMs": 1747487640000,
      "endMs": 1747490770340,
      "startLocation": {
        "latitude": 39.798073,
        "longitude": -104.937832
      },
      "endLocation": {
        "latitude": 39.802885,
        "longitude": -104.978771
      },
      "startAddress": "21741 Coleman Knoll Suite 650",
      "endAddress": "377 White Lock Apt. 247",
      "startCoords": {
        "latitude": 39.775372,
        "longitude": -105.014768
      },
      "endCoords": {
        "latitude": 39.81768,
        "longitude": -104.929752
      },
      "distanceMeters": 15804.3,
      "durationMs": 3130341,
      "drivingDurationMs": 2587380,
      "idlingDurationMs": 542960,
      "fuelConsumedMl": 2010,
      "fuelConsumedGallons": 0.531,
      "maxSpeedMph": 47.6,
      "averageSpeedMph": 11.3,
      "safetyEvents": [],
      "_no_driver_login": false,
      "_fuel_note": ""
    },
    {
      "id": "trip_48291011_20250517_003",
      "vehicleId": "48291011",
      "driverId": "22831010",
      "startMs": 1747480500000,
      "endMs": 1747493109451,
      "startLocation": {
        "latitude": 39.78297,
        "longitude": -104.922235
      },
      "endLocation": {
        "latitude": 39.704588,
        "longitude": -105.002092
      },
      "startAddress": "309 Mary Motorway Suite 089",
      "endAddress": "697 Wayne Bypass Suite 769",
      "startCoords": {
        "latitude": 39.802584,
        "longitude": -104.905032
      },
      "endCoords": {
        "latitude": 39.747889,
        "longitude": -104.944712
      },
      "distanceMeters": 74603.6,
      "durationMs": 12609452,
      "drivingDurationMs": 11060146,
      "idlingDurationMs": 1549306,
      "fuelConsumedMl": 9486,
      "fuelConsumedGallons": 2.506,
      "maxSpeedMph": 28.3,
      "averageSpeedMph": 13.2,
      "safetyEvents": [],
      "_no_driver_login": false,
      "_fuel_note": ""
    },
    {
      "id": "trip_48291011_20250517_004",
      "vehicleId": "48291011",
      "driverId": "22831010",
      "startMs": 1747490700000,
      "endMs": 1747497591349,
      "startLocation": {
        "latitude": 39.754464,
        "longitude": -105.008393
      },
      "endLocation": {
        "latitude": 39.804488,
        "longitude": -104.960709
      },
      "startAddress": "97208 Jodi Key Suite 650",
      "endAddress": "9664 Stacy Heights Apt. 849",
      "startCoords": {
        "latitude": 39.773527,
        "longitude": -104.977295
      },
      "endCoords": {
        "latitude": 39.806673,
        "longitude": -104.936735
      },
      "distanceMeters": 42243.9,
      "durationMs": 6891349,
      "drivingDurationMs": 5762432,
      "idlingDurationMs": 1128917,
      "fuelConsumedMl": 5371,
      "fuelConsumedGallons": 1.419,
      "maxSpeedMph": 51.1,
      "averageSpeedMph": 13.7,
      "safetyEvents": [],
      "_no_driver_login": false,
      "_fuel_note": ""
    },
    {
      "id": "trip_48291011_20250518_001",
      "vehicleId": "48291011",
      "driverId": "22831010",
      "startMs": 1747586880000,
      "endMs": 1747591236661,
      "startLocation": {
        "latitude": 39.789617,
        "longitude": -104.916033
      },
      "endLocation": {
        "latitude": 39.826017,
        "longitude": -105.027539
      },
      "startAddress": "90910 Amber Springs",
      "endAddress": "21697 Randall Stravenue",
      "startCoords": {
        "latitude": 39.771189,
        "longitude": -104.936933
      },
      "endCoords": {
        "latitude": 39.791548,
        "longitude": -104.90953
      },
      "distanceMeters": 26735.5,
      "durationMs": 4356662,
      "drivingDurationMs": 3987444,
      "idlingDurationMs": 369218,
      "fuelConsumedMl": 3399,
      "fuelConsumedGallons": 0.898,
      "maxSpeedMph": 53.5,
      "averageSpeedMph": 13.7,
      "safetyEvents": [],
      "_no_driver_login": false,
      "_fuel_note": "QUIRK 5: fuelConsumedGallons is in US gallons. Multiply by 3.785 for litres. Samsara does not link fuel to specific Onfleet tasks."
    },
    {
      "id": "trip_48291011_20250518_002",
      "vehicleId": "48291011",
      "driverId": "22831010",
      "startMs": 1747579860000,
      "endMs": 1747595637293,
      "startLocation": {
        "latitude": 39.727333,
        "longitude": -104.927522
      },
      "endLocation": {
        "latitude": 39.807542,
        "longitude": -105.008475
      },
      "startAddress": "90871 Evans Path",
      "endAddress": "3168 Anthony Mill",
      "startCoords": {
        "latitude": 39.690422,
        "longitude": -104.984387
      },
      "endCoords": {
        "latitude": 39.742543,
        "longitude": -105.062854
      },
      "distanceMeters": 84604.9,
      "durationMs": 15777293,
      "drivingDurationMs": 13383431,
      "idlingDurationMs": 2393862,
      "fuelConsumedMl": 10758,
      "fuelConsumedGallons": 2.842,
      "maxSpeedMph": 44.6,
      "averageSpeedMph": 12.0,
      "safetyEvents": [],
      "_no_driver_login": false,
      "_fuel_note": ""
    },
    {
      "id": "trip_48291011_20250519_001",
      "vehicleId": "48291011",
      "driverId": "22831010",
      "startMs": 1747652220000,
      "endMs": 1747659885870,
      "startLocation": {
        "latitude": 39.705891,
        "longitude": -105.008697
      },
      "endLocation": {
        "latitude": 39.717077,
        "longitude": -104.949432
      },
      "startAddress": "7806 Mary Terrace Apt. 368",
      "endAddress": "12877 Gary Branch Apt. 061",
      "startCoords": {
        "latitude": 39.790668,
        "longitude": -105.082518
      },
      "endCoords": {
        "latitude": 39.745234,
        "longitude": -105.062475
      },
      "distanceMeters": 38158.5,
      "durationMs": 7665871,
      "drivingDurationMs": 7054740,
      "idlingDurationMs": 611131,
      "fuelConsumedMl": 4853,
      "fuelConsumedGallons": 1.282,
      "maxSpeedMph": 46.7,
      "averageSpeedMph": 11.1,
      "safetyEvents": [],
      "_no_driver_login": false,
      "_fuel_note": "QUIRK 5: fuelConsumedGallons is in US gallons. Multiply by 3.785 for litres. Samsara does not link fuel to specific Onfleet tasks."
    },
    {
      "id": "trip_48291011_20250519_002",
      "vehicleId": "48291011",
      "driverId": "22831010",
      "startMs": 1747636620000,
      "endMs": 1747647354017,
      "startLocation": {
        "latitude": 39.789676,
        "longitude": -104.958307
      },
      "endLocation": {
        "latitude": 39.710456,
        "longitude": -105.028752
      },
      "startAddress": "079 Smith Vista",
      "endAddress": "45553 Richard Ports Apt. 252",
      "startCoords": {
        "latitude": 39.769214,
        "longitude": -104.953106
      },
      "endCoords": {
        "latitude": 39.6839,
        "longitude": -104.986675
      },
      "distanceMeters": 78059.4,
      "durationMs": 10734017,
      "drivingDurationMs": 9049425,
      "idlingDurationMs": 1684592,
      "fuelConsumedMl": 9925,
      "fuelConsumedGallons": 2.622,
      "maxSpeedMph": 56.1,
      "averageSpeedMph": 16.3,
      "safetyEvents": [],
      "_no_driver_login": false,
      "_fuel_note": ""
    },
    {
      "id": "trip_48291011_20250520_001",
      "vehicleId": "48291011",
      "driverId": "22831010",
      "startMs": 1747734900000,
      "endMs": 1747741312448,
      "startLocation": {
        "latitude": 39.773512,
        "longitude": -104.90138
      },
      "endLocation": {
        "latitude": 39.792462,
        "longitude": -105.071841
      },
      "startAddress": "407 Bennett Hill Apt. 825",
      "endAddress": "08339 Andrew Corners Apt. 088",
      "startCoords": {
        "latitude": 39.807603,
        "longitude": -105.007711
      },
      "endCoords": {
        "latitude": 39.798736,
        "longitude": -105.036765
      },
      "distanceMeters": 45221.4,
      "durationMs": 6412449,
      "drivingDurationMs": 5264345,
      "idlingDurationMs": 1148104,
      "fuelConsumedMl": 5750,
      "fuelConsumedGallons": 1.519,
      "maxSpeedMph": 51.2,
      "averageSpeedMph": 15.8,
      "safetyEvents": [],
      "_no_driver_login": false,
      "_fuel_note": "QUIRK 5: fuelConsumedGallons is in US gallons. Multiply by 3.785 for litres. Samsara does not link fuel to specific Onfleet tasks."
    },
    {
      "id": "trip_48291011_20250520_002",
      "vehicleId": "48291011",
      "driverId": "22831010",
      "startMs": 1747730160000,
      "endMs": 1747731766732,
      "startLocation": {
        "latitude": 39.712131,
        "longitude": -104.941441
      },
      "endLocation": {
        "latitude": 39.777534,
        "longitude": -105.061519
      },
      "startAddress": "862 Alexander Port",
      "endAddress": "4496 Whitaker Shore",
      "startCoords": {
        "latitude": 39.704733,
        "longitude": -105.085569
      },
      "endCoords": {
        "latitude": 39.719285,
        "longitude": -104.911383
      },
      "distanceMeters": 8249.6,
      "durationMs": 1606733,
      "drivingDurationMs": 1342031,
      "idlingDurationMs": 264702,
      "fuelConsumedMl": 1049,
      "fuelConsumedGallons": 0.277,
      "maxSpeedMph": 68.6,
      "averageSpeedMph": 11.5,
      "safetyEvents": [
        {
          "type": "speeding",
          "startMs": 1747730460000,
          "maxSpeedMph": 68.6
        }
      ],
      "_no_driver_login": false,
      "_fuel_note": ""
    },
    {
      "id": "trip_48291011_20250520_003",
      "vehicleId": "48291011",
      "driverId": "22831010",
      "startMs": 1747732440000,
      "endMs": 1747739777295,
      "startLocation": {
        "latitude": 39.772135,
        "longitude": -104.963651
      },
      "endLocation": {
        "latitude": 39.751756,
        "longitude": -104.960272
      },
      "startAddress": "091 Glenn Mews Apt. 234",
      "endAddress": "833 Hayden Way",
      "startCoords": {
        "latitude": 39.793107,
        "longitude": -104.987606
      },
      "endCoords": {
        "latitude": 39.693373,
        "longitude": -104.965871
      },
      "distanceMeters": 54832.3,
      "durationMs": 7337296,
      "drivingDurationMs": 6355213,
      "idlingDurationMs": 982082,
      "fuelConsumedMl": 6973,
      "fuelConsumedGallons": 1.842,
      "maxSpeedMph": 58.0,
      "averageSpeedMph": 16.7,
      "safetyEvents": [],
      "_no_driver_login": false,
      "_fuel_note": ""
    },
    {
      "id": "trip_48291011_20250521_001",
      "vehicleId": "48291011",
      "driverId": "22831010",
      "startMs": 1747812000000,
      "endMs": 1747821556717,
      "startLocation": {
        "latitude": 39.72465,
        "longitude": -105.014324
      },
      "endLocation": {
        "latitude": 39.725378,
        "longitude": -104.976192
      },
      "startAddress": "637 Villarreal Locks",
      "endAddress": "61072 Shawn Glens",
      "startCoords": {
        "latitude": 39.73141,
        "longitude": -105.010174
      },
      "endCoords": {
        "latitude": 39.797999,
        "longitude": -105.050996
      },
      "distanceMeters": 75694.1,
      "durationMs": 9556718,
      "drivingDurationMs": 8559540,
      "idlingDurationMs": 997178,
      "fuelConsumedMl": 9623,
      "fuelConsumedGallons": 2.542,
      "maxSpeedMph": 52.0,
      "averageSpeedMph": 17.7,
      "safetyEvents": [],
      "_no_driver_login": false,
      "_fuel_note": "QUIRK 5: fuelConsumedGallons is in US gallons. Multiply by 3.785 for litres. Samsara does not link fuel to specific Onfleet tasks."
    },
    {
      "id": "trip_48291011_20250521_002",
      "vehicleId": "48291011",
      "driverId": "22831010",
      "startMs": 1747845540000,
      "endMs": 1747855692022,
      "startLocation": {
        "latitude": 39.734168,
        "longitude": -105.042925
      },
      "endLocation": {
        "latitude": 39.745989,
        "longitude": -104.908691
      },
      "startAddress": "707 Schultz Park Apt. 764",
      "endAddress": "379 Price Pines",
      "startCoords": {
        "latitude": 39.813132,
        "longitude": -104.935021
      },
      "endCoords": {
        "latitude": 39.723459,
        "longitude": -105.046663
      },
      "distanceMeters": 74358.6,
      "durationMs": 10152023,
      "drivingDurationMs": 9128497,
      "idlingDurationMs": 1023526,
      "fuelConsumedMl": 9456,
      "fuelConsumedGallons": 2.498,
      "maxSpeedMph": 31.2,
      "averageSpeedMph": 16.4,
      "safetyEvents": [],
      "_no_driver_login": false,
      "_fuel_note": ""
    },
    {
      "id": "trip_48291011_20250521_003",
      "vehicleId": "48291011",
      "driverId": "22831010",
      "startMs": 1747830060000,
      "endMs": 1747835976283,
      "startLocation": {
        "latitude": 39.72853,
        "longitude": -105.008127
      },
      "endLocation": {
        "latitude": 39.725274,
        "longitude": -104.9144
      },
      "startAddress": "48355 Brewer Manors Suite 858",
      "endAddress": "9916 Baxter Villages",
      "startCoords": {
        "latitude": 39.812666,
        "longitude": -105.043482
      },
      "endCoords": {
        "latitude": 39.756983,
        "longitude": -105.027971
      },
      "distanceMeters": 44595.6,
      "durationMs": 5916284,
      "drivingDurationMs": 5214362,
      "idlingDurationMs": 701922,
      "fuelConsumedMl": 5671,
      "fuelConsumedGallons": 1.498,
      "maxSpeedMph": 50.5,
      "averageSpeedMph": 16.9,
      "safetyEvents": [],
      "_no_driver_login": false,
      "_fuel_note": ""
    },
    {
      "id": "trip_48291011_20250521_004",
      "vehicleId": "48291011",
      "driverId": "22831010",
      "startMs": 1747825380000,
      "endMs": 1747827751710,
      "startLocation": {
        "latitude": 39.791359,
        "longitude": -104.996633
      },
      "endLocation": {
        "latitude": 39.790516,
        "longitude": -105.053713
      },
      "startAddress": "02399 David Green",
      "endAddress": "8540 John Parkway Apt. 710",
      "startCoords": {
        "latitude": 39.731132,
        "longitude": -105.037704
      },
      "endCoords": {
        "latitude": 39.733564,
        "longitude": -104.899763
      },
      "distanceMeters": 12334.8,
      "durationMs": 2371711,
      "drivingDurationMs": 2047851,
      "idlingDurationMs": 323859,
      "fuelConsumedMl": 1567,
      "fuelConsumedGallons": 0.414,
      "maxSpeedMph": 31.0,
      "averageSpeedMph": 11.6,
      "safetyEvents": [],
      "_no_driver_login": false,
      "_fuel_note": ""
    },
    {
      "id": "trip_48291011_20250522_001",
      "vehicleId": "48291011",
      "driverId": null,
      "startMs": 1747903800000,
      "endMs": 1747913450500,
      "startLocation": {
        "latitude": 39.696345,
        "longitude": -105.043912
      },
      "endLocation": {
        "latitude": 39.792159,
        "longitude": -104.901429
      },
      "startAddress": "038 David Common",
      "endAddress": "7911 Ann Stravenue",
      "startCoords": {
        "latitude": 39.701455,
        "longitude": -105.011448
      },
      "endCoords": {
        "latitude": 39.69973,
        "longitude": -105.075641
      },
      "distanceMeters": 50432.9,
      "durationMs": 9650501,
      "drivingDurationMs": 7993864,
      "idlingDurationMs": 1656637,
      "fuelConsumedMl": 6412,
      "fuelConsumedGallons": 1.694,
      "maxSpeedMph": 61.6,
      "averageSpeedMph": 11.7,
      "safetyEvents": [],
      "_no_driver_login": true,
      "_fuel_note": "QUIRK 5: fuelConsumedGallons is in US gallons. Multiply by 3.785 for litres. Samsara does not link fuel to specific Onfleet tasks."
    },
    {
      "id": "trip_48291011_20250522_002",
      "vehicleId": "48291011",
      "driverId": "22831010",
      "startMs": 1747916580000,
      "endMs": 1747925519716,
      "startLocation": {
        "latitude": 39.686825,
        "longitude": -105.07406
      },
      "endLocation": {
        "latitude": 39.81623,
        "longitude": -104.921396
      },
      "startAddress": "306 James Manors Suite 948",
      "endAddress": "1837 Kevin Cove",
      "startCoords": {
        "latitude": 39.801664,
        "longitude": -105.058377
      },
      "endCoords": {
        "latitude": 39.727974,
        "longitude": -105.017052
      },
      "distanceMeters": 46905.7,
      "durationMs": 8939716,
      "drivingDurationMs": 7908324,
      "idlingDurationMs": 1031392,
      "fuelConsumedMl": 5962,
      "fuelConsumedGallons": 1.575,
      "maxSpeedMph": 47.9,
      "averageSpeedMph": 11.7,
      "safetyEvents": [],
      "_no_driver_login": false,
      "_fuel_note": ""
    },
    {
      "id": "trip_48291011_20250522_003",
      "vehicleId": "48291011",
      "driverId": "22831010",
      "startMs": 1747913040000,
      "endMs": 1747922599982,
      "startLocation": {
        "latitude": 39.740071,
        "longitude": -104.933283
      },
      "endLocation": {
        "latitude": 39.792185,
        "longitude": -104.943255
      },
      "startAddress": "695 Lori Forks Apt. 113",
      "endAddress": "07976 Travis Drives",
      "startCoords": {
        "latitude": 39.793318,
        "longitude": -105.054343
      },
      "endCoords": {
        "latitude": 39.821373,
        "longitude": -104.980874
      },
      "distanceMeters": 59053.9,
      "durationMs": 9559982,
      "drivingDurationMs": 8565143,
      "idlingDurationMs": 994839,
      "fuelConsumedMl": 7506,
      "fuelConsumedGallons": 1.983,
      "maxSpeedMph": 46.9,
      "averageSpeedMph": 13.8,
      "safetyEvents": [],
      "_no_driver_login": false,
      "_fuel_note": ""
    },
    {
      "id": "trip_48291011_20250522_004",
      "vehicleId": "48291011",
      "driverId": "22831010",
      "startMs": 1747918440000,
      "endMs": 1747926995215,
      "startLocation": {
        "latitude": 39.713434,
        "longitude": -104.982049
      },
      "endLocation": {
        "latitude": 39.808121,
        "longitude": -104.93836
      },
      "startAddress": "4845 Heidi Skyway",
      "endAddress": "88214 Jessica Route",
      "startCoords": {
        "latitude": 39.795947,
        "longitude": -104.950311
      },
      "endCoords": {
        "latitude": 39.70227,
        "longitude": -105.058796
      },
      "distanceMeters": 66864.4,
      "durationMs": 8555216,
      "drivingDurationMs": 8236967,
      "idlingDurationMs": 318249,
      "fuelConsumedMl": 8502,
      "fuelConsumedGallons": 2.246,
      "maxSpeedMph": 30.9,
      "averageSpeedMph": 17.5,
      "safetyEvents": [],
      "_no_driver_login": false,
      "_fuel_note": ""
    },
    {
      "id": "trip_48291011_20250522_005",
      "vehicleId": "48291011",
      "driverId": "22831010",
      "startMs": 1747930980000,
      "endMs": 1747935516060,
      "startLocation": {
        "latitude": 39.704451,
        "longitude": -105.053698
      },
      "endLocation": {
        "latitude": 39.776082,
        "longitude": -104.971144
      },
      "startAddress": "6097 Miller Ways Suite 870",
      "endAddress": "3269 Holloway Mill",
      "startCoords": {
        "latitude": 39.752988,
        "longitude": -104.924877
      },
      "endCoords": {
        "latitude": 39.73318,
        "longitude": -104.900238
      },
      "distanceMeters": 36196.9,
      "durationMs": 4536061,
      "drivingDurationMs": 4307488,
      "idlingDurationMs": 228573,
      "fuelConsumedMl": 4603,
      "fuelConsumedGallons": 1.216,
      "maxSpeedMph": 70.0,
      "averageSpeedMph": 17.9,
      "safetyEvents": [
        {
          "type": "speeding",
          "startMs": 1747933320000,
          "maxSpeedMph": 70.0
        }
      ],
      "_no_driver_login": false,
      "_fuel_note": ""
    },
    {
      "id": "trip_48291011_20250522_006",
      "vehicleId": "48291011",
      "driverId": "22831010",
      "startMs": 1747910040000,
      "endMs": 1747920736349,
      "startLocation": {
        "latitude": 39.812906,
        "longitude": -104.961569
      },
      "endLocation": {
        "latitude": 39.746065,
        "longitude": -105.013933
      },
      "startAddress": "499 Chelsey Lock Apt. 144",
      "endAddress": "197 Whitaker Junctions Suite 816",
      "startCoords": {
        "latitude": 39.747939,
        "longitude": -104.934178
      },
      "endCoords": {
        "latitude": 39.755879,
        "longitude": -105.054914
      },
      "distanceMeters": 65258.6,
      "durationMs": 10696350,
      "drivingDurationMs": 8937568,
      "idlingDurationMs": 1758782,
      "fuelConsumedMl": 8298,
      "fuelConsumedGallons": 2.192,
      "maxSpeedMph": 48.8,
      "averageSpeedMph": 13.6,
      "safetyEvents": [],
      "_no_driver_login": false,
      "_fuel_note": ""
    },
    {
      "id": "trip_48291011_20250523_001",
      "vehicleId": "48291011",
      "driverId": "22831010",
      "startMs": 1747997040000,
      "endMs": 1748005896491,
      "startLocation": {
        "latitude": 39.793936,
        "longitude": -104.942928
      },
      "endLocation": {
        "latitude": 39.779576,
        "longitude": -104.925155
      },
      "startAddress": "933 Jessica Mountains",
      "endAddress": "1385 Thomas Shoal",
      "startCoords": {
        "latitude": 39.766778,
        "longitude": -104.934129
      },
      "endCoords": {
        "latitude": 39.769845,
        "longitude": -104.982146
      },
      "distanceMeters": 64345.9,
      "durationMs": 8856491,
      "drivingDurationMs": 8178314,
      "idlingDurationMs": 678178,
      "fuelConsumedMl": 8180,
      "fuelConsumedGallons": 2.161,
      "maxSpeedMph": 58.3,
      "averageSpeedMph": 16.3,
      "safetyEvents": [],
      "_no_driver_login": false,
      "_fuel_note": "QUIRK 5: fuelConsumedGallons is in US gallons. Multiply by 3.785 for litres. Samsara does not link fuel to specific Onfleet tasks."
    },
    {
      "id": "trip_48291011_20250523_002",
      "vehicleId": "48291011",
      "driverId": "22831010",
      "startMs": 1747981500000,
      "endMs": 1747988591097,
      "startLocation": {
        "latitude": 39.726701,
        "longitude": -104.942951
      },
      "endLocation": {
        "latitude": 39.710855,
        "longitude": -105.046323
      },
      "startAddress": "458 Melendez Villages Apt. 927",
      "endAddress": "73036 Johnson Freeway",
      "startCoords": {
        "latitude": 39.826695,
        "longitude": -104.989949
      },
      "endCoords": {
        "latitude": 39.747796,
        "longitude": -104.948734
      },
      "distanceMeters": 45298.2,
      "durationMs": 7091097,
      "drivingDurationMs": 6537942,
      "idlingDurationMs": 553155,
      "fuelConsumedMl": 5758,
      "fuelConsumedGallons": 1.521,
      "maxSpeedMph": 51.2,
      "averageSpeedMph": 14.3,
      "safetyEvents": [],
      "_no_driver_login": false,
      "_fuel_note": ""
    },
    {
      "id": "trip_48291011_20250523_003",
      "vehicleId": "48291011",
      "driverId": "22831010",
      "startMs": 1748005860000,
      "endMs": 1748008936575,
      "startLocation": {
        "latitude": 39.800127,
        "longitude": -105.08233
      },
      "endLocation": {
        "latitude": 39.78641,
        "longitude": -104.899952
      },
      "startAddress": "4910 Thompson Cliff Apt. 284",
      "endAddress": "4678 King Drive",
      "startCoords": {
        "latitude": 39.760898,
        "longitude": -104.910089
      },
      "endCoords": {
        "latitude": 39.712387,
        "longitude": -105.078215
      },
      "distanceMeters": 17186.6,
      "durationMs": 3076575,
      "drivingDurationMs": 2575088,
      "idlingDurationMs": 501487,
      "fuelConsumedMl": 2184,
      "fuelConsumedGallons": 0.577,
      "maxSpeedMph": 40.5,
      "averageSpeedMph": 12.5,
      "safetyEvents": [],
      "_no_driver_login": false,
      "_fuel_note": ""
    },
    {
      "id": "trip_48291011_20250523_004",
      "vehicleId": "48291011",
      "driverId": "22831010",
      "startMs": 1748013600000,
      "endMs": 1748020248791,
      "startLocation": {
        "latitude": 39.817594,
        "longitude": -105.072629
      },
      "endLocation": {
        "latitude": 39.743653,
        "longitude": -104.943811
      },
      "startAddress": "43129 Shepherd Crescent Apt. 958",
      "endAddress": "104 Wood Roads",
      "startCoords": {
        "latitude": 39.780488,
        "longitude": -105.027106
      },
      "endCoords": {
        "latitude": 39.807937,
        "longitude": -105.067241
      },
      "distanceMeters": 47909.2,
      "durationMs": 6648792,
      "drivingDurationMs": 5494684,
      "idlingDurationMs": 1154107,
      "fuelConsumedMl": 6091,
      "fuelConsumedGallons": 1.609,
      "maxSpeedMph": 50.2,
      "averageSpeedMph": 16.1,
      "safetyEvents": [],
      "_no_driver_login": false,
      "_fuel_note": ""
    },
    {
      "id": "trip_48291011_20250524_001",
      "vehicleId": "48291011",
      "driverId": "22831010",
      "startMs": 1748112720000,
      "endMs": 1748120400000,
      "startLocation": {
        "latitude": 39.74796,
        "longitude": -105.028327
      },
      "endLocation": {
        "latitude": 39.822343,
        "longitude": -104.914117
      },
      "startAddress": "75737 Rachel Creek",
      "endAddress": "51752 White Burgs",
      "startCoords": {
        "latitude": 39.82655,
        "longitude": -104.936923
      },
      "endCoords": {
        "latitude": 39.788748,
        "longitude": -104.994663
      },
      "distanceMeters": 33666.1,
      "durationMs": 7680000,
      "drivingDurationMs": 6392179,
      "idlingDurationMs": 1287821,
      "fuelConsumedMl": 4281,
      "fuelConsumedGallons": 1.131,
      "maxSpeedMph": 43.0,
      "averageSpeedMph": 9.8,
      "safetyEvents": [],
      "_no_driver_login": false,
      "_fuel_note": "QUIRK 5: fuelConsumedGallons is in US gallons. Multiply by 3.785 for litres. Samsara does not link fuel to specific Onfleet tasks."
    },
    {
      "id": "trip_48291011_20250524_002",
      "vehicleId": "48291011",
      "driverId": "22831010",
      "startMs": 1748093460000,
      "endMs": 1748097175112,
      "startLocation": {
        "latitude": 39.797768,
        "longitude": -105.075646
      },
      "endLocation": {
        "latitude": 39.77647,
        "longitude": -105.011101
      },
      "startAddress": "3154 Lisa Mount",
      "endAddress": "51423 Clarke Square",
      "startCoords": {
        "latitude": 39.688828,
        "longitude": -104.95461
      },
      "endCoords": {
        "latitude": 39.696042,
        "longitude": -105.038355
      },
      "distanceMeters": 26145.4,
      "durationMs": 3715112,
      "drivingDurationMs": 3259694,
      "idlingDurationMs": 455418,
      "fuelConsumedMl": 3324,
      "fuelConsumedGallons": 0.878,
      "maxSpeedMph": 31.8,
      "averageSpeedMph": 15.7,
      "safetyEvents": [],
      "_no_driver_login": false,
      "_fuel_note": ""
    },
    {
      "id": "trip_48291011_20250524_003",
      "vehicleId": "48291011",
      "driverId": "22831010",
      "startMs": 1748109180000,
      "endMs": 1748119900413,
      "startLocation": {
        "latitude": 39.726827,
        "longitude": -104.910176
      },
      "endLocation": {
        "latitude": 39.707605,
        "longitude": -105.084478
      },
      "startAddress": "29273 Guzman Turnpike",
      "endAddress": "53682 Romero Ranch",
      "startCoords": {
        "latitude": 39.765251,
        "longitude": -104.991095
      },
      "endCoords": {
        "latitude": 39.693224,
        "longitude": -105.054626
      },
      "distanceMeters": 79671.7,
      "durationMs": 10720413,
      "drivingDurationMs": 9952259,
      "idlingDurationMs": 768154,
      "fuelConsumedMl": 10130,
      "fuelConsumedGallons": 2.676,
      "maxSpeedMph": 43.9,
      "averageSpeedMph": 16.6,
      "safetyEvents": [],
      "_no_driver_login": false,
      "_fuel_note": ""
    },
    {
      "id": "trip_48291011_20250524_004",
      "vehicleId": "48291011",
      "driverId": "22831010",
      "startMs": 1748096100000,
      "endMs": 1748099972665,
      "startLocation": {
        "latitude": 39.806933,
        "longitude": -105.0333
      },
      "endLocation": {
        "latitude": 39.709914,
        "longitude": -104.940353
      },
      "startAddress": "0615 Molly Isle",
      "endAddress": "5757 Morton Loaf Suite 025",
      "startCoords": {
        "latitude": 39.800289,
        "longitude": -104.930061
      },
      "endCoords": {
        "latitude": 39.810733,
        "longitude": -104.96192
      },