{
  "vehicleId": "41724318",
  "vehicleName": "DEN-VAN-03",
  "month": "2025_01",
  "pagination": {
    "endCursor": "trip_41724318_20250131_4236",
    "hasNextPage": false
  },
  "trips": [
    {
      "id": "trip_41724318_20250101_003",
      "vehicleId": "41724318",
      "driverId": "20000011",
      "startMs": 1735718140000,
      "endMs": 1735720000000,
      "startAddress": "310 Kendra Common Apt. 164",
      "endAddress": "525 Clark Grove Apt. 928",
      "startCoords": {
        "latitude": 39.721514,
        "longitude": -105.003148
      },
      "endCoords": {
        "latitude": 39.825044,
        "longitude": -104.993764
      },
      "distanceMeters": 9047.3,
      "durationMs": 1860000,
      "drivingDurationMs": 1642471,
      "idlingDurationMs": 217529,
      "fuelConsumedMl": 1151,
      "fuelConsumedGallons": 0.304,
      "maxSpeedMph": 36.0,
      "averageSpeedMph": 10.9,
      "safetyEvents": []
    },
    {
      "id": "trip_41724318_20250101_032",
      "vehicleId": "41724318",
      "driverId": "20000001",
      "startMs": 1735731121000,
      "endMs": 1735732561000,
      "startAddress": "9453 Joshua Mission Apt. 799",
      "endAddress": "0752 Lewis Union Suite 549",
      "startCoords": {
        "latitude": 39.817194,
        "longitude": -104.93088
      },
      "endCoords": {
        "latitude": 39.721088,
        "longitude": -104.958743
      },
      "distanceMeters": 9385.7,
      "durationMs": 1440000,
      "drivingDurationMs": 1097641,
      "idlingDurationMs": 342359,
      "fuelConsumedMl": 1192,
      "fuelConsumedGallons": 0.315,
      "maxSpeedMph": 37.0,
      "averageSpeedMph": 14.6,
      "safetyEvents": []
    },
    {
      "id": "trip_41724318_20250101_063",
      "vehicleId": "41724318",
      "driverId": "20000009",
      "startMs": 1735747226000,
      "endMs": 1735758925000,
      "startAddress": "403 Joyce Centers Apt. 343",
      "endAddress": "4510 Burgess Extensions",
      "startCoords": {
        "latitude": 39.798328,
        "longitude": -104.991475
      },
      "endCoords": {
        "latitude": 39.71122,
        "longitude": -105.015938
      },
      "distanceMeters": 74094.1,
      "durationMs": 11699000,
      "drivingDurationMs": 10347652,
      "idlingDurationMs": 1351348,
      "fuelConsumedMl": 9422,
      "fuelConsumedGallons": 2.489,
      "maxSpeedMph": 33.5,
      "averageSpeedMph": 14.2,
      "safetyEvents": []
    },
    {
      "id": "trip_41724318_20250101_095",
      "vehicleId": "41724318",
      "driverId": "20000008",
      "startMs": 1735759532000,
      "endMs": 1735773352000,
      "startAddress": "9409 Baker Shoal",
      "endAddress": "097 Alexandria Stravenue",
      "startCoords": {
        "latitude": 39.796319,
        "longitude": -104.953925
      },
      "endCoords": {
        "latitude": 39.79915,
        "longitude": -104.974793
      },
      "distanceMeters": 67529.7,
      "durationMs": 13820000,
      "drivingDurationMs": 12261616,
      "idlingDurationMs": 1558384,
      "fuelConsumedMl": 8585,
      "fuelConsumedGallons": 2.268,
      "maxSpeedMph": 31.1,
      "averageSpeedMph": 10.9,
      "safetyEvents": []
    },
    {
      "id": "trip_41724318_20250102_124",
      "vehicleId": "41724318",
      "driverId": "20000003",
      "startMs": 1735777289000,
      "endMs": 1735778429000,
      "startAddress": "937 Derek Avenue Suite 596",
      "endAddress": "5692 Flores Square Apt. 752",
      "startCoords": {
        "latitude": 39.697695,
        "longitude": -104.93955
      },
      "endCoords": {
        "latitude": 39.707663,
        "longitude": -105.018597
      },
      "distanceMeters": 7797.9,
      "durationMs": 1140000,
      "drivingDurationMs": 908123,
      "idlingDurationMs": 231877,
      "fuelConsumedMl": 992,
      "fuelConsumedGallons": 0.262,
      "maxSpeedMph": 37.2,
      "averageSpeedMph": 15.3,
      "safetyEvents": []
    },
    {
      "id": "trip_41724318_20250102_152",
      "vehicleId": "41724318",
      "driverId": "20000013",
      "startMs": 1735800835000,
      "endMs": 1735803175000,
      "startAddress": "0241 Samantha Vista Suite 571",
      "endAddress": "261 Ryan Curve",
      "startCoords": {
        "latitude": 39.745332,
        "longitude": -104.939697
      },
      "endCoords": {
        "latitude": 39.75571,
        "longitude": -104.916362
      },
      "distanceMeters": 14830.5,
      "durationMs": 2340000,
      "drivingDurationMs": 2051492,
      "idlingDurationMs": 288508,
      "fuelConsumedMl": 1885,
      "fuelConsumedGallons": 0.498,
      "maxSpeedMph": 38.7,
      "averageSpeedMph": 14.2,
      "safetyEvents": []
    },
    {
      "id": "trip_41724318_20250102_183",
      "vehicleId": "41724318",
      "driverId": "20000020",
      "startMs": 1735818634000,
      "endMs": 1735825671000,
      "startAddress": "60332 Jessica Radial",
      "endAddress": "50648 Brittney Causeway",
      "startCoords": {
        "latitude": 39.761591,
        "longitude": -105.064218
      },
      "endCoords": {
        "latitude": 39.794311,
        "longitude": -105.062431
      },
      "distanceMeters": 33471.0,
      "durationMs": 7037000,
      "drivingDurationMs": 5880207,
      "idlingDurationMs": 1156793,
      "fuelConsumedMl": 4255,
      "fuelConsumedGallons": 1.124,
      "maxSpeedMph": 30.6,
      "averageSpeedMph": 10.6,
      "safetyEvents": []
    },
    {
      "id": "trip_41724318_20250102_212",
      "vehicleId": "41724318",
      "driverId": "20000014",
      "startMs": 1735830998000,
      "endMs": 1735846810000,
      "startAddress": "392 Sean Fall",
      "endAddress": "750 Kathleen Fort",
      "startCoords": {
        "latitude": 39.70694,
        "longitude": -105.049138
      },
      "endCoords": {
        "latitude": 39.715267,
        "longitude": -104.924043
      },
      "distanceMeters": 77300.3,
      "durationMs": 15812000,
      "drivingDurationMs": 12874241,
      "idlingDurationMs": 2937759,
      "fuelConsumedMl": 9827,
      "fuelConsumedGallons": 2.596,
      "maxSpeedMph": 27.0,
      "averageSpeedMph": 10.9,
      "safetyEvents": []
    },
    {
      "id": "trip_41724318_20250102_242",
      "vehicleId": "41724318",
      "driverId": "20000020",
      "startMs": 1735846861000,
      "endMs": 1735848481000,
      "startAddress": "73585 Quinn Brooks",
      "endAddress": "2407 Hansen Plains Suite 392",
      "startCoords": {
        "latitude": 39.813319,
        "longitude": -104.950116
      },
      "endCoords": {
        "latitude": 39.738891,
        "longitude": -104.932186
      },
      "distanceMeters": 9861.9,
      "durationMs": 1620000,
      "drivingDurationMs": 1318972,
      "idlingDurationMs": 301028,
      "fuelConsumedMl": 1253,
      "fuelConsumedGallons": 0.331,
      "maxSpeedMph": 34.7,
      "averageSpeedMph": 13.6,
      "safetyEvents": []
    },
    {
      "id": "trip_41724318_20250103_269",
      "vehicleId": "41724318",
      "driverId": "20000014",
      "startMs": 1735865494000,
      "endMs": 1735867054000,
      "startAddress": "45561 Bridges Circles",
      "endAddress": "2145 Warren Square Apt. 901",
      "startCoords": {
        "latitude": 39.789081,
        "longitude": -105.007882
      },
      "endCoords": {
        "latitude": 39.821723,
        "longitude": -104.912315
      },
      "distanceMeters": 6846.7,
      "durationMs": 1560000,
      "drivingDurationMs": 1175740,
      "idlingDurationMs": 384260,
      "fuelConsumedMl": 871,
      "fuelConsumedGallons": 0.23,
      "maxSpeedMph": 30.6,
      "averageSpeedMph": 9.8,
      "safetyEvents": []
    },
    {
      "id": "trip_41724318_20250103_296",
      "vehicleId": "41724318",
      "driverId": "20000020",
      "startMs": 1735884713000,
      "endMs": 1735894291000,
      "startAddress": "087 Graham Vista Apt. 830",
      "endAddress": "719 Cook Hollow Suite 015",
      "startCoords": {
        "latitude": 39.821491,
        "longitude": -104.910278
      },
      "endCoords": {
        "latitude": 39.772531,
        "longitude": -105.055829
      },
      "distanceMeters": 59983.5,
      "durationMs": 9578000,
      "drivingDurationMs": 7548120,
      "idlingDurationMs": 2029880,
      "fuelConsumedMl": 7628,
      "fuelConsumedGallons": 2.015,
      "maxSpeedMph": 35.5,
      "averageSpeedMph": 14.0,
      "safetyEvents": []
    },
    {
      "id": "trip_41724318_20250103_326",
      "vehicleId": "41724318",
      "driverId": "20000014",
      "startMs": 1735898693000,
      "endMs": 1735903268000,
      "startAddress": "5213 Wesley Village Apt. 898",
      "endAddress": "7112 Timothy Inlet",
      "startCoords": {
        "latitude": 39.719837,
        "longitude": -105.002619
      },
      "endCoords": {
        "latitude": 39.754667,
        "longitude": -104.949584
      },
      "distanceMeters": 26662.7,
      "durationMs": 4575000,
      "drivingDurationMs": 3957820,
      "idlingDurationMs": 617180,
      "fuelConsumedMl": 3392,
      "fuelConsumedGallons": 0.896,
      "maxSpeedMph": 32.8,
      "averageSpeedMph": 13.0,
      "safetyEvents": []
    },
    {
      "id": "trip_41724318_20250103_353",
      "vehicleId": "41724318",
      "driverId": "20000005",
      "startMs": 1735913643000,
      "endMs": 1735915623000,
      "startAddress": "07256 Jennifer Station Suite 941",
      "endAddress": "005 Thomas Knoll",
      "startCoords": {
        "latitude": 39.808952,
        "longitude": -104.982945
      },
      "endCoords": {
        "latitude": 39.709955,
        "longitude": -105.046842
      },
      "distanceMeters": 14436.3,
      "durationMs": 1980000,
      "drivingDurationMs": 1719101,
      "idlingDurationMs": 260899,
      "fuelConsumedMl": 1836,
      "fuelConsumedGallons": 0.485,
      "maxSpeedMph": 28.2,
      "averageSpeedMph": 16.3,
      "safetyEvents": []
    },
    {
      "id": "trip_41724318_20250103_386",
      "vehicleId": "41724318",
      "driverId": "20000003",
      "startMs": 1735932034000,
      "endMs": 1735933834000,
      "startAddress": "70630 Spencer Radial Apt. 382",
      "endAddress": "671 Krista Divide Suite 823",
      "startCoords": {
        "latitude": 39.696499,
        "longitude": -105.032948
      },
      "endCoords": {
        "latitude": 39.739861,
        "longitude": -104.962864
      },
      "distanceMeters": 11641.4,
      "durationMs": 1800000,
      "drivingDurationMs": 1404756,
      "idlingDurationMs": 395244,
      "fuelConsumedMl": 1480,
      "fuelConsumedGallons": 0.391,
      "maxSpeedMph": 27.1,
      "averageSpeedMph": 14.5,
      "safetyEvents": []
    },
    {
      "id": "trip_41724318_20250103_412",
      "vehicleId": "41724318",
      "driverId": "20000018",
      "startMs": 1735944691000,
      "endMs": 1735946911000,
      "startAddress": "4334 Shawn Land",
      "endAddress": "56621 Amanda Neck",
      "startCoords": {
        "latitude": 39.690837,
        "longitude": -104.971338
      },
      "endCoords": {
        "latitude": 39.791996,
        "longitude": -105.05155
      },
      "distanceMeters": 13556.8,
      "durationMs": 2220000,
      "drivingDurationMs": 1874303,
      "idlingDurationMs": 345697,
      "fuelConsumedMl": 1722,
      "fuelConsumedGallons": 0.455,
      "maxSpeedMph": 29.1,
      "averageSpeedMph": 13.7,
      "safetyEvents": []
    },
    {
      "id": "trip_41724318_20250104_438",
      "vehicleId": "41724318",
      "driverId": "20000007",
      "startMs": 1735960864000,
      "endMs": 1735968786000,
      "startAddress": "32116 Ethan Islands",
      "endAddress": "3471 Sandra Roads Suite 153",
      "startCoords": {
        "latitude": 39.715308,
        "longitude": -104.977221
      },
      "endCoords": {
        "latitude": 39.743595,
        "longitude": -105.052352
      },
      "distanceMeters": 53868.7,
      "durationMs": 7922000,
      "drivingDurationMs": 6991283,
      "idlingDurationMs": 930717,
      "fuelConsumedMl": 6848,
      "fuelConsumedGallons": 1.809,
      "maxSpeedMph": 38.5,
      "averageSpeedMph": 15.2,
      "safetyEvents": []
    },
    {
      "id": "trip_41724318_20250104_472",
      "vehicleId": "41724318",
      "driverId": "20000006",
      "startMs": 1735984880000,
      "endMs": 1735992014000,
      "startAddress": "3543 Moore Fort",
      "endAddress": "2717 Stephen Via Apt. 397",
      "startCoords": {
        "latitude": 39.79572,
        "longitude": -104.907649
      },
      "endCoords": {
        "latitude": 39.815711,
        "longitude": -104.954629
      },
      "distanceMeters": 50140.2,
      "durationMs": 7134000,
      "drivingDurationMs": 6053276,
      "idlingDurationMs": 1080724,
      "fuelConsumedMl": 6375,
      "fuelConsumedGallons": 1.684,
      "maxSpeedMph": 30.6,
      "averageSpeedMph": 15.7,
      "safetyEvents": []
    },
    {
      "id": "trip_41724318_20250104_495",
      "vehicleId": "41724318",
      "driverId": "20000008",
      "startMs": 1735996763000,
      "endMs": 1735997963000,
      "startAddress": "89319 Mario View Suite 027",
      "endAddress": "5164 Vanessa Village",
      "startCoords": {
        "latitude": 39.791546,
        "longitude": -104.978951
      },
      "endCoords": {
        "latitude": 39.707663,
        "longitude": -104.979028
      },
      "distanceMeters": 5857.9,
      "durationMs": 1200000,
      "drivingDurationMs": 1016393,
      "idlingDurationMs": 183607,
      "fuelConsumedMl": 746,
      "fuelConsumedGallons": 0.197,
      "maxSpeedMph": 30.0,
      "averageSpeedMph": 10.9,
      "safetyEvents": []
    },
    {
      "id": "trip_41724318_20250104_524",
      "vehicleId": "41724318",
      "driverId": "20000008",
      "startMs": 1736015123000,
      "endMs": 1736020340000,
      "startAddress": "6964 Lee Prairie Suite 916",
      "endAddress": "541 Victor Spur Apt. 728",
      "startCoords": {
        "latitude": 39.821902,
        "longitude": -105.040482
      },
      "endCoords": {
        "latitude": 39.743975,
        "longitude": -104.936107
      },
      "distanceMeters": 37555.5,
      "durationMs": 5217000,
      "drivingDurationMs": 4399626,
      "idlingDurationMs": 817374,
      "fuelConsumedMl": 4773,
      "fuelConsumedGallons": 1.261,
      "maxSpeedMph": 38.9,
      "averageSpeedMph": 16.1,
      "safetyEvents": []
    },
    {
      "id": "trip_41724318_20250104_553",
      "vehicleId": "41724318",
      "driverId": "20000006",
      "startMs": 1736033147000,
      "endMs": 1736035247000,
      "startAddress": "9851 White Trafficway",
      "endAddress": "7232 Monica Shoal Apt. 310",
      "startCoords": {
        "latitude": 39.782757,
        "longitude": -104.945421
      },
      "endCoords": {
        "latitude": 39.772599,
        "longitude": -105.017155
      },
      "distanceMeters": 9897.6,
      "durationMs": 2100000,
      "drivingDurationMs": 1868683,
      "idlingDurationMs": 231317,
      "fuelConsumedMl": 1257,
      "fuelConsumedGallons": 0.332,
      "maxSpeedMph": 38.7,
      "averageSpeedMph": 10.5,
      "safetyEvents": []
    },
    {
      "id": "trip_41724318_20250105_580",
      "vehicleId": "41724318",
      "driverId": "20000016",
      "startMs": 1736058982000,
      "endMs": 1736066369000,
      "startAddress": "3522 Smith Mall Apt. 271",
      "endAddress": "3318 Rivera Circle",
      "startCoords": {
        "latitude": 39.722306,
        "longitude": -104.972929
      },
      "endCoords": {
        "latitude": 39.810458,
        "longitude": -104.99075
      },
      "distanceMeters": 38052.4,
      "durationMs": 7387000,
      "drivingDurationMs": 6377820,
      "idlingDurationMs": 1009180,
      "fuelConsumedMl": 4838,
      "fuelConsumedGallons": 1.278,
      "maxSpeedMph": 31.2,
      "averageSpeedMph": 11.5,
      "safetyEvents": []
    },
    {
      "id": "trip_41724318_20250105_610",
      "vehicleId": "41724318",
      "driverId": "20000007",
      "startMs": 1736082769000,
      "endMs": 1736089379000,
      "startAddress": "67747 Sandra Fall Suite 408",
      "endAddress": "2169 Mccann Loop Apt. 093",
      "startCoords": {
        "latitude": 39.730404,
        "longitude": -104.953183
      },
      "endCoords": {
        "latitude": 39.684019,
        "longitude": -104.968155
      },
      "distanceMeters": 42000.9,
      "durationMs": 6610000,
      "drivingDurationMs": 5457647,
      "idlingDurationMs": 1152353,
      "fuelConsumedMl": 5341,
      "fuelConsumedGallons": 1.411,
      "maxSpeedMph": 27.5,
      "averageSpeedMph": 14.2,
      "safetyEvents": []
    },
    {
      "id": "trip_41724318_20250105_638",
      "vehicleId": "41724318",
      "driverId": "20000019",
      "startMs": 1736102086000,
      "endMs": 1736109035000,
      "startAddress": "23290 April Dam Suite 009",
      "endAddress": "459 Morrow Manor",
      "startCoords": {
        "latitude": 39.794722,
        "longitude": -105.040986
      },
      "endCoords": {
        "latitude": 39.800832,
        "longitude": -105.063716
      },
      "distanceMeters": 30817.4,
      "durationMs": 6949000,
      "drivingDurationMs": 5524546,
      "idlingDurationMs": 1424454,
      "fuelConsumedMl": 3918,
      "fuelConsumedGallons": 1.035,
      "maxSpeedMph": 38.6,
      "averageSpeedMph": 9.9,
      "safetyEvents": []
    },
    {
      "id": "trip_41724318_20250106_664",
      "vehicleId": "41724318",
      "driverId": "20000016",
      "startMs": 1736147743000,
      "endMs": 1736149783000,
      "startAddress": "35157 Alexandria Brooks Apt. 805",
      "endAddress": "08005 Torres Union",
      "startCoords": {
        "latitude": 39.712001,
        "longitude": -105.017985
      },
      "endCoords": {
        "latitude": 39.815673,
        "longitude": -105.00964
      },
      "distanceMeters": 11490.6,
      "durationMs": 2040000,
      "drivingDurationMs": 1718779,
      "idlingDurationMs": 321221,
      "fuelConsumedMl": 1461,
      "fuelConsumedGallons": 0.386,
      "maxSpeedMph": 31.2,
      "averageSpeedMph": 12.6,
      "safetyEvents": []
    },
    {
      "id": "trip_41724318_20250106_693",
      "vehicleId": "41724318",
      "driverId": "20000014",
      "startMs": 1736164172000,
      "endMs": 1736165552000,
      "startAddress": "26949 Hunter Heights Apt. 645",
      "endAddress": "044 Calvin Circles",
      "startCoords": {
        "latitude": 39.800498,
        "longitude": -104.938203
      },
      "endCoords": {
        "latitude": 39.686658,
        "longitude": -104.984162
      },
      "distanceMeters": 8740.6,
      "durationMs": 1380000,
      "drivingDurationMs": 1127331,
      "idlingDurationMs": 252669,
      "fuelConsumedMl": 1113,
      "fuelConsumedGallons": 0.294,
      "maxSpeedMph": 34.6,
      "averageSpeedMph": 14.2,
      "safetyEvents": []
    },
    {
      "id": "trip_41724318_20250106_721",
      "vehicleId": "41724318",
      "driverId": "20000009",
      "startMs": 1736179440000,
      "endMs": 1736182361000,
      "startAddress": "308 Tyler Cliffs",
      "endAddress": "64381 Andrew Burgs Suite 132",
      "startCoords": {
        "latitude": 39.706804,
        "longitude": -104.914181
      },
      "endCoords": {
        "latitude": 39.811561,
        "longitude": -104.943638
      },
      "distanceMeters": 17621.7,
      "durationMs": 2921000,
      "drivingDurationMs": 2364103,
      "idlingDurationMs": 556897,
      "fuelConsumedMl": 2241,
      "fuelConsumedGallons": 0.592,
      "maxSpeedMph": 30.9,
      "averageSpeedMph": 13.5,
      "safetyEvents": []
    },
    {
      "id": "trip_41724318_20250106_748",
      "vehicleId": "41724318",
      "driverId": "20000021",
      "startMs": 1736190954000,
      "endMs": 1736193054000,
      "startAddress": "47876 Oneal Mountain",
      "endAddress": "964 Jackson Walks Suite 203",
      "startCoords": {
        "latitude": 39.747019,
        "longitude": -105.031616
      },
      "endCoords": {
        "latitude": 39.824554,
        "longitude": -105.044076
      },
      "distanceMeters": 11555.1,
      "durationMs": 2100000,
      "drivingDurationMs": 1853822,
      "idlingDurationMs": 246178,
      "fuelConsumedMl": 1469,
      "fuelConsumedGallons": 0.388,
      "maxSpeedMph": 33.6,
      "averageSpeedMph": 12.3,
      "safetyEvents": []
    },
    {
      "id": "trip_41724318_20250107_782",
      "vehicleId": "41724318",
      "driverId": "20000007",
      "startMs": 1736215584000,
      "endMs": 1736223731000,
      "startAddress": "0672 Kimberly Village",
      "endAddress": "784 Robert Heights",
      "startCoords": {
        "latitude": 39.740617,
        "longitude": -105.024476
      },
      "endCoords": {
        "latitude": 39.74337,
        "longitude": -104.911848
      },
      "distanceMeters": 37219.1,
      "durationMs": 8147000,
      "drivingDurationMs": 6790876,
      "idlingDurationMs": 1356124,
      "fuelConsumedMl": 4732,
      "fuelConsumedGallons": 1.25,
      "maxSpeedMph": 28.6,
      "averageSpeedMph": 10.2,
      "safetyEvents": []
    },
    {
      "id": "trip_41724318_20250107_812",
      "vehicleId": "41724318",
      "driverId": "20000020",
      "startMs": 1736234609000,
      "endMs": 1736235989000,
      "startAddress": "26003 Abigail Ford",
      "endAddress": "6910 Moore Motorway Apt. 531",
      "startCoords": {
        "latitude": 39.823338,
        "longitude": -104.959306
      },
      "endCoords": {
        "latitude": 39.755832,
        "longitude": -104.968589
      },
      "distanceMeters": 6508.7,
      "durationMs": 1380000,
      "drivingDurationMs": 1203631,
      "idlingDurationMs": 176369,
      "fuelConsumedMl": 829,
      "fuelConsumedGallons": 0.219,
      "maxSpeedMph": 29.5,
      "averageSpeedMph": 10.6,
      "safetyEvents": []
    },
    {
      "id": "trip_41724318_20250107_838",
      "vehicleId": "41724318",
      "driverId": "20000022",
      "startMs": 1736246771000,
      "endMs": 1736248871000,
      "startAddress": "269 Miranda Forges",
      "endAddress": "951 Michelle Parkways Apt. 865",
      "startCoords": {
        "latitude": 39.745178,
        "longitude": -104.99358
      },
      "endCoords": {
        "latitude": 39.805678,
        "longitude": -105.043354
      },
      "distanceMeters": 15300.5,
      "durationMs": 2100000,
      "drivingDurationMs": 1883231,
      "idlingDurationMs": 216769,
      "fuelConsumedMl": 1946,
      "fuelConsumedGallons": 0.514,
      "maxSpeedMph": 31.1,
      "averageSpeedMph": 16.3,
      "safetyEvents": []
    },
    {
      "id": "trip_41724318_20250107_862",
      "vehicleId": "41724318",
      "driverId": "20000020",
      "startMs": 1736258750000,
      "endMs": 1736262739000,
      "startAddress": "564 Jason Burg Suite 120",
      "endAddress": "0615 Timothy Point",
      "startCoords": {
        "latitude": 39.816526,
        "longitude": -105.048414
      },
      "endCoords": {
        "latitude": 39.71048,
        "longitude": -104.927867
      },
      "distanceMeters": 17236.4,
      "durationMs": 3989000,
      "drivingDurationMs": 3220268,
      "idlingDurationMs": 768732,
      "fuelConsumedMl": 2192,
      "fuelConsumedGallons": 0.579,
      "maxSpeedMph": 28.6,
      "averageSpeedMph": 9.7,
      "safetyEvents": []
    },
    {
      "id": "trip_41724318_20250107_896",
      "vehicleId": "41724318",
      "driverId": "20000018",
      "startMs": 1736279887000,
      "endMs": 1736286925000,
      "startAddress": "2183 Johns Lake",
      "endAddress": "06445 Pearson Junction Apt. 311",
      "startCoords": {
        "latitude": 39.797567,
        "longitude": -104.968614
      },
      "endCoords": {
        "latitude": 39.792833,
        "longitude": -105.085481
      },
      "distanceMeters": 43124.8,
      "durationMs": 7038000,
      "drivingDurationMs": 5657742,
      "idlingDurationMs": 1380258,
      "fuelConsumedMl": 5481,
      "fuelConsumedGallons": 1.448,
      "maxSpeedMph": 36.2,
      "averageSpeedMph": 13.7,
      "safetyEvents": []
    },
    {
      "id": "trip_41724318_20250108_925",
      "vehicleId": "41724318",
      "driverId": "20000011",
      "startMs": 1736300375000,
      "endMs": 1736302355000,
      "startAddress": "26015 Matthew Wall",
      "endAddress": "9479 Johnson Haven",
      "startCoords": {
        "latitude": 39.786282,
        "longitude": -104.922662
      },
      "endCoords": {
        "latitude": 39.708309,
        "longitude": -105.061471
      },
      "distanceMeters": 13372.3,
      "durationMs": 1980000,
      "drivingDurationMs": 1534811,
      "idlingDurationMs": 445189,
      "fuelConsumedMl": 1700,
      "fuelConsumedGallons": 0.449,
      "maxSpeedMph": 37.2,
      "averageSpeedMph": 15.1,
      "safetyEvents": []
    },
    {
      "id": "trip_41724318_20250108_955",
      "vehicleId": "41724318",
      "driverId": "20000008",
      "startMs": 1736322295000,
      "endMs": 1736324515000,
      "startAddress": "208 Hogan Wells",
      "endAddress": "77729 Ross Islands",
      "startCoords": {
        "latitude": 39.817284,
        "longitude": -104.96803
      },
      "endCoords": {
        "latitude": 39.814061,
        "longitude": -104.904424
      },
      "distanceMeters": 9583.5,
      "durationMs": 2220000,
      "drivingDurationMs": 1675079,
      "idlingDurationMs": 544921,
      "fuelConsumedMl": 1219,
      "fuelConsumedGallons": 0.322,
      "maxSpeedMph": 29.5,
      "averageSpeedMph": 9.7,
      "safetyEvents": []
    },
    {
      "id": "trip_41724318_20250108_986",
      "vehicleId": "41724318",
      "driverId": "20000001",
      "startMs": 1736333824000,
      "endMs": 1736336740000,
      "startAddress": "99240 Ward Plains Apt. 872",
      "endAddress": "258 Hector Island Apt. 956",
      "startCoords": {
        "latitude": 39.777727,
        "longitude": -104.932567
      },
      "endCoords": {
        "latitude": 39.743644,
        "longitude": -105.078982
      },
      "distanceMeters": 18339.1,
      "durationMs": 2916000,
      "drivingDurationMs": 2276009,
      "idlingDurationMs": 639991,
      "fuelConsumedMl": 2332,
      "fuelConsumedGallons": 0.616,
      "maxSpeedMph": 36.1,
      "averageSpeedMph": 14.1,
      "safetyEvents": []
    },
    {
      "id": "trip_41724318_20250108_1020",
      "vehicleId": "41724318",
      "driverId": "20000011",
      "startMs": 1736350875000,
      "endMs": 1736352615000,
      "startAddress": "4914 Gibson Grove",
      "endAddress": "53524 Russo Street Suite 171",
      "startCoords": {
        "latitude": 39.746604,
        "longitude": -105.056519
      },
      "endCoords": {
        "latitude": 39.754012,
        "longitude": -105.03932
      },
      "distanceMeters": 8075.1,
      "durationMs": 1740000,
      "drivingDurationMs": 1521247,
      "idlingDurationMs": 218753,
      "fuelConsumedMl": 1026,
      "fuelConsumedGallons": 0.271,
      "maxSpeedMph": 33.2,
      "averageSpeedMph": 10.4,
      "safetyEvents": []
    },
    {
      "id": "trip_41724318_20250108_1047",
      "vehicleId": "41724318",
      "driverId": "20000009",
      "startMs": 1736365542000,
      "endMs": 1736367582000,
      "startAddress": "25900 Robinson Mountain Apt. 307",
      "endAddress": "11386 Julia Mountains",
      "startCoords": {
        "latitude": 39.722767,
        "longitude": -105.033187
      },
      "endCoords": {
        "latitude": 39.81379,
        "longitude": -104.917151
      },
      "distanceMeters": 14422.1,
      "durationMs": 2040000,
      "drivingDurationMs": 1736214,
      "idlingDurationMs": 303786,
      "fuelConsumedMl": 1832,
      "fuelConsumedGallons": 0.484,
      "maxSpeedMph": 26.5,
      "averageSpeedMph": 15.8,
      "safetyEvents": []
    },
    {
      "id": "trip_41724318_20250109_1079",
      "vehicleId": "41724318",
      "driverId": "20000017",
      "startMs": 1736386529000,
      "endMs": 1736392462000,
      "startAddress": "6706 Fleming Knolls Apt. 691",
      "endAddress": "521 Brown Crescent",
      "startCoords": {
        "latitude": 39.69107,
        "longitude": -104.931418
      },
      "endCoords": {
        "latitude": 39.729116,
        "longitude": -104.98335
      },
      "distanceMeters": 30068.3,
      "durationMs": 5933000,
      "drivingDurationMs": 4923668,
      "idlingDurationMs": 1009332,
      "fuelConsumedMl": 3823,
      "fuelConsumedGallons": 1.01,
      "maxSpeedMph": 34.3,
      "averageSpeedMph": 11.3,
      "safetyEvents": []
    },
    {
      "id": "trip_41724318_20250109_1114",
      "vehicleId": "41724318",
      "driverId": "20000007",
      "startMs": 1736408872000,
      "endMs": 1736410132000,
      "startAddress": "4616 Thomas Mews Apt. 643",
      "endAddress": "09537 James Manors Apt. 762",
      "startCoords": {
        "latitude": 39.771821,
        "longitude": -104.939731
      },
      "endCoords": {
        "latitude": 39.826921,
        "longitude": -105.004355
      },
      "distanceMeters": 5602.8,
      "durationMs": 1260000,
      "drivingDurationMs": 1014685,
      "idlingDurationMs": 245315,
      "fuelConsumedMl": 712,
      "fuelConsumedGallons": 0.188,
      "maxSpeedMph": 27.3,
      "averageSpeedMph": 9.9,
      "safetyEvents": []
    },
    {
      "id": "trip_41724318_20250109_1143",
      "vehicleId": "41724318",
      "driverId": "20000018",
      "startMs": 1736424514000,
      "endMs": 1736434018000,
      "startAddress": "564 Julia Shores Apt. 405",
      "endAddress": "82353 Ashley Oval",
      "startCoords": {
        "latitude": 39.777539,
        "longitude": -105.058302
      },
      "endCoords": {
        "latitude": 39.802251,
        "longitude": -104.916172
      },
      "distanceMeters": 62993.1,
      "durationMs": 9504000,
      "drivingDurationMs": 7516934,
      "idlingDurationMs": 1987066,
      "fuelConsumedMl": 8010,
      "fuelConsumedGallons": 2.116,
      "maxSpeedMph": 37.8,
      "averageSpeedMph": 14.8,
      "safetyEvents": []
    },
    {
      "id": "trip_41724318_20250109_1174",
      "vehicleId": "41724318",
      "driverId": "20000020",
      "startMs": 1736439617000,
      "endMs": 1736453897000,
      "startAddress": "842 Miller View",
      "endAddress": "740 Rachael Groves",
      "startCoords": {
        "latitude": 39.818163,
        "longitude": -105.015279
      },
      "endCoords": {
        "latitude": 39.715052,
        "longitude": -105.004182
      },
      "distanceMeters": 98171.7,
      "durationMs": 14280000,
      "drivingDurationMs": 11306476,
      "idlingDurationMs": 2973524,
      "fuelConsumedMl": 12480,
      "fuelConsumedGallons": 3.297,
      "maxSpeedMph": 34.7,
      "averageSpeedMph": 15.4,
      "safetyEvents": []
    },
    {
      "id": "trip_41724318_20250109_1203",
      "vehicleId": "41724318",
      "driverId": "20000015",
      "startMs": 1736454920000,
      "endMs": 1736456900000,
      "startAddress": "59757 Carolyn Squares",
      "endAddress": "731 Nixon Trail",
      "startCoords": {
        "latitude": 39.826033,
        "longitude": -105.01389
      },
      "endCoords": {
        "latitude": 39.737355,
        "longitude": -105.002334
      },
      "distanceMeters": 10793.1,
      "durationMs": 1980000,
      "drivingDurationMs": 1781563,
      "idlingDurationMs": 198437,
      "fuelConsumedMl": 1374,
      "fuelConsumedGallons": 0.363,
      "maxSpeedMph": 27.0,
      "averageSpeedMph": 12.2,
      "safetyEvents": []
    },
    {
      "id": "trip_41724318_20250110_1232",
      "vehicleId": "41724318",
      "driverId": "20000014",
      "startMs": 1736474631000,
      "endMs": 1736479878000,
      "startAddress": "3481 Williams Port Suite 101",
      "endAddress": "9301 Kerr Course Apt. 604",
      "startCoords": {
        "latitude": 39.812382,
        "longitude": -104.930994
      },
      "endCoords": {
        "latitude": 39.728168,
        "longitude": -105.072523
      },
      "distanceMeters": 30498.9,
      "durationMs": 5247000,
      "drivingDurationMs": 4071516,
      "idlingDurationMs": 1175484,
      "fuelConsumedMl": 3876,
      "fuelConsumedGallons": 1.024,
      "maxSpeedMph": 33.1,
      "averageSpeedMph": 13.0,
      "safetyEvents": []
    },
    {
      "id": "trip_41724318_20250110_1255",
      "vehicleId": "41724318",
      "driverId": "20000005",
      "startMs": 1736492201000,
      "endMs": 1736493881000,
      "startAddress": "392 Reyes Fords Suite 063",
      "endAddress": "0313 Vincent Hollow",
      "startCoords": {
        "latitude": 39.74399,
        "longitude": -104.945462
      },
      "endCoords": {
        "latitude": 39.818803,
        "longitude": -104.962655
      },
      "distanceMeters": 9416.7,
      "durationMs": 1680000,
      "drivingDurationMs": 1478489,
      "idlingDurationMs": 201511,
      "fuelConsumedMl": 1196,
      "fuelConsumedGallons": 0.316,
      "maxSpeedMph": 35.3,
      "averageSpeedMph": 12.5,
      "safetyEvents": []
    },
    {
      "id": "trip_41724318_20250110_1284",
      "vehicleId": "41724318",
      "driverId": "20000007",
      "startMs": 1736507733000,
      "endMs": 1736509893000,
      "startAddress": "0996 James Tunnel Suite 009",
      "endAddress": "24265 Kimberly Road Apt. 221",
      "startCoords": {
        "latitude": 39.728185,
        "longitude": -104.955341
      },
      "endCoords": {
        "latitude": 39.808941,
        "longitude": -104.994743
      },
      "distanceMeters": 12687.2,
      "durationMs": 2160000,
      "drivingDurationMs": 1798922,
      "idlingDurationMs": 361078,
      "fuelConsumedMl": 1613,
      "fuelConsumedGallons": 0.426,
      "maxSpeedMph": 36.3,
      "averageSpeedMph": 13.1,
      "safetyEvents": []
    },
    {
      "id": "trip_41724318_20250110_1309",
      "vehicleId": "41724318",
      "driverId": "20000006",
      "startMs": 1736521984000,
      "endMs": 1736524069000,
      "startAddress": "337 Lopez Union Apt. 123",
      "endAddress": "042 Howard Mount Suite 286",
      "startCoords": {
        "latitude": 39.775602,
        "longitude": -104.990738
      },
      "endCoords": {
        "latitude": 39.820076,
        "longitude": -104.901063
      },
      "distanceMeters": 11913.8,
      "durationMs": 2085000,
      "drivingDurationMs": 1826620,
      "idlingDurationMs": 258380,
      "fuelConsumedMl": 1514,
      "fuelConsumedGallons": 0.4,
      "maxSpeedMph": 27.9,
      "averageSpeedMph": 12.8,
      "safetyEvents": []
    },
    {
      "id": "trip_41724318_20250110_1335",
      "vehicleId": "41724318",
      "driverId": "20000018",
      "startMs": 1736535221000,
      "endMs": 1736536781000,
      "startAddress": "8201 Dawn Bridge",
      "endAddress": "67532 Paul Unions Apt. 613",
      "startCoords": {
        "latitude": 39.685886,
        "longitude": -104.96146
      },
      "endCoords": {
        "latitude": 39.716158,
        "longitude": -105.077726
      },
      "distanceMeters": 6589.9,
      "durationMs": 1560000,
      "drivingDurationMs": 1302663,
      "idlingDurationMs": 257337,
      "fuelConsumedMl": 837,
      "fuelConsumedGallons": 0.221,
      "maxSpeedMph": 28.9,
      "averageSpeedMph": 9.4,
      "safetyEvents": []
    },
    {
      "id": "trip_41724318_20250111_1366",
      "vehicleId": "41724318",
      "driverId": "20000016",
      "startMs": 1736557902000,
      "endMs": 1736569506000,
      "startAddress": "4776 William Track",
      "endAddress": "704 Quinn Loop Suite 682",
      "startCoords": {
        "latitude": 39.710453,
        "longitude": -104.958141
      },
      "endCoords": {
        "latitude": 39.760835,
        "longitude": -105.081284
      },
      "distanceMeters": 56965.1,
      "durationMs": 11604000,
      "drivingDurationMs": 8880414,
      "idlingDurationMs": 2723586,
      "fuelConsumedMl": 7241,
      "fuelConsumedGallons": 1.913,
      "maxSpeedMph": 35.0,
      "averageSpeedMph": 11.0,
      "safetyEvents": []
    },
    {
      "id": "trip_41724318_20250111_1395",
      "vehicleId": "41724318",
      "driverId": "20000017",
      "startMs": 1736582540000,
      "endMs": 1736584340000,
      "startAddress": "92856 Rodgers Springs",
      "endAddress": "502 Natasha Knolls",
      "startCoords": {
        "latitude": 39.773767,
        "longitude": -105.048824
      },
      "endCoords": {
        "latitude": 39.695271,
        "longitude": -105.063641
      },
      "distanceMeters": 9867.9,
      "durationMs": 1800000,
      "drivingDurationMs": 1424148,
      "idlingDurationMs": 375852,
      "fuelConsumedMl": 1253,
      "fuelConsumedGallons": 0.331,
      "maxSpeedMph": 32.8,
      "averageSpeedMph": 12.3,
      "safetyEvents": []
    },
    {
      "id": "trip_41724318_20250111_1420",
      "vehicleId": "41724318",
      "driverId": "20000009",
      "startMs": 1736596618000,
      "endMs": 1736598838000,
      "startAddress": "088 Richardson Harbor Apt. 293",
      "endAddress": "8384 Faith Road",
      "startCoords": {
        "latitude": 39.73808,
        "longitude": -104.977034
      },
      "endCoords": {
        "latitude": 39.741916,
        "longitude": -105.035232
      },
      "distanceMeters": 9785.0,
      "durationMs": 2220000,
      "drivingDurationMs": 1689720,
      "idlingDurationMs": 530280,
      "fuelConsumedMl": 1245,
      "fuelConsumedGallons": 0.329,
      "maxSpeedMph": 33.2,
      "averageSpeedMph": 9.9,
      "safetyEvents": []
    },
    {
      "id": "trip_41724318_20250111_1449",
      "vehicleId": "41724318",
      "driverId": "20000003",
      "startMs": 1736611557000,
      "endMs": 1736615914000,
      "startAddress": "1539 Kristine Expressway Suite 247",
      "endAddress": "5003 Cassie Brook",
      "startCoords": {
        "latitude": 39.777509,
        "longitude": -104.922416
      },
      "endCoords": {
        "latitude": 39.753903,
        "longitude": -105.041464
      },
      "distanceMeters": 20829.4,
      "durationMs": 4357000,
      "drivingDurationMs": 3571889,
      "idlingDurationMs": 785111,
      "fuelConsumedMl": 2650,
      "fuelConsumedGallons": 0.7,
      "maxSpeedMph": 26.7,
      "averageSpeedMph": 10.7,
      "safetyEvents": []
    },
    {
      "id": "trip_41724318_20250111_1478",
      "vehicleId": "41724318",
      "driverId": "20000001",
      "startMs": 1736627252000,
      "endMs": 1736629472000,
      "startAddress": "67148 Rose Cliff Apt. 314",
      "endAddress": "4572 Stephen Shore Suite 940",
      "startCoords": {
        "latitude": 39.702016,
        "longitude": -105.040267
      },
      "endCoords": {
        "latitude": 39.798056,
        "longitude": -104.977521
      },
      "distanceMeters": 11730.8,
      "durationMs": 2220000,
      "drivingDurationMs": 1702939,
      "idlingDurationMs": 517061,
      "fuelConsumedMl": 1491,
      "fuelConsumedGallons": 0.394,
      "maxSpeedMph": 35.1,
      "averageSpeedMph": 11.8,
      "safetyEvents": []
    },
    {
      "id": "trip_41724318_20250112_1510",
      "vehicleId": "41724318",
      "driverId": "20000013",
      "startMs": 1736654326000,
      "endMs": 1736656066000,
      "startAddress": "961 David Villages Apt. 552",
      "endAddress": "228 Mark Villages",
      "startCoords": {
        "latitude": 39.806399,
        "longitude": -104.923562
      },
      "endCoords": {
        "latitude": 39.827763,
        "longitude": -104.918249
      },
      "distanceMeters": 9578.5,
      "durationMs": 1740000,
      "drivingDurationMs": 1331104,
      "idlingDurationMs": 408896,
      "fuelConsumedMl": 1219,
      "fuelConsumedGallons": 0.322,
      "maxSpeedMph": 39.3,
      "averageSpeedMph": 12.3,
      "safetyEvents": []
    },
    {
      "id": "trip_41724318_20250112_1536",
      "vehicleId": "41724318",
      "driverId": "20000010",
      "startMs": 1736678267000,
      "endMs": 1736680007000,
      "startAddress": "803 Hannah Row Suite 647",
      "endAddress": "127 Priscilla Extensions Suite 285",
      "startCoords": {
        "latitude": 39.769165,
        "longitude": -105.075194
      },
      "endCoords": {
        "latitude": 39.737163,
        "longitude": -105.000871
      },
      "distanceMeters": 10703.0,
      "durationMs": 1740000,
      "drivingDurationMs": 1320639,
      "idlingDurationMs": 419361,
      "fuelConsumedMl": 1359,
      "fuelConsumedGallons": 0.359,
      "maxSpeedMph": 27.4,
      "averageSpeedMph": 13.8,
      "safetyEvents": []
    },
    {
      "id": "trip_41724318_20250112_1565",
      "vehicleId": "41724318",
      "driverId": "20000017",
      "startMs": 1736699809000,
      "endMs": 1736702209000,
      "startAddress": "74356 Smith Roads",
      "endAddress": "2871 Howe Lakes Suite 957",
      "startCoords": {
        "latitude": 39.805563,
        "longitude": -105.059763
      },
      "endCoords": {
        "latitude": 39.758028,
        "longitude": -105.046105
      },
      "distanceMeters": 12640.5,
      "durationMs": 2400000,
      "drivingDurationMs": 1971190,
      "idlingDurationMs": 428810,
      "fuelConsumedMl": 1609,
      "fuelConsumedGallons": 0.425,
      "maxSpeedMph": 30.7,
      "averageSpeedMph": 11.8,
      "safetyEvents": []
    },
    {
      "id": "trip_41724318_20250113_1594",
      "vehicleId": "41724318",
      "driverId": "20000008",
      "startMs": 1736740061000,
      "endMs": 1736742041000,
      "startAddress": "567 Donna Causeway Apt. 656",
      "endAddress": "771 Matthew Points Apt. 187",
      "startCoords": {
        "latitude": 39.711955,
        "longitude": -105.080118
      },
      "endCoords": {
        "latitude": 39.770698,
        "longitude": -105.024685
      },
      "distanceMeters": 9799.8,
      "durationMs": 1980000,
      "drivingDurationMs": 1560679,
      "idlingDurationMs": 419321,
      "fuelConsumedMl": 1245,
      "fuelConsumedGallons": 0.329,
      "maxSpeedMph": 28.8,
      "averageSpeedMph": 11.1,
      "safetyEvents": []
    },
    {
      "id": "trip_41724318_20250113_1624",
      "vehicleId": "41724318",
      "driverId": "20000016",
      "startMs": 1736765972000,
      "endMs": 1736767652000,
      "startAddress": "550 Gary Junction",
      "endAddress": "80101 Melissa Valleys Suite 718",
      "startCoords": {
        "latitude": 39.760244,
        "longitude": -104.973964
      },
      "endCoords": {
        "latitude": 39.751947,
        "longitude": -104.928538
      },
      "distanceMeters": 11155.4,
      "durationMs": 1680000,
      "drivingDurationMs": 1510924,
      "idlingDurationMs": 169076,
      "fuelConsumedMl": 1420,
      "fuelConsumedGallons": 0.375,
      "maxSpeedMph": 30.9,
      "averageSpeedMph": 14.9,
      "safetyEvents": []
    },
    {
      "id": "trip_41724318_20250113_1651",
      "vehicleId": "41724318",
      "driverId": "20000020",
      "startMs": 1736777933000,
      "endMs": 1736779913000,
      "startAddress": "215 Victor Glens",
      "endAddress": "6382 Leach Prairie",
      "startCoords": {
        "latitude": 39.787616,
        "longitude": -105.072148
      },
      "endCoords": {
        "latitude": 39.755815,
        "longitude": -104.913073
      },
      "distanceMeters": 13265.0,
      "durationMs": 1980000,
      "drivingDurationMs": 1528319,
      "idlingDurationMs": 451681,
      "fuelConsumedMl": 1688,
      "fuelConsumedGallons": 0.446,
      "maxSpeedMph": 28.6,
      "averageSpeedMph": 15.0,
      "safetyEvents": []
    },
    {
      "id": "trip_41724318_20250113_1676",
      "vehicleId": "41724318",
      "driverId": "20000018",
      "startMs": 1736789447000,
      "endMs": 1736791247000,
      "startAddress": "8705 Tracy Circles Apt. 651",
      "endAddress": "4070 Rose Trace",
      "startCoords": {
        "latitude": 39.741652,
        "longitude": -104.977325
      },
      "endCoords": {
        "latitude": 39.724337,
        "longitude": -104.984372
      },
      "distanceMeters": 13955.0,
      "durationMs": 1800000,
      "drivingDurationMs": 1575873,
      "idlingDurationMs": 224127,
      "fuelConsumedMl": 1775,
      "fuelConsumedGallons": 0.469,
      "maxSpeedMph": 37.8,
      "averageSpeedMph": 17.3,
      "safetyEvents": []
    },
    {
      "id": "trip_41724318_20250113_1707",
      "vehicleId": "41724318",
      "driverId": "20000001",
      "startMs": 1736806418000,
      "endMs": 1736807798000,
      "startAddress": "91845 Mccullough Shoal",
      "endAddress": "659 Matthew Curve Suite 025",
      "startCoords": {
        "latitude": 39.780569,
        "longitude": -104.938738
      },
      "endCoords": {
        "latitude": 39.739273,
        "longitude": -104.93174
      },
      "distanceMeters": 8154.9,
      "durationMs": 1380000,
      "drivingDurationMs": 1205068,
      "idlingDurationMs": 174932,
      "fuelConsumedMl": 1037,
      "fuelConsumedGallons": 0.274,
      "maxSpeedMph": 33.7,
      "averageSpeedMph": 13.2,
      "safetyEvents": []
    },
    {
      "id": "trip_41724318_20250114_1735",
      "vehicleId": "41724318",
      "driverId": "20000020",
      "startMs": 1736825709000,
      "endMs": 1736828134000,
      "startAddress": "34756 Dawn Ways Suite 426",
      "endAddress": "5546 Aaron Fall",
      "startCoords": {
        "latitude": 39.807289,
        "longitude": -105.080639
      },
      "endCoords": {
        "latitude": 39.788113,
        "longitude": -105.08408
      },
      "distanceMeters": 10575.3,
      "durationMs": 2425000,
      "drivingDurationMs": 2084809,
      "idlingDurationMs": 340191,
      "fuelConsumedMl": 1344,
      "fuelConsumedGallons": 0.355,
      "maxSpeedMph": 34.9,
      "averageSpeedMph": 9.8,
      "safetyEvents": []
    },
    {
      "id": "trip_41724318_20250114_1764",
      "vehicleId": "41724318",
      "driverId": "20000005",
      "startMs": 1736845385000,
      "endMs": 1736850300000,
      "startAddress": "954 Sherry Forks",
      "endAddress": "7020 Stuart Club Suite 378",
      "startCoords": {
        "latitude": 39.798387,
        "longitude": -105.058303
      },
      "endCoords": {
        "latitude": 39.78455,
        "longitude": -104.964879
      },
      "distanceMeters": 30340.6,
      "durationMs": 4915000,
      "drivingDurationMs": 4048752,
      "idlingDurationMs": 866248,
      "fuelConsumedMl": 3857,
      "fuelConsumedGallons": 1.019,
      "maxSpeedMph": 36.6,
      "averageSpeedMph": 13.8,
      "safetyEvents": []
    },
    {
      "id": "trip_41724318_20250114_1788",
      "vehicleId": "41724318",
      "driverId": "20000007",
      "startMs": 1736861938000,
      "endMs": 1736871396000,
      "startAddress": "77312 Zhang Harbor",
      "endAddress": "485 Patricia Trafficway",
      "startCoords": {
        "latitude": 39.686618,
        "longitude": -104.967283
      },
      "endCoords": {
        "latitude": 39.714791,
        "longitude": -105.073531
      },
      "distanceMeters": 55069.7,
      "durationMs": 9458000,
      "drivingDurationMs": 7809595,
      "idlingDurationMs": 1648405,
      "fuelConsumedMl": 7003,
      "fuelConsumedGallons": 1.85,
      "maxSpeedMph": 26.7,
      "averageSpeedMph": 13.0,
      "safetyEvents": []
    },
    {
      "id": "trip_41724318_20250114_1815",
      "vehicleId": "41724318",
      "driverId": "20000020",
      "startMs": 1736875478000,
      "endMs": 1736880307000,
      "startAddress": "952 Jacob Shore",
      "endAddress": "12151 Cynthia Knoll Suite 244",
      "startCoords": {
        "latitude": 39.6841,
        "longitude": -104.962264
      },
      "endCoords": {
        "latitude": 39.796205,
        "longitude": -104.903907
      },
      "distanceMeters": 35583.8,
      "durationMs": 4829000,
      "drivingDurationMs": 4316446,
      "idlingDurationMs": 512554,
      "fuelConsumedMl": 4524,
      "fuelConsumedGallons": 1.195,
      "maxSpeedMph": 31.0,
      "averageSpeedMph": 16.5,
      "safetyEvents": []
    },
    {
      "id": "trip_41724318_20250114_1849",
      "vehicleId": "41724318",
      "driverId": "20000011",
      "startMs": 1736891177000,
      "endMs": 1736893097000,
      "startAddress": "08307 Nelson Hill Apt. 583",
      "endAddress": "0172 Jackson Row Suite 328",
      "startCoords": {
        "latitude": 39.771966,
        "longitude": -104.96323
      },
      "endCoords": {
        "latitude": 39.701192,
        "longitude": -105.060301
      },
      "distanceMeters": 11511.9,
      "durationMs": 1920000,
      "drivingDurationMs": 1709953,
      "idlingDurationMs": 210047,
      "fuelConsumedMl": 1465,
      "fuelConsumedGallons": 0.387,
      "maxSpeedMph": 37.5,
      "averageSpeedMph": 13.4,
      "safetyEvents": []
    },
    {
      "id": "trip_41724318_20250115_1879",
      "vehicleId": "41724318",
      "driverId": "20000015",
      "startMs": 1736912348000,
      "endMs": 1736914628000,
      "startAddress": "7645 Evans River Apt. 348",
      "endAddress": "543 Ingram Stravenue",
      "startCoords": {
        "latitude": 39.714031,
        "longitude": -104.983829
      },
      "endCoords": {
        "latitude": 39.800225,
        "longitude": -105.043991
      },
      "distanceMeters": 10740.2,
      "durationMs": 2280000,
      "drivingDurationMs": 1830060,
      "idlingDurationMs": 449940,
      "fuelConsumedMl": 1367,
      "fuelConsumedGallons": 0.361,
      "maxSpeedMph": 38.5,
      "averageSpeedMph": 10.5,
      "safetyEvents": []
    },
    {
      "id": "trip_41724318_20250115_1905",
      "vehicleId": "41724318",
      "driverId": "20000018",
      "startMs": 1736930475000,
      "endMs": 1736932155000,
      "startAddress": "20996 Phelps Meadow",
      "endAddress": "2037 Kenneth Glen",
      "startCoords": {
        "latitude": 39.824159,
        "longitude": -104.94941
      },
      "endCoords": {
        "latitude": 39.733093,
        "longitude": -104.952062
      },
      "distanceMeters": 7015.7,
      "durationMs": 1680000,
      "drivingDurationMs": 1367458,
      "idlingDurationMs": 312542,
      "fuelConsumedMl": 893,
      "fuelConsumedGallons": 0.236,
      "maxSpeedMph": 39.6,
      "averageSpeedMph": 9.3,
      "safetyEvents": []
    },
    {
      "id": "trip_41724318_20250115_1936",
      "vehicleId": "41724318",
      "driverId": "20000001",
      "startMs": 1736945922000,
      "endMs": 1736952618000,
      "startAddress": "0667 Johnny Junction",
      "endAddress": "31714 Andrews Island",
      "startCoords": {
        "latitude": 39.690597,
        "longitude": -105.049878
      },
      "endCoords": {
        "latitude": 39.80101,
        "longitude": -105.051105
      },
      "distanceMeters": 41554.3,
      "durationMs": 6696000,
      "drivingDurationMs": 5790467,
      "idlingDurationMs": 905533,
      "fuelConsumedMl": 5284,
      "fuelConsumedGallons": 1.396,
      "maxSpeedMph": 35.1,
      "averageSpeedMph": 13.9,
      "safetyEvents": []
    },
    {
      "id": "trip_41724318_20250115_1965",
      "vehicleId": "41724318",
      "driverId": "20000013",
      "startMs": 1736960750000,
      "endMs": 1736962790000,
      "startAddress": "61510 Smith Street Suite 570",
      "endAddress": "95086 Preston Grove Suite 123",
      "startCoords": {
        "latitude": 39.787024,
        "longitude": -104.976594
      },
      "endCoords": {
        "latitude": 39.752856,
        "longitude": -104.904511
      },
      "distanceMeters": 9506.2,
      "durationMs": 2040000,
      "drivingDurationMs": 1540079,
      "idlingDurationMs": 499921,
      "fuelConsumedMl": 1208,
      "fuelConsumedGallons": 0.319,
      "maxSpeedMph": 27.3,
      "averageSpeedMph": 10.4,
      "safetyEvents": []
    },
    {
      "id": "trip_41724318_20250115_1988",
      "vehicleId": "41724318",
      "driverId": "20000007",
      "startMs": 1736971656000,
      "endMs": 1736973576000,
      "startAddress": "118 Goodman Extensions",
      "endAddress": "501 Murray Park",
      "startCoords": {
        "latitude": 39.690771,
        "longitude": -104.974211
      },
      "endCoords": {
        "latitude": 39.750907,
        "longitude": -104.928584
      },
      "distanceMeters": 10778.5,
      "durationMs": 1920000,
      "drivingDurationMs": 1516844,
      "idlingDurationMs": 403156,
      "fuelConsumedMl": 1370,
      "fuelConsumedGallons": 0.362,
      "maxSpeedMph": 38.8,
      "averageSpeedMph": 12.6,
      "safetyEvents": []
    },
    {
      "id": "trip_41724318_20250116_2016",
      "vehicleId": "41724318",
      "driverId": "20000013",
      "startMs": 1736991421000,
      "endMs": 1736994311000,
      "startAddress": "87875 Gordon Wall Apt. 737",
      "endAddress": "09773 Mikayla Vista Suite 609",
      "startCoords": {
        "latitude": 39.703602,
        "longitude": -105.070928
      },
      "endCoords": {
        "latitude": 39.689658,
        "longitude": -105.008237
      },
      "distanceMeters": 15416.9,
      "durationMs": 2890000,
      "drivingDurationMs": 2514374,
      "idlingDurationMs": 375626,
      "fuelConsumedMl": 1961,
      "fuelConsumedGallons": 0.518,
      "maxSpeedMph": 26.6,
      "averageSpeedMph": 11.9,
      "safetyEvents": []
    },
    {
      "id": "trip_41724318_20250116_2045",
      "vehicleId": "41724318",
      "driverId": "20000013",
      "startMs": 1737007624000,
      "endMs": 1737009184000,
      "startAddress": "9106 Smith Manor",
      "endAddress": "65046 Stephanie Loop",
      "startCoords": {
        "latitude": 39.707401,
        "longitude": -105.033944
      },
      "endCoords": {
        "latitude": 39.706846,
        "longitude": -104.9271
      },
      "distanceMeters": 8916.4,
      "durationMs": 1560000,
      "drivingDurationMs": 1260989,
      "idlingDurationMs": 299011,
      "fuelConsumedMl": 1132,
      "fuelConsumedGallons": 0.299,
      "maxSpeedMph": 27.5,
      "averageSpeedMph": 12.8,
      "safetyEvents": []
    },
    {
      "id": "trip_41724318_20250116_2073",
      "vehicleId": "41724318",
      "driverId": "20000002",
      "startMs": 1737022708000,
      "endMs": 1737028210000,
      "startAddress": "8311 Susan View",
      "endAddress": "9592 Kimberly Estates",
      "startCoords": {
        "latitude": 39.722853,
        "longitude": -105.080934
      },
      "endCoords": {
        "latitude": 39.750786,
        "longitude": -105.004341
      },
      "distanceMeters": 29817.5,
      "durationMs": 5502000,
      "drivingDurationMs": 4187392,
      "idlingDurationMs": 1314608,
      "fuelConsumedMl": 3789,
      "fuelConsumedGallons": 1.001,
      "maxSpeedMph": 31.5,
      "averageSpeedMph": 12.1,
      "safetyEvents": []
    },
    {
      "id": "trip_41724318_20250116_2103",
      "vehicleId": "41724318",
      "driverId": "20000011",
      "startMs": 1737037821000,
      "endMs": 1737045353000,
      "startAddress": "447 Church Views",
      "endAddress": "0577 Dennis Lakes",
      "startCoords": {
        "latitude": 39.714443,
        "longitude": -105.059037
      },
      "endCoords": {
        "latitude": 39.766617,
        "longitude": -105.065831
      },
      "distanceMeters": 47246.0,
      "durationMs": 7532000,
      "drivingDurationMs": 6060094,
      "idlingDurationMs": 1471906,
      "fuelConsumedMl": 6007,
      "fuelConsumedGallons": 1.587,
      "maxSpeedMph": 35.1,
      "averageSpeedMph": 14.0,
      "safetyEvents": []
    },
    {
      "id": "trip_41724318_20250116_2135",
      "vehicleId": "41724318",
      "driverId": "20000016",
      "startMs": 1737051013000,
      "endMs": 1737052693000,
      "startAddress": "8636 David Lake Apt. 687",
      "endAddress": "09225 Ward Valley",
      "startCoords": {
        "latitude": 39.794032,
        "longitude": -104.900161
      },
      "endCoords": {
        "latitude": 39.725656,
        "longitude": -104.970355
      },
      "distanceMeters": 9089.1,
      "durationMs": 1680000,
      "drivingDurationMs": 1306545,
      "idlingDurationMs": 373455,
      "fuelConsumedMl": 1155,
      "fuelConsumedGallons": 0.305,
      "maxSpeedMph": 28.3,
      "averageSpeedMph": 12.1,
      "safetyEvents": []
    },
    {
      "id": "trip_41724318_20250116_2164",
      "vehicleId": "41724318",
      "driverId": "20000001",
      "startMs": 1737064466000,
      "endMs": 1737066026000,
      "startAddress": "70861 Lisa Course",
      "endAddress": "402 Johnson Brooks",
      "startCoords": {
        "latitude": 39.739165,
        "longitude": -105.056174
      },
      "endCoords": {
        "latitude": 39.752547,
        "longitude": -105.011748
      },
      "distanceMeters": 6396.0,
      "durationMs": 1560000,
      "drivingDurationMs": 1224135,
      "idlingDurationMs": 335865,
      "fuelConsumedMl": 814,
      "fuelConsumedGallons": 0.215,
      "maxSpeedMph": 30.1,
      "averageSpeedMph": 9.2,
      "safetyEvents": []
    },
    {
      "id": "trip_41724318_20250117_2192",
      "vehicleId": "41724318",
      "driverId": "20000002",
      "startMs": 1737082873000,
      "endMs": 1737089349000,
      "startAddress": "0828 Stacey Terrace",
      "endAddress": "9137 Robert Islands Apt. 942",
      "startCoords": {
        "latitude": 39.688922,
        "longitude": -105.058156
      },
      "endCoords": {
        "latitude": 39.723427,
        "longitude": -104.948645
      },
      "distanceMeters": 42314.5,
      "durationMs": 6476000,
      "drivingDurationMs": 5250353,
      "idlingDurationMs": 1225647,
      "fuelConsumedMl": 5379,
      "fuelConsumedGallons": 1.421,
      "maxSpeedMph": 30.2,
      "averageSpeedMph": 14.6,
      "safetyEvents": []
    },
    {
      "id": "trip_41724318_20250117_2217",
      "vehicleId": "41724318",
      "driverId": "20000001",
      "startMs": 1737100158000,
      "endMs": 1737107602000,
      "startAddress": "20981 Smith Way Suite 696",
      "endAddress": "360 Simpson Overpass",
      "startCoords": {
        "latitude": 39.695113,
        "longitude": -104.946787
      },
      "endCoords": {
        "latitude": 39.759883,
        "longitude": -104.967867
      },
      "distanceMeters": 48942.7,
      "durationMs": 7444000,
      "drivingDurationMs": 5720735,
      "idlingDurationMs": 1723265,
      "fuelConsumedMl": 6223,
      "fuelConsumedGallons": 1.644,
      "maxSpeedMph": 27.5,
      "averageSpeedMph": 14.7,
      "safetyEvents": []
    },
    {
      "id": "trip_41724318_20250117_2249",
      "vehicleId": "41724318",
      "driverId": "20000022",
      "startMs": 1737118397000,
      "endMs": 1737125471000,
      "startAddress": "930 Tammy Turnpike Apt. 781",
      "endAddress": "9539 Sanchez Trail Suite 982",
      "startCoords": {
        "latitude": 39.73137,
        "longitude": -105.028519
      },
      "endCoords": {
        "latitude": 39.740956,
        "longitude": -105.004943
      },
      "distanceMeters": 34750.2,
      "durationMs": 7074000,
      "drivingDurationMs": 5659226,
      "idlingDurationMs": 1414774,
      "fuelConsumedMl": 4418,
      "fuelConsumedGallons": 1.167,
      "maxSpeedMph": 32.4,
      "averageSpeedMph": 11.0,
      "safetyEvents": []
    },
    {
      "id": "trip_41724318_20250117_2276",
      "vehicleId": "41724318",
      "driverId": "20000022",
      "startMs": 1737130433000,
      "endMs": 1737138746000,
      "startAddress": "28934 Amanda Burg",
      "endAddress": "53650 Schultz Locks",
      "startCoords": {
        "latitude": 39.820394,
        "longitude": -105.049898
      },
      "endCoords": {
        "latitude": 39.713454,
        "longitude": -104.928518
      },
      "distanceMeters": 43480.3,
      "durationMs": 8313000,
      "drivingDurationMs": 6492084,
      "idlingDurationMs": 1820916,
      "fuelConsumedMl": 5527,
      "fuelConsumedGallons": 1.46,
      "maxSpeedMph": 27.0,
      "averageSpeedMph": 11.7,
      "safetyEvents": []
    },
    {
      "id": "trip_41724318_20250117_2307",
      "vehicleId": "41724318",
      "driverId": "20000021",
      "startMs": 1737144976000,
      "endMs": 1737158409000,
      "startAddress": "15953 Linda Parkways Suite 162",
      "endAddress": "2881 Cortez Stream",
      "startCoords": {
        "latitude": 39.81032,
        "longitude": -104.91532
      },
      "endCoords": {
        "latitude": 39.721426,
        "longitude": -105.069527
      },
      "distanceMeters": 67882.4,
      "durationMs": 13433000,
      "drivingDurationMs": 10797156,
      "idlingDurationMs": 2635844,
      "fuelConsumedMl": 8631,
      "fuelConsumedGallons": 2.28,
      "maxSpeedMph": 39.7,
      "averageSpeedMph": 11.3,
      "safetyEvents": []
    },
    {
      "id": "trip_41724318_20250118_2337",
      "vehicleId": "41724318",
      "driverId": "20000007",
      "startMs": 1737170926000,
      "endMs": 1737177834000,
      "startAddress": "67743 Williams Greens",
      "endAddress": "859 Samuel Green",
      "startCoords": {
        "latitude": 39.826185,
        "longitude": -104.938534
      },
      "endCoords": {
        "latitude": 39.760311,
        "longitude": -104.93974
      },
      "distanceMeters": 43913.1,
      "durationMs": 6908000,
      "drivingDurationMs": 5729733,
      "idlingDurationMs": 1178267,
      "fuelConsumedMl": 5583,
      "fuelConsumedGallons": 1.475,
      "maxSpeedMph": 31.0,
      "averageSpeedMph": 14.2,
      "safetyEvents": []
    },
    {
      "id": "trip_41724318_20250118_2370",
      "vehicleId": "41724318",
      "driverId": "20000010",
      "startMs": 1737191019000,
      "endMs": 1737192999000,
      "startAddress": "10704 Charles Union",
      "endAddress": "0315 Dunn Camp Suite 606",
      "startCoords": {
        "latitude": 39.78102,
        "longitude": -104.945374
      },
      "endCoords": {
        "latitude": 39.730395,
        "longitude": -105.042172
      },
      "distanceMeters": 10161.1,
      "durationMs": 1980000,
      "drivingDurationMs": 1523535,
      "idlingDurationMs": 456465,
      "fuelConsumedMl": 1291,
      "fuelConsumedGallons": 0.341,
      "maxSpeedMph": 31.1,
      "averageSpeedMph": 11.5,
      "safetyEvents": []
    },
    {
      "id": "trip_41724318_20250118_2399",
      "vehicleId": "41724318",
      "driverId": "20000008",
      "startMs": 1737205634000,
      "endMs": 1737212513000,
      "startAddress": "337 Kevin Overpass",
      "endAddress": "50743 Brandon Flats Suite 007",
      "startCoords": {
        "latitude": 39.695641,
        "longitude": -104.938872
      },
      "endCoords": {
        "latitude": 39.79559,
        "longitude": -104.949943
      },
      "distanceMeters": 30943.0,
      "durationMs": 6879000,
      "drivingDurationMs": 5994332,
      "idlingDurationMs": 884668,
      "fuelConsumedMl": 3933,
      "fuelConsumedGallons": 1.039,
      "maxSpeedMph": 38.0,
      "averageSpeedMph": 10.1,
      "safetyEvents": []
    },
    {
      "id": "trip_41724318_20250118_2426",
      "vehicleId": "41724318",
      "driverId": "20000019",
      "startMs": 1737217830000,
      "endMs": 1737226002000,
      "startAddress": "248 Michelle Hills Suite 046",
      "endAddress": "555 Felicia Port Apt. 240",
      "startCoords": {
        "latitude": 39.79202,
        "longitude": -104.956665
      },
      "endCoords": {
        "latitude": 39.781862,
        "longitude": -105.030416
      },
      "distanceMeters": 54580.0,
      "durationMs": 8172000,
      "drivingDurationMs": 7207557,
      "idlingDurationMs": 964443,
      "fuelConsumedMl": 6939,
      "fuelConsumedGallons": 1.833,
      "maxSpeedMph": 34.7,
      "averageSpeedMph": 14.9,
      "safetyEvents": []
    },
    {
      "id": "trip_41724318_20250118_2459",
      "vehicleId": "41724318",
      "driverId": "20000007",
      "startMs": 1737234410000,
      "endMs": 1737236570000,
      "startAddress": "296 Matthew Meadows Suite 314",
      "endAddress": "2207 Rachel Forge",
      "startCoords": {
        "latitude": 39.772799,
        "longitude": -105.025011
      },
      "endCoords": {
        "latitude": 39.746523,
        "longitude": -104.98681
      },
      "distanceMeters": 13939.4,
      "durationMs": 2160000,
      "drivingDurationMs": 1681468,
      "idlingDurationMs": 478532,
      "fuelConsumedMl": 1772,
      "fuelConsumedGallons": 0.468,
      "maxSpeedMph": 35.2,
      "averageSpeedMph": 14.4,
      "safetyEvents": []
    },
    {
      "id": "trip_41724318_20250119_2496",
      "vehicleId": "41724318",
      "driverId": "20000014",
      "startMs": 1737263377000,
      "endMs": 1737265237000,
      "startAddress": "7663 Tami Turnpike Suite 997",
      "endAddress": "09065 Christy Haven Apt. 723",
      "startCoords": {
        "latitude": 39.79346,
        "longitude": -104.9453
      },
      "endCoords": {
        "latitude": 39.812792,
        "longitude": -105.067485
      },
      "distanceMeters": 10399.1,
      "durationMs": 1860000,
      "drivingDurationMs": 1555631,
      "idlingDurationMs": 304369,
      "fuelConsumedMl": 1321,
      "fuelConsumedGallons": 0.349,
      "maxSpeedMph": 34.8,
      "averageSpeedMph": 12.5,
      "safetyEvents": []
    },
    {
      "id": "trip_41724318_20250119_2523",
      "vehicleId": "41724318",
      "driverId": "20000010",
      "startMs": 1737288540000,
      "endMs": 1737290160000,
      "startAddress": "7069 Olivia Mall",
      "endAddress": "6949 Ryan Brooks",
      "startCoords": {
        "latitude": 39.746174,
        "longitude": -105.07109
      },
      "endCoords": {
        "latitude": 39.71202,
        "longitude": -104.957445
      },
      "distanceMeters": 12013.0,
      "durationMs": 1620000,
      "drivingDurationMs": 1363822,
      "idlingDurationMs": 256178,
      "fuelConsumedMl": 1526,
      "fuelConsumedGallons": 0.403,
      "maxSpeedMph": 25.9,
      "averageSpeedMph": 16.6,
      "safetyEvents": []
    },
    {
      "id": "trip_41724318_20250119_2551",
      "vehicleId": "41724318",
      "driverId": "20000010",
      "startMs": 1737316878000,
      "endMs": 1737322169000,
      "startAddress": "790 Ballard Terrace Suite 224",
      "endAddress": "059 Green Drive",
      "startCoords": {
        "latitude": 39.747013,
        "longitude": -105.078238
      },
      "endCoords": {
        "latitude": 39.805236,
        "longitude": -104.990977
      },
      "distanceMeters": 34463.9,
      "durationMs": 5291000,
      "drivingDurationMs": 4663994,
      "idlingDurationMs": 627006,
      "fuelConsumedMl": 4384,
      "fuelConsumedGallons": 1.158,
      "maxSpeedMph": 32.9,
      "averageSpeedMph": 14.6,
      "safetyEvents": []
    },
    {
      "id": "trip_41724318_20250120_2578",
      "vehicleId": "41724318",
      "driverId": "20000003",
      "startMs": 1737348365000,
      "endMs": 1737349925000,
      "startAddress": "3002 Freeman Dam Apt. 656",
      "endAddress": "76380 Patrick Flat Apt. 676",
      "startCoords": {
        "latitude": 39.748822,
        "longitude": -104.988715
      },
      "endCoords": {
        "latitude": 39.789009,
        "longitude": -105.045162
      },
      "distanceMeters": 7080.5,
      "durationMs": 1560000,
      "drivingDurationMs": 1399018,
      "idlingDurationMs": 160982,
      "fuelConsumedMl": 901,
      "fuelConsumedGallons": 0.238,
      "maxSpeedMph": 27.1,
      "averageSpeedMph": 10.2,
      "safetyEvents": []
    },
    {
      "id": "trip_41724318_20250120_2605",
      "vehicleId": "41724318",
      "driverId": "20000003",
      "startMs": 1737368996000,
      "endMs": 1737370376000,
      "startAddress": "0393 Tiffany Mill Suite 744",
      "endAddress": "84397 Kara Track",
      "startCoords": {
        "latitude": 39.704343,
        "longitude": -104.915091
      },
      "endCoords": {
        "latitude": 39.789739,
        "longitude": -104.981623
      },
      "distanceMeters": 8171.4,
      "durationMs": 1380000,
      "drivingDurationMs": 1115587,
      "idlingDurationMs": 264413,
      "fuelConsumedMl": 1037,
      "fuelConsumedGallons": 0.274,
      "maxSpeedMph": 34.3,
      "averageSpeedMph": 13.2,
      "safetyEvents": []
    },
    {
      "id": "trip_41724318_20250120_2636",
      "vehicleId": "41724318",
      "driverId": "20000014",
      "startMs": 1737387530000,
      "endMs": 1737397810000,
      "startAddress": "9769 Melissa Square Apt. 514",
      "endAddress": "86901 Black Well Apt. 207",
      "startCoords": {
        "latitude": 39.752319,
        "longitude": -104.913787
      },
      "endCoords": {
        "latitude": 39.818578,
        "longitude": -105.014688
      },
      "distanceMeters": 67343.8,
      "durationMs": 10280000,
      "drivingDurationMs": 7838644,
      "idlingDurationMs": 2441356,
      "fuelConsumedMl": 8563,
      "fuelConsumedGallons": 2.262,
      "maxSpeedMph": 31.7,
      "averageSpeedMph": 14.7,
      "safetyEvents": []
    },
    {
      "id": "trip_41724318_20250120_2665",
      "vehicleId": "41724318",
      "driverId": "20000005",
      "startMs": 1737400805000,
      "endMs": 1737402245000,
      "startAddress": "7353 Bridges Expressway",
      "endAddress": "549 Brian Underpass Suite 397",
      "startCoords": {
        "latitude": 39.721122,
        "longitude": -105.031462
      },
      "endCoords": {
        "latitude": 39.806152,
        "longitude": -104.988853
      },
      "distanceMeters": 8987.7,
      "durationMs": 1440000,
      "drivingDurationMs": 1195292,
      "idlingDurationMs": 244708,
      "fuelConsumedMl": 1143,
      "fuelConsumedGallons": 0.302,
      "maxSpeedMph": 34.6,
      "averageSpeedMph": 14.0,
      "safetyEvents": []
    },
    {
      "id": "trip_41724318_20250120_2695",
      "vehicleId": "41724318",
      "driverId": "20000018",
      "startMs": 1737413731000,
      "endMs": 1737416390000,
      "startAddress": "335 David Rest Suite 064",
      "endAddress": "4123 Marcus Canyon",
      "startCoords": {
        "latitude": 39.791133,
        "longitude": -104.900418
      },
      "endCoords": {
        "latitude": 39.718277,
        "longitude": -105.009779
      },
      "distanceMeters": 14078.4,
      "durationMs": 2659000,
      "drivingDurationMs": 2141589,
      "idlingDurationMs": 517411,
      "fuelConsumedMl": 1790,
      "fuelConsumedGallons": 0.473,
      "maxSpeedMph": 29.6,
      "averageSpeedMph": 11.8,
      "safetyEvents": []
    },
    {
      "id": "trip_41724318_20250121_2728",
      "vehicleId": "41724318",
      "driverId": "20000017",
      "startMs": 1737442269000,
      "endMs": 1737450104000,
      "startAddress": "836 Ricky Mall Apt. 636",
      "endAddress": "717 Flores Rapid Suite 942",
      "startCoords": {
        "latitude": 39.802035,
        "longitude": -105.085706
      },
      "endCoords": {
        "latitude": 39.823496,
        "longitude": -105.015393
      },
      "distanceMeters": 35169.5,
      "durationMs": 7835000,
      "drivingDurationMs": 6915372,
      "idlingDurationMs": 919628,
      "fuelConsumedMl": 4471,
      "fuelConsumedGallons": 1.181,
      "maxSpeedMph": 31.9,
      "averageSpeedMph": 10.0,
      "safetyEvents": []
    },
    {
      "id": "trip_41724318_20250121_2759",
      "vehicleId": "41724318",
      "driverId": "20000005",
      "startMs": 1737458751000,
      "endMs": 1737466431000,
      "startAddress": "643 Michael Divide",
      "endAddress": "502 Pamela Wall",
      "startCoords": {
        "latitude": 39.685987,
        "longitude": -104.917845
      },
      "endCoords": {
        "latitude": 39.729581,
        "longitude": -104.94986
      },
      "distanceMeters": 46138.0,
      "durationMs": 7680000,
      "drivingDurationMs": 5999279,
      "idlingDurationMs": 1680721,
      "fuelConsumedMl": 5867,
      "fuelConsumedGallons": 1.55,
      "maxSpeedMph": 34.6,
      "averageSpeedMph": 13.4,
      "safetyEvents": []
    },
    {
      "id": "trip_41724318_20250121_2796",
      "vehicleId": "41724318",
      "driverId": "20000005",
      "startMs": 1737476367000,
      "endMs": 1737478467000,
      "startAddress": "2448 Hill Prairie Apt. 535",
      "endAddress": "043 Navarro Club",
      "startCoords": {
        "latitude": 39.791373,
        "longitude": -105.065182
      },
      "endCoords": {
        "latitude": 39.825329,
        "longitude": -104.925305
      },
      "distanceMeters": 9474.8,
      "durationMs": 2100000,
      "drivingDurationMs": 1715991,
      "idlingDurationMs": 384009,
      "fuelConsumedMl": 1204,
      "fuelConsumedGallons": 0.318,
      "maxSpeedMph": 30.9,
      "averageSpeedMph": 10.1,
      "safetyEvents": []
    },
    {
      "id": "trip_41724318_20250121_2818",
      "vehicleId": "41724318",
      "driverId": "20000013",
      "startMs": 1737488502000,
      "endMs": 1737490182000,
      "startAddress": "659 Wilson Ford",
      "endAddress": "6648 Joshua Corners",
      "startCoords": {
        "latitude": 39.701733,
        "longitude": -104.972399
      },
      "endCoords": {
        "latitude": 39.724846,
        "longitude": -104.913407
      },
      "distanceMeters": 7499.2,
      "durationMs": 1680000,
      "drivingDurationMs": 1302148,
      "idlingDurationMs": 377852,
      "fuelConsumedMl": 954,
      "fuelConsumedGallons": 0.252,
      "maxSpeedMph": 32.0,
      "averageSpeedMph": 10.0,
      "safetyEvents": []
    },
    {
      "id": "trip_41724318_20250122_2849",
      "vehicleId": "41724318",
      "driverId": "20000010",
      "startMs": 1737509643000,
      "endMs": 1737511503000,
      "startAddress": "6862 Jennifer Junctions",
      "endAddress": "191 Ana Estate",
      "startCoords": {
        "latitude": 39.692102,
        "longitude": -105.06568
      },
      "endCoords": {
        "latitude": 39.699227,
        "longitude": -104.918852
      },
      "distanceMeters": 11674.7,
      "durationMs": 1860000,
      "drivingDurationMs": 1478715,
      "idlingDurationMs": 381285,
      "fuelConsumedMl": 1484,
      "fuelConsumedGallons": 0.392,
      "maxSpeedMph": 33.7,
      "averageSpeedMph": 14.0,
      "safetyEvents": []
    },
    {
      "id": "trip_41724318_20250122_2879",
      "vehicleId": "41724318",
      "driverId": "20000011",
      "startMs": 1737529929000,
      "endMs": 1737531969000,
      "startAddress": "4225 Gonzalez Forge Suite 485",
      "endAddress": "374 Dustin Causeway",
      "startCoords": {
        "latitude": 39.764076,
        "longitude": -105.06843
      },
      "endCoords": {
        "latitude": 39.702605,
        "longitude": -105.018302
      },
      "distanceMeters": 7825.5,
      "durationMs": 2040000,
      "drivingDurationMs": 1554154,
      "idlingDurationMs": 485846,
      "fuelConsumedMl": 996,
      "fuelConsumedGallons": 0.263,
      "maxSpeedMph": 30.7,
      "averageSpeedMph": 8.6,
      "safetyEvents": []
    },
    {
      "id": "trip_41724318_20250122_2911",
      "vehicleId": "41724318",
      "driverId": "20000018",
      "startMs": 1737547744000,
      "endMs": 1737561338000,
      "startAddress": "9612 Rogers Pines Suite 558",
      "endAddress": "79978 Ronald Manor Apt. 965",
      "startCoords": {
        "latitude": 39.749944,
        "longitude": -104.954819
      },
      "endCoords": {
        "latitude": 39.760023,
        "longitude": -104.932231
      },
      "distanceMeters": 63055.9,
      "durationMs": 13594000,
      "drivingDurationMs": 10836501,
      "idlingDurationMs": 2757499,
      "fuelConsumedMl": 8017,
      "fuelConsumedGallons": 2.118,
      "maxSpeedMph": 28.4,
      "averageSpeedMph": 10.4,
      "safetyEvents": []
    },
    {
      "id": "trip_41724318_20250122_2946",
      "vehicleId": "41724318",
      "driverId": "20000009",
      "startMs": 1737565405000,
      "endMs": 1737570500000,
      "startAddress": "054 Shannon Walk Suite 471",
      "endAddress": "294 Robert Spurs Apt. 314",
      "startCoords": {
        "latitude": 39.746384,
        "longitude": -105.033041
      },
      "endCoords": {
        "latitude": 39.714075,
        "longitude": -105.071472
      },
      "distanceMeters": 22120.6,
      "durationMs": 5095000,
      "drivingDurationMs": 4222045,
      "idlingDurationMs": 872955,
      "fuelConsumedMl": 2813,
      "fuelConsumedGallons": 0.743,
      "maxSpeedMph": 30.4,
      "averageSpeedMph": 9.7,
      "safetyEvents": []
    },
    {
      "id": "trip_41724318_20250122_2973",
      "vehicleId": "41724318",
      "driverId": "20000003",
      "startMs": 1737579345000,
      "endMs": 1737581145000,
      "startAddress": "03799 Rebecca Hollow",
      "endAddress": "370 Greg Flats Suite 793",
      "startCoords": {
        "latitude": 39.730524,
        "longitude": -105.085822
      },
      "endCoords": {
        "latitude": 39.806545,
        "longitude": -105.082622
      },
      "distanceMeters": 8483.5,
      "durationMs": 1800000,
      "drivingDurationMs": 1422333,
      "idlingDurationMs": 377667,
      "fuelConsumedMl": 1079,
      "fuelConsumedGallons": 0.285,
      "maxSpeedMph": 28.7,
      "averageSpeedMph": 10.5,
      "safetyEvents": []
    },
    {
      "id": "trip_41724318_20250123_3003",
      "vehicleId": "41724318",
      "driverId": "20000004",
      "startMs": 1737603952000,
      "endMs": 1737605452000,
      "startAddress": "8638 Thompson Fords Apt. 383",
      "endAddress": "70494 Nancy Dam",
      "startCoords": {
        "latitude": 39.77555,
        "longitude": -104.90119
      },
      "endCoords": {
        "latitude": 39.799352,
        "longitude": -104.942349
      },
      "distanceMeters": 10141.5,
      "durationMs": 1500000,
      "drivingDurationMs": 1145670,
      "idlingDurationMs": 354330,
      "fuelConsumedMl": 1291,
      "fuelConsumedGallons": 0.341,
      "maxSpeedMph": 38.6,
      "averageSpeedMph": 15.1,
      "safetyEvents": []
    },
    {
      "id": "trip_41724318_20250123_3030",
      "vehicleId": "41724318",
      "driverId": "20000011",
      "startMs": 1737623211000,
      "endMs": 1737635998000,
      "startAddress": "0990 Harper Stream Apt. 892",
      "endAddress": "1044 Troy Shoals",
      "startCoords": {
        "latitude": 39.739585,
        "longitude": -105.07503
      },
      "endCoords": {
        "latitude": 39.766096,
        "longitude": -105.039259
      },
      "distanceMeters": 57144.1,
      "durationMs": 12787000,
      "drivingDurationMs": 11081381,
      "idlingDurationMs": 1705619,
      "fuelConsumedMl": 7264,
      "fuelConsumedGallons": 1.919,
      "maxSpeedMph": 26.7,
      "averageSpeedMph": 10.0,
      "safetyEvents": []
    },
    {
      "id": "trip_41724318_20250123_3061",
      "vehicleId": "41724318",
      "driverId": "20000017",
      "startMs": 1737638222000,
      "endMs": 1737648735000,
      "startAddress": "4152 Jessica Parkway",
      "endAddress": "7701 Bautista Lane Apt. 023",
      "startCoords": {
        "latitude": 39.725765,
        "longitude": -104.915621
      },
      "endCoords": {
        "latitude": 39.741002,
        "longitude": -105.008864
      },
      "distanceMeters": 46332.9,
      "durationMs": 10513000,
      "drivingDurationMs": 8260190,
      "idlingDurationMs": 2252810,
      "fuelConsumedMl": 5890,
      "fuelConsumedGallons": 1.556,
      "maxSpeedMph": 27.5,
      "averageSpeedMph": 9.9,
      "safetyEvents": []
    },
    {
      "id": "trip_41724318_20250123_3091",
      "vehicleId": "41724318",
      "driverId": "20000021",
      "startMs": 1737653920000,
      "endMs": 1737656732000,
      "startAddress": "57036 Carroll Landing",
      "endAddress": "7072 Wilkinson Summit",
      "startCoords": {
        "latitude": 39.730278,
        "longitude": -105.02785
      },
      "endCoords": {
        "latitude": 39.724834,
        "longitude": -104.997927
      },
      "distanceMeters": 16019.2,
      "durationMs": 2812000,
      "drivingDurationMs": 2339897,
      "idlingDurationMs": 472103,
      "fuelConsumedMl": 2037,
      "fuelConsumedGallons": 0.538,
      "maxSpeedMph": 32.9,
      "averageSpeedMph": 12.7,
      "safetyEvents": []
    },
    {
      "id": "trip_41724318_20250123_3117",
      "vehicleId": "41724318",
      "driverId": "20000004",
      "startMs": 1737667413000,
      "endMs": 1737673648000,
      "startAddress": "6600 Parker Trail Apt. 912",
      "endAddress": "93581 Garcia Court Suite 940",
      "startCoords": {
        "latitude": 39.77159,
        "longitude": -105.00228
      },
      "endCoords": {
        "latitude": 39.80948,
        "longitude": -105.05145
      },
      "distanceMeters": 39396.8,
      "durationMs": 6235000,
      "drivingDurationMs": 5436598,
      "idlingDurationMs": 798402,
      "fuelConsumedMl": 5008,
      "fuelConsumedGallons": 1.323,
      "maxSpeedMph": 39.1,
      "averageSpeedMph": 14.1,
      "safetyEvents": []
    },
    {
      "id": "trip_41724318_20250124_3145",
      "vehicleId": "41724318",
      "driverId": "20000016",
      "startMs": 1737689988000,
      "endMs": 1737691728000,
      "startAddress": "54945 Smith Common",
      "endAddress": "8101 Maria Harbors Suite 073",
      "startCoords": {
        "latitude": 39.751124,
        "longitude": -105.018783
      },
      "endCoords": {
        "latitude": 39.746391,
        "longitude": -104.943122
      },
      "distanceMeters": 12050.3,
      "durationMs": 1740000,
      "drivingDurationMs": 1451201,
      "idlingDurationMs": 288799,
      "fuelConsumedMl": 1533,
      "fuelConsumedGallons": 0.405,
      "maxSpeedMph": 33.1,
      "averageSpeedMph": 15.5,
      "safetyEvents": []
    },
    {
      "id": "trip_41724318_20250124_3171",
      "vehicleId": "41724318",
      "driverId": "20000011",
      "startMs": 1737708756000,
      "endMs": 1737710916000,
      "startAddress": "83942 Wilson Summit",
      "endAddress": "424 Brown Shores",
      "startCoords": {
        "latitude": 39.778004,
        "longitude": -104.929519
      },
      "endCoords": {
        "latitude": 39.74068,
        "longitude": -104.942614
      },
      "distanceMeters": 15375.9,
      "durationMs": 2160000,
      "drivingDurationMs": 1918528,
      "idlingDurationMs": 241472,
      "fuelConsumedMl": 1953,
      "fuelConsumedGallons": 0.516,
      "maxSpeedMph": 26.6,
      "averageSpeedMph": 15.9,
      "safetyEvents": []
    },
    {
      "id": "trip_41724318_20250124_3198",
      "vehicleId": "41724318",
      "driverId": "20000003",
      "startMs": 1737721489000,
      "endMs": 1737723649000,
      "startAddress": "245 Joseph Lakes Suite 897",
      "endAddress": "59199 Rowe Knolls",
      "startCoords": {
        "latitude": 39.806541,
        "longitude": -105.066219
      },
      "endCoords": {
        "latitude": 39.715418,
        "longitude": -104.966631
      },
      "distanceMeters": 12810.0,
      "durationMs": 2160000,
      "drivingDurationMs": 1768390,
      "idlingDurationMs": 391610,
      "fuelConsumedMl": 1628,
      "fuelConsumedGallons": 0.43,
      "maxSpeedMph": 38.0,
      "averageSpeedMph": 13.3,
      "safetyEvents": []
    },
    {
      "id": "trip_41724318_20250124_3228",
      "vehicleId": "41724318",
      "driverId": "20000020",
      "startMs": 1737735790000,
      "endMs": 1737739575000,
      "startAddress": "212 Brown Rapids Suite 261",
      "endAddress": "86709 Wagner Walks Suite 201",
      "startCoords": {
        "latitude": 39.804916,
        "longitude": -105.037166
      },
      "endCoords": {
        "latitude": 39.781168,
        "longitude": -105.063378
      },
      "distanceMeters": 16318.3,
      "durationMs": 3785000,
      "drivingDurationMs": 3092189,
      "idlingDurationMs": 692811,
      "fuelConsumedMl": 2074,
      "fuelConsumedGallons": 0.548,
      "maxSpeedMph": 31.9,
      "averageSpeedMph": 9.6,
      "safetyEvents": []
    },
    {
      "id": "trip_41724318_20250124_3260",
      "vehicleId": "41724318",
      "driverId": "20000001",
      "startMs": 1737752589000,
      "endMs": 1737758526000,
      "startAddress": "646 Mitchell Glen",
      "endAddress": "3225 Michael Run Suite 788",
      "startCoords": {
        "latitude": 39.694761,
        "longitude": -105.033402
      },
      "endCoords": {
        "latitude": 39.736312,
        "longitude": -104.917902
      },
      "distanceMeters": 44103.1,
      "durationMs": 5937000,
      "drivingDurationMs": 5090512,
      "idlingDurationMs": 846488,
      "fuelConsumedMl": 5606,
      "fuelConsumedGallons": 1.481,
      "maxSpeedMph": 35.2,
      "averageSpeedMph": 16.6,
      "safetyEvents": []
    },
    {
      "id": "trip_41724318_20250125_3287",
      "vehicleId": "41724318",
      "driverId": "20000014",
      "startMs": 1737769520000,
      "endMs": 1737771740000,
      "startAddress": "36010 Fry Manors",
      "endAddress": "0534 Johnson Isle Apt. 654",
      "startCoords": {
        "latitude": 39.712313,
        "longitude": -104.93625
      },
      "endCoords": {
        "latitude": 39.807719,
        "longitude": -105.005526
      },
      "distanceMeters": 11421.2,
      "durationMs": 2220000,
      "drivingDurationMs": 1926559,
      "idlingDurationMs": 293441,
      "fuelConsumedMl": 1454,
      "fuelConsumedGallons": 0.384,
      "maxSpeedMph": 33.4,
      "averageSpeedMph": 11.5,
      "safetyEvents": []
    },
    {
      "id": "trip_41724318_20250125_3318",
      "vehicleId": "41724318",
      "driverId": "20000022",
      "startMs": 1737797075000,
      "endMs": 1737804980000,
      "startAddress": "43758 Curtis Dale",
      "endAddress": "697 Wesley Cliffs Apt. 477",
      "startCoords": {
        "latitude": 39.803331,
        "longitude": -104.957716
      },
      "endCoords": {
        "latitude": 39.758178,
        "longitude": -105.032617
      },
      "distanceMeters": 41270.7,
      "durationMs": 7905000,
      "drivingDurationMs": 6442027,
      "idlingDurationMs": 1462973,
      "fuelConsumedMl": 5247,
      "fuelConsumedGallons": 1.386,
      "maxSpeedMph": 38.6,
      "averageSpeedMph": 11.7,
      "safetyEvents": []
    },
    {
      "id": "trip_41724318_20250125_3343",
      "vehicleId": "41724318",
      "driverId": "20000001",
      "startMs": 1737810596000,
      "endMs": 1737813116000,
      "startAddress": "4339 April Freeway",
      "endAddress": "0097 Allison Vista Suite 828",
      "startCoords": {
        "latitude": 39.777484,
        "longitude": -104.974003
      },
      "endCoords": {
        "latitude": 39.82726,
        "longitude": -105.084367
      },
      "distanceMeters": 13780.1,
      "durationMs": 2520000,
      "drivingDurationMs": 2136088,
      "idlingDurationMs": 383912,
      "fuelConsumedMl": 1753,
      "fuelConsumedGallons": 0.463,
      "maxSpeedMph": 38.2,
      "averageSpeedMph": 12.2,
      "safetyEvents": []
    },
    {
      "id": "trip_41724318_20250125_3371",
      "vehicleId": "41724318",
      "driverId": "20000008",
      "startMs": 1737826029000,
      "endMs": 1737832782000,
      "startAddress": "771 Edwards Mews",
      "endAddress": "357 Megan Village Apt. 868",
      "startCoords": {
        "latitude": 39.764289,
        "longitude": -105.066213
      },
      "endCoords": {
        "latitude": 39.711944,
        "longitude": -104.991649
      },
      "distanceMeters": 38854.2,
      "durationMs": 6753000,
      "drivingDurationMs": 6066378,
      "idlingDurationMs": 686622,
      "fuelConsumedMl": 4940,
      "fuelConsumedGallons": 1.305,
      "maxSpeedMph": 26.0,
      "averageSpeedMph": 12.9,
      "safetyEvents": []
    },
    {
      "id": "trip_41724318_20250125_3402",
      "vehicleId": "41724318",
      "driverId": "20000010",
      "startMs": 1737843380000,
      "endMs": 1737849171000,
      "startAddress": "4282 Joan Crossing",
      "endAddress": "10972 Jennifer Extension Apt. 210",
      "startCoords": {
        "latitude": 39.732863,
        "longitude": -104.950271
      },
      "endCoords": {
        "latitude": 39.72001,
        "longitude": -105.053739
      },
      "distanceMeters": 37197.3,
      "durationMs": 5791000,
      "drivingDurationMs": 4771439,
      "idlingDurationMs": 1019561,
      "fuelConsumedMl": 4728,
      "fuelConsumedGallons": 1.249,
      "maxSpeedMph": 37.4,
      "averageSpeedMph": 14.4,
      "safetyEvents": []
    },
    {
      "id": "trip_41724318_20250126_3434",
      "vehicleId": "41724318",
      "driverId": "20000001",
      "startMs": 1737870022000,
      "endMs": 1737873307000,
      "startAddress": "95432 Reed Row Apt. 299",
      "endAddress": "788 Harris Alley",
      "startCoords": {
        "latitude": 39.775366,
        "longitude": -104.975505
      },
      "endCoords": {
        "latitude": 39.690715,
        "longitude": -104.959799
      },
      "distanceMeters": 16820.7,
      "durationMs": 3285000,
      "drivingDurationMs": 2584011,
      "idlingDurationMs": 700989,
      "fuelConsumedMl": 2139,
      "fuelConsumedGallons": 0.565,
      "maxSpeedMph": 26.3,
      "averageSpeedMph": 11.5,
      "safetyEvents": []
    },
    {
      "id": "trip_41724318_20250126_3462",
      "vehicleId": "41724318",
      "driverId": "20000001",
      "startMs": 1737897449000,
      "endMs": 1737900149000,
      "startAddress": "44987 Garcia Squares",
      "endAddress": "927 Teresa Drive Suite 983",
      "startCoords": {
        "latitude": 39.784964,
        "longitude": -104.971457
      },
      "endCoords": {
        "latitude": 39.779768,
        "longitude": -105.05611
      },
      "distanceMeters": 20777.1,
      "durationMs": 2700000,
      "drivingDurationMs": 2419069,
      "idlingDurationMs": 280931,
      "fuelConsumedMl": 2642,
      "fuelConsumedGallons": 0.698,
      "maxSpeedMph": 30.9,
      "averageSpeedMph": 17.2,
      "safetyEvents": []
    },
    {
      "id": "trip_41724318_20250126_3494",
      "vehicleId": "41724318",
      "driverId": "20000015",
      "startMs": 1737927963000,
      "endMs": 1737929523000,
      "startAddress": "6745 Steven Stravenue Suite 096",
      "endAddress": "25638 Jones Burgs Apt. 121",
      "startCoords": {
        "latitude": 39.820454,
        "longitude": -105.014565
      },
      "endCoords": {
        "latitude": 39.775884,
        "longitude": -104.94215
      },
      "distanceMeters": 7099.0,
      "durationMs": 1560000,
      "drivingDurationMs": 1347536,
      "idlingDurationMs": 212464,
      "fuelConsumedMl": 901,
      "fuelConsumedGallons": 0.238,
      "maxSpeedMph": 28.9,
      "averageSpeedMph": 10.2,
      "safetyEvents": []
    },
    {
      "id": "trip_41724318_20250127_3520",
      "vehicleId": "41724318",
      "driverId": "20000019",
      "startMs": 1737964728000,
      "endMs": 1737978946000,
      "startAddress": "38316 White Causeway",
      "endAddress": "72470 Wilson Ridge",
      "startCoords": {
        "latitude": 39.768034,
        "longitude": -104.967552
      },
      "endCoords": {
        "latitude": 39.788141,
        "longitude": -104.999495
      },
      "distanceMeters": 72465.5,
      "durationMs": 14218000,
      "drivingDurationMs": 10682304,
      "idlingDurationMs": 3535696,
      "fuelConsumedMl": 9214,
      "fuelConsumedGallons": 2.434,
      "maxSpeedMph": 39.3,
      "averageSpeedMph": 11.4,
      "safetyEvents": []
    },
    {
      "id": "trip_41724318_20250127_3547",
      "vehicleId": "41724318",
      "driverId": "20000011",
      "startMs": 1737980748000,
      "endMs": 1737982728000,
      "startAddress": "983 Tammy Fords",
      "endAddress": "873 Mark Pine Apt. 582",
      "startCoords": {
        "latitude": 39.81018,
        "longitude": -105.021632
      },
      "endCoords": {
        "latitude": 39.74299,
        "longitude": -104.914037
      },
      "distanceMeters": 10348.3,
      "durationMs": 1980000,
      "drivingDurationMs": 1758772,
      "idlingDurationMs": 221228,
      "fuelConsumedMl": 1317,
      "fuelConsumedGallons": 0.348,
      "maxSpeedMph": 33.5,
      "averageSpeedMph": 11.7,
      "safetyEvents": []
    },
    {
      "id": "trip_41724318_20250127_3577",
      "vehicleId": "41724318",
      "driverId": "20000020",
      "startMs": 1737994460000,
      "endMs": 1737996020000,
      "startAddress": "7448 Harrell Forges",
      "endAddress": "717 Webb Rapid",
      "startCoords": {
        "latitude": 39.723143,
        "longitude": -105.026522
      },
      "endCoords": {
        "latitude": 39.695287,
        "longitude": -104.974434
      },
      "distanceMeters": 10608.9,
      "durationMs": 1560000,
      "drivingDurationMs": 1195260,
      "idlingDurationMs": 364740,
      "fuelConsumedMl": 1348,
      "fuelConsumedGallons": 0.356,
      "maxSpeedMph": 35.1,
      "averageSpeedMph": 15.2,
      "safetyEvents": []
    },
    {
      "id": "trip_41724318_20250127_3607",
      "vehicleId": "41724318",
      "driverId": "20000012",
      "startMs": 1738009697000,
      "endMs": 1738011737000,
      "startAddress": "37090 Daniel Inlet",
      "endAddress": "4390 Mark Vista Apt. 395",
      "startCoords": {
        "latitude": 39.688891,
        "longitude": -104.935722
      },
      "endCoords": {
        "latitude": 39.757615,
        "longitude": -104.988157
      },
      "distanceMeters": 11692.8,
      "durationMs": 2040000,
      "drivingDurationMs": 1558052,
      "idlingDurationMs": 481948,
      "fuelConsumedMl": 1488,
      "fuelConsumedGallons": 0.393,
      "maxSpeedMph": 29.2,
      "averageSpeedMph": 12.8,
      "safetyEvents": []
    },
    {
      "id": "trip_41724318_20250128_3638",
      "vehicleId": "41724318",
      "driverId": "20000015",
      "startMs": 1738028150000,
      "endMs": 1738036699000,
      "startAddress": "710 Douglas Village",
      "endAddress": "403 Jonathan Square",
      "startCoords": {
        "latitude": 39.707232,
        "longitude": -104.987292
      },
      "endCoords": {
        "latitude": 39.808881,
        "longitude": -104.935497
      },
      "distanceMeters": 57082.3,
      "durationMs": 8549000,
      "drivingDurationMs": 6818597,
      "idlingDurationMs": 1730403,
      "fuelConsumedMl": 7257,
      "fuelConsumedGallons": 1.917,
      "maxSpeedMph": 38.5,
      "averageSpeedMph": 14.9,
      "safetyEvents": []
    },
    {
      "id": "trip_41724318_20250128_3665",
      "vehicleId": "41724318",
      "driverId": "20000013",
      "startMs": 1738050716000,
      "endMs": 1738057432000,
      "startAddress": "6772 Jacob Mews",
      "endAddress": "84380 Rebecca Manors",
      "startCoords": {
        "latitude": 39.766043,
        "longitude": -105.058957
      },
      "endCoords": {
        "latitude": 39.686281,
        "longitude": -105.049229
      },
      "distanceMeters": 30112.1,
      "durationMs": 6716000,
      "drivingDurationMs": 5101240,
      "idlingDurationMs": 1614760,
      "fuelConsumedMl": 3827,
      "fuelConsumedGallons": 1.011,
      "maxSpeedMph": 33.1,
      "averageSpeedMph": 10.0,
      "safetyEvents": []
    },
    {
      "id": "trip_41724318_20250128_3692",
      "vehicleId": "41724318",
      "driverId": "20000017",
      "startMs": 1738060579000,
      "endMs": 1738062259000,
      "startAddress": "863 Hawkins View Suite 597",
      "endAddress": "89724 Alyssa Mills",
      "startCoords": {
        "latitude": 39.705082,
        "longitude": -104.911013
      },
      "endCoords": {
        "latitude": 39.698304,
        "longitude": -105.041337
      },
      "distanceMeters": 9576.7,
      "durationMs": 1680000,
      "drivingDurationMs": 1372730,
      "idlingDurationMs": 307270,
      "fuelConsumedMl": 1219,
      "fuelConsumedGallons": 0.322,
      "maxSpeedMph": 28.3,
      "averageSpeedMph": 12.8,
      "safetyEvents": []
    },
    {
      "id": "trip_41724318_20250128_3721",
      "vehicleId": "41724318",
      "driverId": "20000003",
      "startMs": 1738074227000,
      "endMs": 1738080145000,
      "startAddress": "588 Beard Views Suite 739",
      "endAddress": "742 Smith Knolls",
      "startCoords": {
        "latitude": 39.774558,
        "longitude": -105.076044
      },
      "endCoords": {
        "latitude": 39.715609,
        "longitude": -104.944611
      },
      "distanceMeters": 38479.1,
      "durationMs": 5918000,
      "drivingDurationMs": 5176748,
      "idlingDurationMs": 741252,
      "fuelConsumedMl": 4891,
      "fuelConsumedGallons": 1.292,
      "maxSpeedMph": 29.6,
      "averageSpeedMph": 14.5,
      "safetyEvents": []
    },
    {
      "id": "trip_41724318_20250128_3751",
      "vehicleId": "41724318",
      "driverId": "20000021",
      "startMs": 1738086697000,
      "endMs": 1738089885000,
      "startAddress": "49131 Joseph Stream Suite 274",
      "endAddress": "456 Morris Underpass",
      "startCoords": {
        "latitude": 39.711824,
        "longitude": -104.940192
      },
      "endCoords": {
        "latitude": 39.693496,
        "longitude": -105.081172
      },
      "distanceMeters": 16310.6,
      "durationMs": 3188000,
      "drivingDurationMs": 2860325,
      "idlingDurationMs": 327675,
      "fuelConsumedMl": 2074,
      "fuelConsumedGallons": 0.548,
      "maxSpeedMph": 26.5,
      "averageSpeedMph": 11.4,
      "safetyEvents": []
    },
    {
      "id": "trip_41724318_20250128_3777",
      "vehicleId": "41724318",
      "driverId": "20000010",
      "startMs": 1738098379000,
      "endMs": 1738102050000,
      "startAddress": "79740 Mccormick Mews",
      "endAddress": "4492 Bauer Ports Apt. 348",
      "startCoords": {
        "latitude": 39.815008,
        "longitude": -104.90379
      },
      "endCoords": {
        "latitude": 39.689114,
        "longitude": -104.951195
      },
      "distanceMeters": 16808.4,
      "durationMs": 3671000,
      "drivingDurationMs": 2773987,
      "idlingDurationMs": 897013,
      "fuelConsumedMl": 2139,
      "fuelConsumedGallons": 0.565,
      "maxSpeedMph": 27.4,
      "averageSpeedMph": 10.2,
      "safetyEvents": []
    },
    {
      "id": "trip_41724318_20250129_3807",
      "vehicleId": "41724318",
      "driverId": "20000016",
      "startMs": 1738116878000,
      "endMs": 1738119098000,
      "startAddress": "5732 Shelly Ferry",
      "endAddress": "260 Shawn Knolls",
      "startCoords": {
        "latitude": 39.82436,
        "longitude": -105.057888
      },
      "endCoords": {
        "latitude": 39.805768,
        "longitude": -104.938269
      },
      "distanceMeters": 10177.6,
      "durationMs": 2220000,
      "drivingDurationMs": 1918165,
      "idlingDurationMs": 301835,
      "fuelConsumedMl": 1295,
      "fuelConsumedGallons": 0.342,
      "maxSpeedMph": 32.8,
      "averageSpeedMph": 10.3,
      "safetyEvents": []
    },
    {
      "id": "trip_41724318_20250129_3838",
      "vehicleId": "41724318",
      "driverId": "20000022",
      "startMs": 1738134641000,
      "endMs": 1738136921000,
      "startAddress": "192 David Viaduct Suite 637",
      "endAddress": "5579 Cummings Cove Apt. 667",
      "startCoords": {
        "latitude": 39.777296,
        "longitude": -105.065242
      },
      "endCoords": {
        "latitude": 39.806778,
        "longitude": -105.063951
      },
      "distanceMeters": 13390.2,
      "durationMs": 2280000,
      "drivingDurationMs": 2006661,
      "idlingDurationMs": 273339,
      "fuelConsumedMl": 1703,
      "fuelConsumedGallons": 0.45,
      "maxSpeedMph": 38.2,
      "averageSpeedMph": 13.1,
      "safetyEvents": []
    },
    {
      "id": "trip_41724318_20250129_3870",
      "vehicleId": "41724318",
      "driverId": "20000016",
      "startMs": 1738151679000,
      "endMs": 1738156124000,
      "startAddress": "3968 Jose Club",
      "endAddress": "297 Jeff Course Suite 825",
      "startCoords": {
        "latitude": 39.816436,
        "longitude": -105.081766
      },
      "endCoords": {
        "latitude": 39.827709,
        "longitude": -104.912566
      },
      "distanceMeters": 28685.8,
      "durationMs": 4445000,
      "drivingDurationMs": 3563363,
      "idlingDurationMs": 881637,
      "fuelConsumedMl": 3645,
      "fuelConsumedGallons": 0.963,
      "maxSpeedMph": 37.3,
      "averageSpeedMph": 14.4,
      "safetyEvents": []
    },