{
  "vehicleId": "48291026",
  "vehicleName": "SAL-CAR-05",
  "month": "2025_01",
  "pagination": {
    "endCursor": "trip_48291026_20250131_003",
    "hasNextPage": false
  },
  "trips": [
    {
      "id": "trip_48291026_20250101_001",
      "vehicleId": "48291026",
      "driverId": "22831025",
      "startMs": 1735757460000,
      "endMs": 1735761478981,
      "startLocation": {
        "latitude": 40.750682,
        "longitude": -111.821342
      },
      "endLocation": {
        "latitude": 40.686973,
        "longitude": -111.806168
      },
      "startAddress": "4793 Bennett Viaduct Suite 519",
      "endAddress": "828 Stephanie Mountain",
      "startCoords": {
        "latitude": 40.69521,
        "longitude": -111.856226
      },
      "endCoords": {
        "latitude": 40.695281,
        "longitude": -111.941457
      },
      "distanceMeters": 16718.1,
      "durationMs": 4018981,
      "drivingDurationMs": 3237686,
      "idlingDurationMs": 781295,
      "fuelConsumedMl": 2127,
      "fuelConsumedGallons": 0.562,
      "maxSpeedMph": 31.5,
      "averageSpeedMph": 9.3,
      "safetyEvents": [],
      "_no_driver_login": false,
      "_fuel_note": "QUIRK 5: fuelConsumedGallons is in US gallons. Multiply by 3.785 for litres. Samsara does not link fuel to specific Onfleet tasks."
    },
    {
      "id": "trip_48291026_20250101_002",
      "vehicleId": "48291026",
      "driverId": "22831025",
      "startMs": 1735753020000,
      "endMs": 1735758733340,
      "startLocation": {
        "latitude": 40.670571,
        "longitude": -111.899845
      },
      "endLocation": {
        "latitude": 40.724222,
        "longitude": -111.833793
      },
      "startAddress": "4167 Cynthia Garden",
      "endAddress": "266 Shane Rapid Suite 968",
      "startCoords": {
        "latitude": 40.675943,
        "longitude": -111.780461
      },
      "endCoords": {
        "latitude": 40.797088,
        "longitude": -111.932288
      },
      "distanceMeters": 24142.6,
      "durationMs": 5713340,
      "drivingDurationMs": 4645105,
      "idlingDurationMs": 1068236,
      "fuelConsumedMl": 3070,
      "fuelConsumedGallons": 0.811,
      "maxSpeedMph": 37.9,
      "averageSpeedMph": 9.5,
      "safetyEvents": [],
      "_no_driver_login": false,
      "_fuel_note": ""
    },
    {
      "id": "trip_48291026_20250101_003",
      "vehicleId": "48291026",
      "driverId": "22831025",
      "startMs": 1735750740000,
      "endMs": 1735763609268,
      "startLocation": {
        "latitude": 40.697269,
        "longitude": -111.950881
      },
      "endLocation": {
        "latitude": 40.766935,
        "longitude": -111.839232
      },
      "startAddress": "058 Daniel Gateway Suite 290",
      "endAddress": "6101 Walker Summit Apt. 756",
      "startCoords": {
        "latitude": 40.689601,
        "longitude": -111.822971
      },
      "endCoords": {
        "latitude": 40.778698,
        "longitude": -111.954997
      },
      "distanceMeters": 75451.8,
      "durationMs": 12869269,
      "drivingDurationMs": 11014952,
      "idlingDurationMs": 1854316,
      "fuelConsumedMl": 9592,
      "fuelConsumedGallons": 2.534,
      "maxSpeedMph": 61.3,
      "averageSpeedMph": 13.1,
      "safetyEvents": [],
      "_no_driver_login": false,
      "_fuel_note": ""
    },
    {
      "id": "trip_48291026_20250101_004",
      "vehicleId": "48291026",
      "driverId": "22831025",
      "startMs": 1735719960000,
      "endMs": 1735736329528,
      "startLocation": {
        "latitude": 40.727535,
        "longitude": -111.785715
      },
      "endLocation": {
        "latitude": 40.794814,
        "longitude": -111.787704
      },
      "startAddress": "982 Cuevas Orchard Apt. 461",
      "endAddress": "254 Gibson Ford",
      "startCoords": {
        "latitude": 40.782505,
        "longitude": -111.960273
      },
      "endCoords": {
        "latitude": 40.737996,
        "longitude": -111.94182
      },
      "distanceMeters": 75579.6,
      "durationMs": 16369528,
      "drivingDurationMs": 13297786,
      "idlingDurationMs": 3071742,
      "fuelConsumedMl": 9611,
      "fuelConsumedGallons": 2.539,
      "maxSpeedMph": 71.9,
      "averageSpeedMph": 10.3,
      "safetyEvents": [
        {
          "type": "speeding",
          "startMs": 1735730340000,
          "maxSpeedMph": 71.9
        }
      ],
      "_no_driver_login": false,
      "_fuel_note": ""
    },
    {
      "id": "trip_48291026_20250102_001",
      "vehicleId": "48291026",
      "driverId": "22831025",
      "startMs": 1735835520000,
      "endMs": 1735842379071,
      "startLocation": {
        "latitude": 40.747186,
        "longitude": -111.934752
      },
      "endLocation": {
        "latitude": 40.680283,
        "longitude": -111.809977
      },
      "startAddress": "8700 Brown Turnpike Apt. 613",
      "endAddress": "829 Sandy Camp Apt. 707",
      "startCoords": {
        "latitude": 40.70476,
        "longitude": -111.84319
      },
      "endCoords": {
        "latitude": 40.738526,
        "longitude": -111.802225
      },
      "distanceMeters": 43999.5,
      "durationMs": 6859071,
      "drivingDurationMs": 5594862,
      "idlingDurationMs": 1264209,
      "fuelConsumedMl": 5595,
      "fuelConsumedGallons": 1.478,
      "maxSpeedMph": 44.8,
      "averageSpeedMph": 14.3,
      "safetyEvents": [],
      "_no_driver_login": false,
      "_fuel_note": "QUIRK 5: fuelConsumedGallons is in US gallons. Multiply by 3.785 for litres. Samsara does not link fuel to specific Onfleet tasks."
    },
    {
      "id": "trip_48291026_20250102_002",
      "vehicleId": "48291026",
      "driverId": "22831025",
      "startMs": 1735801500000,
      "endMs": 1735804915138,
      "startLocation": {
        "latitude": 40.74905,
        "longitude": -111.910959
      },
      "endLocation": {
        "latitude": 40.720257,
        "longitude": -111.799607
      },
      "startAddress": "20204 Stephen Extension",
      "endAddress": "17993 Linda Meadow",
      "startCoords": {
        "latitude": 40.708476,
        "longitude": -111.851539
      },
      "endCoords": {
        "latitude": 40.795303,
        "longitude": -111.88409
      },
      "distanceMeters": 17960.0,
      "durationMs": 3415139,
      "drivingDurationMs": 3050516,
      "idlingDurationMs": 364622,
      "fuelConsumedMl": 2283,
      "fuelConsumedGallons": 0.603,
      "maxSpeedMph": 40.8,
      "averageSpeedMph": 11.8,
      "safetyEvents": [],
      "_no_driver_login": false,
      "_fuel_note": ""
    },
    {
      "id": "trip_48291026_20250102_003",
      "vehicleId": "48291026",
      "driverId": "22831025",
      "startMs": 1735808040000,
      "endMs": 1735809120153,
      "startLocation": {
        "latitude": 40.667669,
        "longitude": -111.930599
      },
      "endLocation": {
        "latitude": 40.670976,
        "longitude": -111.95001
      },
      "startAddress": "651 Marc Underpass Apt. 092",
      "endAddress": "14262 Tran Mill Apt. 902",
      "startCoords": {
        "latitude": 40.782786,
        "longitude": -111.858783
      },
      "endCoords": {
        "latitude": 40.659928,
        "longitude": -111.887286
      },
      "distanceMeters": 6848.1,
      "durationMs": 1080153,
      "drivingDurationMs": 874571,
      "idlingDurationMs": 205582,
      "fuelConsumedMl": 871,
      "fuelConsumedGallons": 0.23,
      "maxSpeedMph": 69.4,
      "averageSpeedMph": 14.2,
      "safetyEvents": [
        {
          "type": "speeding",
          "startMs": 1735808880000,
          "maxSpeedMph": 69.4
        }
      ],
      "_no_driver_login": false,
      "_fuel_note": ""
    },
    {
      "id": "trip_48291026_20250102_004",
      "vehicleId": "48291026",
      "driverId": "22831025",
      "startMs": 1735801560000,
      "endMs": 1735807020560,
      "startLocation": {
        "latitude": 40.691789,
        "longitude": -111.908526
      },
      "endLocation": {
        "latitude": 40.746431,
        "longitude": -111.937307
      },
      "startAddress": "962 Nichole Common",
      "endAddress": "21946 Schwartz Ford",
      "startCoords": {
        "latitude": 40.776995,
        "longitude": -111.95664
      },
      "endCoords": {
        "latitude": 40.751775,
        "longitude": -111.800066
      },
      "distanceMeters": 25996.2,
      "durationMs": 5460561,
      "drivingDurationMs": 4638990,
      "idlingDurationMs": 821571,
      "fuelConsumedMl": 3305,
      "fuelConsumedGallons": 0.873,
      "maxSpeedMph": 67.0,
      "averageSpeedMph": 10.6,
      "safetyEvents": [
        {
          "type": "speeding",
          "startMs": 1735804140000,
          "maxSpeedMph": 67.0
        }
      ],
      "_no_driver_login": false,
      "_fuel_note": ""
    },
    {
      "id": "trip_48291026_20250103_001",
      "vehicleId": "48291026",
      "driverId": "22831025",
      "startMs": 1735906320000,
      "endMs": 1735910889167,
      "startLocation": {
        "latitude": 40.755522,
        "longitude": -111.78173
      },
      "endLocation": {
        "latitude": 40.788307,
        "longitude": -111.924958
      },
      "startAddress": "655 James Unions Suite 704",
      "endAddress": "17295 Young Brooks Suite 090",
      "startCoords": {
        "latitude": 40.703584,
        "longitude": -111.950188
      },
      "endCoords": {
        "latitude": 40.74626,
        "longitude": -111.956771
      },
      "distanceMeters": 31776.5,
      "durationMs": 4569168,
      "drivingDurationMs": 3772760,
      "idlingDurationMs": 796408,
      "fuelConsumedMl": 4039,
      "fuelConsumedGallons": 1.067,
      "maxSpeedMph": 71.6,
      "averageSpeedMph": 15.6,
      "safetyEvents": [
        {
          "type": "speeding",
          "startMs": 1735909740000,
          "maxSpeedMph": 71.6
        }
      ],
      "_no_driver_login": false,
      "_fuel_note": "QUIRK 5: fuelConsumedGallons is in US gallons. Multiply by 3.785 for litres. Samsara does not link fuel to specific Onfleet tasks."
    },
    {
      "id": "trip_48291026_20250103_002",
      "vehicleId": "48291026",
      "driverId": "22831025",
      "startMs": 1735927260000,
      "endMs": 1735935016335,
      "startLocation": {
        "latitude": 40.690486,
        "longitude": -111.897867
      },
      "endLocation": {
        "latitude": 40.663974,
        "longitude": -111.899225
      },
      "startAddress": "2608 Matthew Brook Apt. 716",
      "endAddress": "5561 Snyder Causeway Suite 477",
      "startCoords": {
        "latitude": 40.770594,
        "longitude": -111.784409
      },
      "endCoords": {
        "latitude": 40.767948,
        "longitude": -111.845393
      },
      "distanceMeters": 52402.5,
      "durationMs": 7756335,
      "drivingDurationMs": 7047510,
      "idlingDurationMs": 708826,
      "fuelConsumedMl": 6662,
      "fuelConsumedGallons": 1.76,
      "maxSpeedMph": 39.0,
      "averageSpeedMph": 15.1,
      "safetyEvents": [],
      "_no_driver_login": false,
      "_fuel_note": ""
    },
    {
      "id": "trip_48291026_20250104_001",
      "vehicleId": "48291026",
      "driverId": "22831025",
      "startMs": 1736004600000,
      "endMs": 1736012182484,
      "startLocation": {
        "latitude": 40.759472,
        "longitude": -111.829957
      },
      "endLocation": {
        "latitude": 40.730544,
        "longitude": -111.85622
      },
      "startAddress": "249 Danielle Ports Apt. 265",
      "endAddress": "27599 Erica Turnpike Apt. 100",
      "startCoords": {
        "latitude": 40.795555,
        "longitude": -111.936342
      },
      "endCoords": {
        "latitude": 40.785144,
        "longitude": -111.84161
      },
      "distanceMeters": 60247.4,
      "durationMs": 7582484,
      "drivingDurationMs": 7205578,
      "idlingDurationMs": 376906,
      "fuelConsumedMl": 7662,
      "fuelConsumedGallons": 2.024,
      "maxSpeedMph": 53.7,
      "averageSpeedMph": 17.8,
      "safetyEvents": [],
      "_no_driver_login": false,
      "_fuel_note": "QUIRK 5: fuelConsumedGallons is in US gallons. Multiply by 3.785 for litres. Samsara does not link fuel to specific Onfleet tasks."
    },
    {
      "id": "trip_48291026_20250104_002",
      "vehicleId": "48291026",
      "driverId": "22831025",
      "startMs": 1735978740000,
      "endMs": 1735987498388,
      "startLocation": {
        "latitude": 40.685058,
        "longitude": -111.949379
      },
      "endLocation": {
        "latitude": 40.678185,
        "longitude": -111.79639
      },
      "startAddress": "1553 Susan Inlet",
      "endAddress": "9597 Morgan Extensions",
      "startCoords": {
        "latitude": 40.731057,
        "longitude": -111.915485
      },
      "endCoords": {
        "latitude": 40.671062,
        "longitude": -111.957376
      },
      "distanceMeters": 55259.2,
      "durationMs": 8758389,
      "drivingDurationMs": 7087539,
      "idlingDurationMs": 1670850,
      "fuelConsumedMl": 7026,
      "fuelConsumedGallons": 1.856,
      "maxSpeedMph": 63.4,
      "averageSpeedMph": 14.1,
      "safetyEvents": [],
      "_no_driver_login": false,
      "_fuel_note": ""
    },
    {
      "id": "trip_48291026_20250104_003",
      "vehicleId": "48291026",
      "driverId": "22831025",
      "startMs": 1736000880000,
      "endMs": 1736005537395,
      "startLocation": {
        "latitude": 40.689991,
        "longitude": -111.802445
      },
      "endLocation": {
        "latitude": 40.693645,
        "longitude": -111.846675
      },
      "startAddress": "1822 Robert Place Suite 288",
      "endAddress": "431 Regina Court Apt. 267",
      "startCoords": {
        "latitude": 40.719426,
        "longitude": -111.838129
      },
      "endCoords": {
        "latitude": 40.673886,
        "longitude": -111.934489
      },
      "distanceMeters": 36257.1,
      "durationMs": 4657396,
      "drivingDurationMs": 4215314,
      "idlingDurationMs": 442082,
      "fuelConsumedMl": 4611,
      "fuelConsumedGallons": 1.218,
      "maxSpeedMph": 49.3,
      "averageSpeedMph": 17.4,
      "safetyEvents": [],
      "_no_driver_login": false,
      "_fuel_note": ""
    },
    {
      "id": "trip_48291026_20250105_001",
      "vehicleId": "48291026",
      "driverId": "22831025",
      "startMs": 1736073300000,
      "endMs": 1736084591950,
      "startLocation": {
        "latitude": 40.720507,
        "longitude": -111.86358
      },
      "endLocation": {
        "latitude": 40.691399,
        "longitude": -111.811943
      },
      "startAddress": "2989 Stephanie Manors Apt. 974",
      "endAddress": "9303 Phillips Trail Suite 191",
      "startCoords": {
        "latitude": 40.682461,
        "longitude": -111.785767
      },
      "endCoords": {
        "latitude": 40.779735,
        "longitude": -111.919036
      },
      "distanceMeters": 81932.5,
      "durationMs": 11291950,
      "drivingDurationMs": 9880485,
      "idlingDurationMs": 1411465,
      "fuelConsumedMl": 10417,
      "fuelConsumedGallons": 2.752,
      "maxSpeedMph": 31.5,
      "averageSpeedMph": 16.2,
      "safetyEvents": [],
      "_no_driver_login": false,
      "_fuel_note": "QUIRK 5: fuelConsumedGallons is in US gallons. Multiply by 3.785 for litres. Samsara does not link fuel to specific Onfleet tasks."
    },
    {
      "id": "trip_48291026_20250106_001",
      "vehicleId": "48291026",
      "driverId": "22831025",
      "startMs": 1736167980000,
      "endMs": 1736175347906,
      "startLocation": {
        "latitude": 40.754619,
        "longitude": -111.930322
      },
      "endLocation": {
        "latitude": 40.714363,
        "longitude": -111.920996
      },
      "startAddress": "3621 Cox Circle",
      "endAddress": "444 Scott Meadows Suite 349",
      "startCoords": {
        "latitude": 40.707049,
        "longitude": -111.910414
      },
      "endCoords": {
        "latitude": 40.759181,
        "longitude": -111.792897
      },
      "distanceMeters": 40375.2,
      "durationMs": 7367907,
      "drivingDurationMs": 6962376,
      "idlingDurationMs": 405530,
      "fuelConsumedMl": 5133,
      "fuelConsumedGallons": 1.356,
      "maxSpeedMph": 31.4,
      "averageSpeedMph": 12.3,
      "safetyEvents": [],
      "_no_driver_login": false,
      "_fuel_note": "QUIRK 5: fuelConsumedGallons is in US gallons. Multiply by 3.785 for litres. Samsara does not link fuel to specific Onfleet tasks."
    },
    {
      "id": "trip_48291026_20250106_002",
      "vehicleId": "48291026",
      "driverId": "22831025",
      "startMs": 1736167080000,
      "endMs": 1736177224442,
      "startLocation": {
        "latitude": 40.665453,
        "longitude": -111.827793
      },
      "endLocation": {
        "latitude": 40.659282,
        "longitude": -111.854412
      },
      "startAddress": "396 Smith Rue",
      "endAddress": "73226 Ryan Village Apt. 142",
      "startCoords": {
        "latitude": 40.707951,
        "longitude": -111.95816
      },
      "endCoords": {
        "latitude": 40.719017,
        "longitude": -111.878191
      },
      "distanceMeters": 75218.4,
      "durationMs": 10144443,
      "drivingDurationMs": 8610287,
      "idlingDurationMs": 1534155,
      "fuelConsumedMl": 9562,
      "fuelConsumedGallons": 2.526,
      "maxSpeedMph": 52.8,
      "averageSpeedMph": 16.6,
      "safetyEvents": [],
      "_no_driver_login": false,
      "_fuel_note": ""
    },
    {
      "id": "trip_48291026_20250106_003",
      "vehicleId": "48291026",
      "driverId": "22831025",
      "startMs": 1736165100000,
      "endMs": 1736171948261,
      "startLocation": {
        "latitude": 40.678917,
        "longitude": -111.920768
      },
      "endLocation": {
        "latitude": 40.740524,
        "longitude": -111.864668
      },
      "startAddress": "62585 Nunez Courts Apt. 879",
      "endAddress": "962 Jennifer View",
      "startCoords": {
        "latitude": 40.732659,
        "longitude": -111.925178
      },
      "endCoords": {
        "latitude": 40.661359,
        "longitude": -111.890216
      },
      "distanceMeters": 39989.0,
      "durationMs": 6848261,
      "drivingDurationMs": 6293288,
      "idlingDurationMs": 554973,
      "fuelConsumedMl": 5084,
      "fuelConsumedGallons": 1.343,
      "maxSpeedMph": 68.1,
      "averageSpeedMph": 13.1,
      "safetyEvents": [
        {
          "type": "speeding",
          "startMs": 1736165580000,
          "maxSpeedMph": 68.1
        }
      ],
      "_no_driver_login": false,
      "_fuel_note": ""
    },
    {
      "id": "trip_48291026_20250106_004",
      "vehicleId": "48291026",
      "driverId": "22831025",
      "startMs": 1736187240000,
      "endMs": 1736188860978,
      "startLocation": {
        "latitude": 40.667552,
        "longitude": -111.78658
      },
      "endLocation": {
        "latitude": 40.72144,
        "longitude": -111.906836
      },
      "startAddress": "996 Walker Points",
      "endAddress": "24725 Michael Freeway Apt. 343",
      "startCoords": {
        "latitude": 40.779876,
        "longitude": -111.909592
      },
      "endCoords": {
        "latitude": 40.788159,
        "longitude": -111.918895
      },
      "distanceMeters": 12197.8,
      "durationMs": 1620978,
      "drivingDurationMs": 1424704,
      "idlingDurationMs": 196275,
      "fuelConsumedMl": 1552,
      "fuelConsumedGallons": 0.41,
      "maxSpeedMph": 58.6,
      "averageSpeedMph": 16.8,
      "safetyEvents": [],
      "_no_driver_login": false,
      "_fuel_note": ""
    },
    {
      "id": "trip_48291026_20250106_005",
      "vehicleId": "48291026",
      "driverId": "22831025",
      "startMs": 1736158200000,
      "endMs": 1736166448876,
      "startLocation": {
        "latitude": 40.769175,
        "longitude": -111.782472
      },
      "endLocation": {
        "latitude": 40.791841,
        "longitude": -111.928899
      },
      "startAddress": "311 Charles Pines",
      "endAddress": "0545 Osborne Loaf Suite 757",
      "startCoords": {
        "latitude": 40.73511,
        "longitude": -111.784697
      },
      "endCoords": {
        "latitude": 40.785126,
        "longitude": -111.917548
      },
      "distanceMeters": 46640.6,
      "durationMs": 8248876,
      "drivingDurationMs": 7903176,
      "idlingDurationMs": 345700,
      "fuelConsumedMl": 5932,
      "fuelConsumedGallons": 1.567,
      "maxSpeedMph": 30.3,
      "averageSpeedMph": 12.6,
      "safetyEvents": [],
      "_no_driver_login": false,
      "_fuel_note": ""
    },
    {
      "id": "trip_48291026_20250106_006",
      "vehicleId": "48291026",
      "driverId": "22831025",
      "startMs": 1736187120000,
      "endMs": 1736197200000,
      "startLocation": {
        "latitude": 40.733094,
        "longitude": -111.815371
      },
      "endLocation": {
        "latitude": 40.735903,
        "longitude": -111.892572
      },
      "startAddress": "453 Rasmussen Mews Suite 974",
      "endAddress": "9861 Clark Harbors Apt. 125",
      "startCoords": {
        "latitude": 40.681919,
        "longitude": -111.861565
      },
      "endCoords": {
        "latitude": 40.683055,
        "longitude": -111.813894
      },
      "distanceMeters": 42922.8,
      "durationMs": 10080000,
      "drivingDurationMs": 8099201,
      "idlingDurationMs": 1980799,
      "fuelConsumedMl": 5459,
      "fuelConsumedGallons": 1.442,
      "maxSpeedMph": 39.8,
      "averageSpeedMph": 9.5,
      "safetyEvents": [],
      "_no_driver_login": false,
      "_fuel_note": ""
    },
    {
      "id": "trip_48291026_20250107_001",
      "vehicleId": "48291026",
      "driverId": "22831025",
      "startMs": 1736265000000,
      "endMs": 1736269589134,
      "startLocation": {
        "latitude": 40.771075,
        "longitude": -111.863777
      },
      "endLocation": {
        "latitude": 40.715689,
        "longitude": -111.857484
      },
      "startAddress": "7331 Tanner Parkways Apt. 664",
      "endAddress": "70385 John Union Apt. 595",
      "startCoords": {
        "latitude": 40.686879,
        "longitude": -111.800613
      },
      "endCoords": {
        "latitude": 40.705802,
        "longitude": -111.849984
      },
      "distanceMeters": 29980.7,
      "durationMs": 4589135,
      "drivingDurationMs": 3860273,
      "idlingDurationMs": 728862,
      "fuelConsumedMl": 3812,
      "fuelConsumedGallons": 1.007,
      "maxSpeedMph": 38.0,
      "averageSpeedMph": 14.6,
      "safetyEvents": [],
      "_no_driver_login": false,
      "_fuel_note": "QUIRK 5: fuelConsumedGallons is in US gallons. Multiply by 3.785 for litres. Samsara does not link fuel to specific Onfleet tasks."
    },
    {
      "id": "trip_48291026_20250107_002",
      "vehicleId": "48291026",
      "driverId": "22831025",
      "startMs": 1736245800000,
      "endMs": 1736257716014,
      "startLocation": {
        "latitude": 40.730315,
        "longitude": -111.935429
      },
      "endLocation": {
        "latitude": 40.724472,
        "longitude": -111.810531
      },
      "startAddress": "842 Miller View",
      "endAddress": "740 Rachael Groves",
      "startCoords": {
        "latitude": 40.77302,
        "longitude": -111.946461
      },
      "endCoords": {
        "latitude": 40.786102,
        "longitude": -111.825481
      },
      "distanceMeters": 66279.3,
      "durationMs": 11916014,
      "drivingDurationMs": 10030549,
      "idlingDurationMs": 1885466,
      "fuelConsumedMl": 8426,
      "fuelConsumedGallons": 2.226,
      "maxSpeedMph": 70.2,
      "averageSpeedMph": 12.4,
      "safetyEvents": [
        {
          "type": "speeding",
          "startMs": 1736247000000,
          "maxSpeedMph": 70.2
        }
      ],
      "_no_driver_login": false,
      "_fuel_note": ""
    },
    {
      "id": "trip_48291026_20250107_003",
      "vehicleId": "48291026",
      "driverId": "22831025",
      "startMs": 1736230560000,
      "endMs": 1736237335295,
      "startLocation": {
        "latitude": 40.754809,
        "longitude": -111.949082
      },
      "endLocation": {
        "latitude": 40.784762,
        "longitude": -111.92186
      },
      "startAddress": "675 Ronnie Manor",
      "endAddress": "9062 Megan Gardens",
      "startCoords": {
        "latitude": 40.783212,
        "longitude": -111.813186
      },
      "endCoords": {
        "latitude": 40.708012,
        "longitude": -111.913823
      },
      "distanceMeters": 31583.2,
      "durationMs": 6775296,
      "drivingDurationMs": 5642040,
      "idlingDurationMs": 1133255,
      "fuelConsumedMl": 4016,
      "fuelConsumedGallons": 1.061,
      "maxSpeedMph": 57.2,
      "averageSpeedMph": 10.4,
      "safetyEvents": [],
      "_no_driver_login": false,
      "_fuel_note": ""
    },
    {
      "id": "trip_48291026_20250107_004",
      "vehicleId": "48291026",
      "driverId": "22831025",
      "startMs": 1736276160000,
      "endMs": 1736283600000,
      "startLocation": {
        "latitude": 40.780387,
        "longitude": -111.777733
      },
      "endLocation": {
        "latitude": 40.718891,
        "longitude": -111.82172
      },
      "startAddress": "85646 Justin Mission Suite 597",
      "endAddress": "83997 Wilkinson Rapid",
      "startCoords": {
        "latitude": 40.720676,
        "longitude": -111.851281
      },
      "endCoords": {
        "latitude": 40.6877,
        "longitude": -111.826912
      },
      "distanceMeters": 37569.6,
      "durationMs": 7440000,
      "drivingDurationMs": 5952000,
      "idlingDurationMs": 1488000,
      "fuelConsumedMl": 4777,
      "fuelConsumedGallons": 1.262,
      "maxSpeedMph": 46.5,
      "averageSpeedMph": 11.3,
      "safetyEvents": [],
      "_no_driver_login": false,
      "_fuel_note": ""
    },
    {
      "id": "trip_48291026_20250107_005",
      "vehicleId": "48291026",
      "driverId": "22831025",
      "startMs": 1736247420000,
      "endMs": 1736251839161,
      "startLocation": {
        "latitude": 40.771472,
        "longitude": -111.889994
      },
      "endLocation": {
        "latitude": 40.797591,
        "longitude": -111.791146
      },
      "startAddress": "9860 Cervantes Bridge",
      "endAddress": "326 Phillips Crossroad Apt. 394",
      "startCoords": {
        "latitude": 40.79581,
        "longitude": -111.905939
      },
      "endCoords": {
        "latitude": 40.78802,
        "longitude": -111.860334
      },
      "distanceMeters": 28966.1,
      "durationMs": 4419161,
      "drivingDurationMs": 4075391,
      "idlingDurationMs": 343770,
      "fuelConsumedMl": 3683,
      "fuelConsumedGallons": 0.973,
      "maxSpeedMph": 41.4,
      "averageSpeedMph": 14.7,
      "safetyEvents": [],
      "_no_driver_login": false,
      "_fuel_note": ""
    },
    {
      "id": "trip_48291026_20250107_006",
      "vehicleId": "48291026",
      "driverId": "22831025",
      "startMs": 1736248860000,
      "endMs": 1736250266319,
      "startLocation": {
        "latitude": 40.720847,
        "longitude": -111.898853
      },
      "endLocation": {
        "latitude": 40.667668,
        "longitude": -111.781138
      },
      "startAddress": "21289 Donna Cove Suite 948",
      "endAddress": "40012 Kim Square Apt. 239",
      "startCoords": {
        "latitude": 40.679113,
        "longitude": -111.855745
      },
      "endCoords": {
        "latitude": 40.761236,
        "longitude": -111.960186
      },
      "distanceMeters": 9245.8,
      "durationMs": 1406320,
      "drivingDurationMs": 1131056,
      "idlingDurationMs": 275263,
      "fuelConsumedMl": 1177,
      "fuelConsumedGallons": 0.311,
      "maxSpeedMph": 59.0,
      "averageSpeedMph": 14.7,
      "safetyEvents": [],
      "_no_driver_login": false,
      "_fuel_note": ""
    },
    {
      "id": "trip_48291026_20250108_001",
      "vehicleId": "48291026",
      "driverId": "22831025",
      "startMs": 1736351940000,
      "endMs": 1736359947258,
      "startLocation": {
        "latitude": 40.732651,
        "longitude": -111.86775
      },
      "endLocation": {
        "latitude": 40.666222,
        "longitude": -111.912685
      },
      "startAddress": "45056 Vincent Ports Apt. 754",
      "endAddress": "42861 Decker Plain",
      "startCoords": {
        "latitude": 40.70294,
        "longitude": -111.936428
      },
      "endCoords": {
        "latitude": 40.688907,
        "longitude": -111.790207
      },
      "distanceMeters": 66364.6,
      "durationMs": 8007259,
      "drivingDurationMs": 7571539,
      "idlingDurationMs": 435720,
      "fuelConsumedMl": 8438,
      "fuelConsumedGallons": 2.229,
      "maxSpeedMph": 67.2,
      "averageSpeedMph": 18.5,
      "safetyEvents": [
        {
          "type": "speeding",
          "startMs": 1736355000000,
          "maxSpeedMph": 67.2
        }
      ],
      "_no_driver_login": false,
      "_fuel_note": "QUIRK 5: fuelConsumedGallons is in US gallons. Multiply by 3.785 for litres. Samsara does not link fuel to specific Onfleet tasks."
    },
    {
      "id": "trip_48291026_20250108_002",
      "vehicleId": "48291026",
      "driverId": null,
      "startMs": 1736338740000,
      "endMs": 1736341098764,
      "startLocation": {
        "latitude": 40.668696,
        "longitude": -111.845358
      },
      "endLocation": {
        "latitude": 40.79919,
        "longitude": -111.856603
      },
      "startAddress": "7140 Mark Wall",
      "endAddress": "576 Karla Well",
      "startCoords": {
        "latitude": 40.676234,
        "longitude": -111.830023
      },
      "endCoords": {
        "latitude": 40.671578,
        "longitude": -111.940146
      },
      "distanceMeters": 17781.6,
      "durationMs": 2358765,
      "drivingDurationMs": 2063109,
      "idlingDurationMs": 295655,
      "fuelConsumedMl": 2260,
      "fuelConsumedGallons": 0.597,
      "maxSpeedMph": 48.0,
      "averageSpeedMph": 16.9,
      "safetyEvents": [],
      "_no_driver_login": true,
      "_fuel_note": ""
    },
    {
      "id": "trip_48291026_20250108_003",
      "vehicleId": "48291026",
      "driverId": null,
      "startMs": 1736337840000,
      "endMs": 1736346374481,
      "startLocation": {
        "latitude": 40.752064,
        "longitude": -111.794064
      },
      "endLocation": {
        "latitude": 40.672621,
        "longitude": -111.956049
      },
      "startAddress": "163 Berry Trace Suite 806",
      "endAddress": "8530 Andrew Common",
      "startCoords": {
        "latitude": 40.723104,
        "longitude": -111.929473
      },
      "endCoords": {
        "latitude": 40.664111,
        "longitude": -111.881741
      },
      "distanceMeters": 55267.3,
      "durationMs": 8534481,
      "drivingDurationMs": 6858828,
      "idlingDurationMs": 1675653,
      "fuelConsumedMl": 7026,
      "fuelConsumedGallons": 1.856,
      "maxSpeedMph": 43.2,
      "averageSpeedMph": 14.5,
      "safetyEvents": [],
      "_no_driver_login": true,
      "_fuel_note": ""
    },
    {
      "id": "trip_48291026_20250108_004",
      "vehicleId": "48291026",
      "driverId": null,
      "startMs": 1736316180000,
      "endMs": 1736318126244,
      "startLocation": {
        "latitude": 40.760403,
        "longitude": -111.821662
      },
      "endLocation": {
        "latitude": 40.681466,
        "longitude": -111.776868
      },
      "startAddress": "8969 Miller Valley",
      "endAddress": "48527 Bell Lane",
      "startCoords": {
        "latitude": 40.674456,
        "longitude": -111.823663
      },
      "endCoords": {
        "latitude": 40.789494,
        "longitude": -111.881601
      },
      "distanceMeters": 11820.2,
      "durationMs": 1946245,
      "drivingDurationMs": 1645395,
      "idlingDurationMs": 300850,
      "fuelConsumedMl": 1503,
      "fuelConsumedGallons": 0.397,
      "maxSpeedMph": 48.2,
      "averageSpeedMph": 13.6,
      "safetyEvents": [],
      "_no_driver_login": true,
      "_fuel_note": ""
    },
    {
      "id": "trip_48291026_20250108_005",
      "vehicleId": "48291026",
      "driverId": "22831025",
      "startMs": 1736334300000,
      "endMs": 1736336552500,
      "startLocation": {
        "latitude": 40.727877,
        "longitude": -111.881193
      },
      "endLocation": {
        "latitude": 40.764442,
        "longitude": -111.91978
      },
      "startAddress": "36562 Sierra Summit Suite 344",
      "endAddress": "94689 Burgess Stravenue Apt. 318",
      "startCoords": {
        "latitude": 40.773591,
        "longitude": -111.794261
      },
      "endCoords": {
        "latitude": 40.787796,
        "longitude": -111.820103
      },
      "distanceMeters": 15007.5,
      "durationMs": 2252501,
      "drivingDurationMs": 1988616,
      "idlingDurationMs": 263885,
      "fuelConsumedMl": 1908,
      "fuelConsumedGallons": 0.504,
      "maxSpeedMph": 51.4,
      "averageSpeedMph": 14.9,
      "safetyEvents": [],
      "_no_driver_login": false,
      "_fuel_note": ""
    },
    {
      "id": "trip_48291026_20250109_001",
      "vehicleId": "48291026",
      "driverId": "22831025",
      "startMs": 1736440560000,
      "endMs": 1736441636414,
      "startLocation": {
        "latitude": 40.723932,
        "longitude": -111.841751
      },
      "endLocation": {
        "latitude": 40.744908,
        "longitude": -111.820455
      },
      "startAddress": "2833 Coleman Road",
      "endAddress": "8108 Stacey Lakes",
      "startCoords": {
        "latitude": 40.765521,
        "longitude": -111.813815
      },
      "endCoords": {
        "latitude": 40.667251,
        "longitude": -111.943913
      },
      "distanceMeters": 7090.7,
      "durationMs": 1076414,
      "drivingDurationMs": 880621,
      "idlingDurationMs": 195793,
      "fuelConsumedMl": 901,
      "fuelConsumedGallons": 0.238,
      "maxSpeedMph": 51.7,
      "averageSpeedMph": 14.7,
      "safetyEvents": [],
      "_no_driver_login": false,
      "_fuel_note": "QUIRK 5: fuelConsumedGallons is in US gallons. Multiply by 3.785 for litres. Samsara does not link fuel to specific Onfleet tasks."
    },
    {
      "id": "trip_48291026_20250109_002",
      "vehicleId": "48291026",
      "driverId": "22831025",
      "startMs": 1736415780000,
      "endMs": 1736432540277,
      "startLocation": {
        "latitude": 40.756256,
        "longitude": -111.945381
      },
      "endLocation": {
        "latitude": 40.691421,
        "longitude": -111.868445
      },
      "startAddress": "74356 Smith Roads",
      "endAddress": "2871 Howe Lakes Suite 957",
      "startCoords": {
        "latitude": 40.686142,
        "longitude": -111.937397
      },
      "endCoords": {
        "latitude": 40.664622,
        "longitude": -111.831922
      },
      "distanceMeters": 80707.2,
      "durationMs": 16760278,
      "drivingDurationMs": 15159268,
      "idlingDurationMs": 1601010,
      "fuelConsumedMl": 10262,
      "fuelConsumedGallons": 2.711,
      "maxSpeedMph": 62.4,
      "averageSpeedMph": 10.8,
      "safetyEvents": [],
      "_no_driver_login": false,
      "_fuel_note": ""
    },
    {
      "id": "trip_48291026_20250109_003",
      "vehicleId": "48291026",
      "driverId": "22831025",
      "startMs": 1736448780000,
      "endMs": 1736456400000,
      "startLocation": {
        "latitude": 40.794351,
        "longitude": -111.791884
      },
      "endLocation": {
        "latitude": 40.658881,
        "longitude": -111.793314
      },
      "startAddress": "7595 Cherry Burg Suite 536",
      "endAddress": "171 Palmer Wells",
      "startCoords": {
        "latitude": 40.711854,
        "longitude": -111.910234
      },
      "endCoords": {
        "latitude": 40.686111,
        "longitude": -111.937205
      },
      "distanceMeters": 60333.1,
      "durationMs": 7620000,
      "drivingDurationMs": 6961116,
      "idlingDurationMs": 658884,
      "fuelConsumedMl": 7669,
      "fuelConsumedGallons": 2.026,
      "maxSpeedMph": 55.0,
      "averageSpeedMph": 17.7,
      "safetyEvents": [],
      "_no_driver_login": false,
      "_fuel_note": ""
    },
    {
      "id": "trip_48291026_20250110_001",
      "vehicleId": "48291026",
      "driverId": "22831025",
      "startMs": 1736499180000,
      "endMs": 1736506918646,
      "startLocation": {
        "latitude": 40.736274,
        "longitude": -111.960301
      },
      "endLocation": {
        "latitude": 40.696408,
        "longitude": -111.805649
      },
      "startAddress": "04094 Wolf Cliff Apt. 246",
      "endAddress": "757 Patricia Harbors",
      "startCoords": {
        "latitude": 40.696069,
        "longitude": -111.820232
      },
      "endCoords": {
        "latitude": 40.786225,
        "longitude": -111.947026
      },
      "distanceMeters": 52326.3,
      "durationMs": 7738647,
      "drivingDurationMs": 6199366,
      "idlingDurationMs": 1539280,
      "fuelConsumedMl": 6655,
      "fuelConsumedGallons": 1.758,
      "maxSpeedMph": 63.2,
      "averageSpeedMph": 15.1,
      "safetyEvents": [],
      "_no_driver_login": false,
      "_fuel_note": "QUIRK 5: fuelConsumedGallons is in US gallons. Multiply by 3.785 for litres. Samsara does not link fuel to specific Onfleet tasks."
    },
    {
      "id": "trip_48291026_20250110_002",
      "vehicleId": "48291026",
      "driverId": "22831025",
      "startMs": 1736523540000,
      "endMs": 1736524622187,
      "startLocation": {
        "latitude": 40.693079,
        "longitude": -111.774765
      },
      "endLocation": {
        "latitude": 40.740721,
        "longitude": -111.775603
      },
      "startAddress": "48667 Alejandra Glens",
      "endAddress": "62447 Heather Port Suite 711",
      "startCoords": {
        "latitude": 40.702636,
        "longitude": -111.915732
      },
      "endCoords": {
        "latitude": 40.680415,
        "longitude": -111.826816
      },
      "distanceMeters": 6233.9,
      "durationMs": 1082188,
      "drivingDurationMs": 893210,
      "idlingDurationMs": 188977,
      "fuelConsumedMl": 791,
      "fuelConsumedGallons": 0.209,
      "maxSpeedMph": 33.3,
      "averageSpeedMph": 12.9,
      "safetyEvents": [],
      "_no_driver_login": false,
      "_fuel_note": ""
    },
    {
      "id": "trip_48291026_20250110_003",
      "vehicleId": "48291026",
      "driverId": "22831025",
      "startMs": 1736504340000,
      "endMs": 1736505940852,
      "startLocation": {
        "latitude": 40.663015,
        "longitude": -111.893935
      },
      "endLocation": {
        "latitude": 40.70047,
        "longitude": -111.937896
      },
      "startAddress": "87703 Eric Mountain",
      "endAddress": "443 Steven Dale",
      "startCoords": {
        "latitude": 40.690631,
        "longitude": -111.894553
      },
      "endCoords": {
        "latitude": 40.66953,
        "longitude": -111.823586
      },
      "distanceMeters": 10873.4,
      "durationMs": 1600853,
      "drivingDurationMs": 1400104,
      "idlingDurationMs": 200749,
      "fuelConsumedMl": 1382,
      "fuelConsumedGallons": 0.365,
      "maxSpeedMph": 48.2,
      "averageSpeedMph": 15.2,
      "safetyEvents": [],
      "_no_driver_login": false,
      "_fuel_note": ""
    },
    {
      "id": "trip_48291026_20250111_001",
      "vehicleId": "48291026",
      "driverId": "22831025",
      "startMs": 1736586840000,
      "endMs": 1736592927610,
      "startLocation": {
        "latitude": 40.756941,
        "longitude": -111.840019
      },
      "endLocation": {
        "latitude": 40.698459,
        "longitude": -111.946349
      },
      "startAddress": "4725 Brown Haven Suite 782",
      "endAddress": "369 Peter Coves",
      "startCoords": {
        "latitude": 40.66387,
        "longitude": -111.778593
      },
      "endCoords": {
        "latitude": 40.66933,
        "longitude": -111.787642
      },
      "distanceMeters": 38971.9,
      "durationMs": 6087610,
      "drivingDurationMs": 5465138,
      "idlingDurationMs": 622472,
      "fuelConsumedMl": 4955,
      "fuelConsumedGallons": 1.309,
      "maxSpeedMph": 47.5,
      "averageSpeedMph": 14.3,
      "safetyEvents": [],
      "_no_driver_login": false,
      "_fuel_note": "QUIRK 5: fuelConsumedGallons is in US gallons. Multiply by 3.785 for litres. Samsara does not link fuel to specific Onfleet tasks."
    },
    {
      "id": "trip_48291026_20250111_002",
      "vehicleId": "48291026",
      "driverId": "22831025",
      "startMs": 1736611140000,
      "endMs": 1736611979832,
      "startLocation": {
        "latitude": 40.708326,
        "longitude": -111.825262
      },
      "endLocation": {
        "latitude": 40.657832,
        "longitude": -111.95297
      },
      "startAddress": "502 Kent Freeway Suite 097",
      "endAddress": "22066 Graham Islands",
      "startCoords": {
        "latitude": 40.706292,
        "longitude": -111.907606
      },
      "endCoords": {
        "latitude": 40.724388,
        "longitude": -111.832874
      },
      "distanceMeters": 5040.3,
      "durationMs": 839833,
      "drivingDurationMs": 660590,
      "idlingDurationMs": 179243,
      "fuelConsumedMl": 640,
      "fuelConsumedGallons": 0.169,
      "maxSpeedMph": 32.7,
      "averageSpeedMph": 13.4,
      "safetyEvents": [],
      "_no_driver_login": false,
      "_fuel_note": ""
    },
    {
      "id": "trip_48291026_20250111_003",
      "vehicleId": "48291026",
      "driverId": "22831025",
      "startMs": 1736612040000,
      "endMs": 1736620558404,
      "startLocation": {
        "latitude": 40.745512,
        "longitude": -111.795298
      },
      "endLocation": {
        "latitude": 40.708665,
        "longitude": -111.844489
      },
      "startAddress": "053 Joshua Road Apt. 694",
      "endAddress": "3286 Steven Shores",
      "startCoords": {
        "latitude": 40.743053,
        "longitude": -111.911377
      },
      "endCoords": {
        "latitude": 40.722537,
        "longitude": -111.831605
      },
      "distanceMeters": 61266.4,
      "durationMs": 8518405,
      "drivingDurationMs": 8276494,
      "idlingDurationMs": 241911,
      "fuelConsumedMl": 7790,
      "fuelConsumedGallons": 2.058,
      "maxSpeedMph": 28.5,
      "averageSpeedMph": 16.1,
      "safetyEvents": [],
      "_no_driver_login": false,
      "_fuel_note": ""
    },
    {
      "id": "trip_48291026_20250112_001",
      "vehicleId": "48291026",
      "driverId": "22831025",
      "startMs": 1736705100000,
      "endMs": 1736713096282,
      "startLocation": {
        "latitude": 40.782535,
        "longitude": -111.823393
      },
      "endLocation": {
        "latitude": 40.731661,
        "longitude": -111.841943
      },
      "startAddress": "99031 Clarke Court Apt. 359",
      "endAddress": "3331 Nunez Prairie",
      "startCoords": {
        "latitude": 40.766746,
        "longitude": -111.886108
      },
      "endCoords": {
        "latitude": 40.722109,
        "longitude": -111.775577
      },
      "distanceMeters": 59474.8,
      "durationMs": 7996283,
      "drivingDurationMs": 7596631,
      "idlingDurationMs": 399651,
      "fuelConsumedMl": 7563,
      "fuelConsumedGallons": 1.998,
      "maxSpeedMph": 28.5,
      "averageSpeedMph": 16.6,
      "safetyEvents": [],
      "_no_driver_login": false,
      "_fuel_note": "QUIRK 5: fuelConsumedGallons is in US gallons. Multiply by 3.785 for litres. Samsara does not link fuel to specific Onfleet tasks."
    },
    {
      "id": "trip_48291026_20250112_002",
      "vehicleId": "48291026",
      "driverId": "22831025",
      "startMs": 1736688360000,
      "endMs": 1736694534764,
      "startLocation": {
        "latitude": 40.691676,
        "longitude": -111.856697
      },
      "endLocation": {
        "latitude": 40.707786,
        "longitude": -111.846133
      },
      "startAddress": "0101 Sullivan Course Apt. 352",
      "endAddress": "2260 Chris Loaf",
      "startCoords": {
        "latitude": 40.784499,
        "longitude": -111.961835
      },
      "endCoords": {
        "latitude": 40.732198,
        "longitude": -111.927157
      },
      "distanceMeters": 42682.5,
      "durationMs": 6174765,
      "drivingDurationMs": 5089386,
      "idlingDurationMs": 1085379,
      "fuelConsumedMl": 5428,
      "fuelConsumedGallons": 1.434,
      "maxSpeedMph": 53.4,
      "averageSpeedMph": 15.5,
      "safetyEvents": [],
      "_no_driver_login": false,
      "_fuel_note": ""
    },
    {
      "id": "trip_48291026_20250112_003",
      "vehicleId": "48291026",
      "driverId": "22831025",
      "startMs": 1736672040000,
      "endMs": 1736679922076,
      "startLocation": {
        "latitude": 40.691013,
        "longitude": -111.834581
      },
      "endLocation": {
        "latitude": 40.698644,
        "longitude": -111.854204
      },
      "startAddress": "66331 Davis Center Apt. 310",
      "endAddress": "1719 Stewart Streets",
      "startCoords": {
        "latitude": 40.798223,
        "longitude": -111.919128
      },
      "endCoords": {
        "latitude": 40.74315,
        "longitude": -111.846237
      },
      "distanceMeters": 42576.2,
      "durationMs": 7882077,
      "drivingDurationMs": 7526530,
      "idlingDurationMs": 355546,
      "fuelConsumedMl": 5413,
      "fuelConsumedGallons": 1.43,
      "maxSpeedMph": 43.5,
      "averageSpeedMph": 12.1,
      "safetyEvents": [],
      "_no_driver_login": false,
      "_fuel_note": ""
    },
    {
      "id": "trip_48291026_20250113_001",
      "vehicleId": "48291026",
      "driverId": "22831025",
      "startMs": 1736779560000,
      "endMs": 1736793010496,
      "startLocation": {
        "latitude": 40.712642,
        "longitude": -111.824452
      },
      "endLocation": {
        "latitude": 40.657906,
        "longitude": -111.864533
      },
      "startAddress": "91804 William Hills",
      "endAddress": "97975 Hunt Turnpike",
      "startCoords": {
        "latitude": 40.797465,
        "longitude": -111.849588
      },
      "endCoords": {
        "latitude": 40.788888,
        "longitude": -111.900137
      },
      "distanceMeters": 81341.5,
      "durationMs": 13450496,
      "drivingDurationMs": 12899489,
      "idlingDurationMs": 551007,
      "fuelConsumedMl": 10342,
      "fuelConsumedGallons": 2.732,
      "maxSpeedMph": 37.6,
      "averageSpeedMph": 13.5,
      "safetyEvents": [],
      "_no_driver_login": false,
      "_fuel_note": "QUIRK 5: fuelConsumedGallons is in US gallons. Multiply by 3.785 for litres. Samsara does not link fuel to specific Onfleet tasks."
    },
    {
      "id": "trip_48291026_20250113_002",
      "vehicleId": "48291026",
      "driverId": "22831025",
      "startMs": 1736772240000,
      "endMs": 1736783233938,
      "startLocation": {
        "latitude": 40.709924,
        "longitude": -111.872899
      },
      "endLocation": {
        "latitude": 40.680695,
        "longitude": -111.950809
      },
      "startAddress": "18180 Lisa Vista Suite 472",
      "endAddress": "311 Tamara Knolls",
      "startCoords": {
        "latitude": 40.703579,
        "longitude": -111.823152
      },
      "endCoords": {
        "latitude": 40.69995,
        "longitude": -111.928459
      },
      "distanceMeters": 65721.4,
      "durationMs": 10993938,
      "drivingDurationMs": 10528099,
      "idlingDurationMs": 465839,
      "fuelConsumedMl": 8354,
      "fuelConsumedGallons": 2.207,
      "maxSpeedMph": 56.5,
      "averageSpeedMph": 13.4,
      "safetyEvents": [],
      "_no_driver_login": false,
      "_fuel_note": ""
    },
    {
      "id": "trip_48291026_20250114_001",
      "vehicleId": "48291026",
      "driverId": "22831025",
      "startMs": 1736853480000,
      "endMs": 1736855853640,
      "startLocation": {
        "latitude": 40.707798,
        "longitude": -111.949262
      },
      "endLocation": {
        "latitude": 40.668609,
        "longitude": -111.792043
      },
      "startAddress": "1114 Eric Terrace Apt. 965",
      "endAddress": "612 Paul Turnpike",
      "startCoords": {
        "latitude": 40.750718,
        "longitude": -111.925063
      },
      "endCoords": {
        "latitude": 40.707065,
        "longitude": -111.905503
      },
      "distanceMeters": 15068.2,
      "durationMs": 2373640,
      "drivingDurationMs": 1991091,
      "idlingDurationMs": 382549,
      "fuelConsumedMl": 1915,
      "fuelConsumedGallons": 0.506,
      "maxSpeedMph": 56.8,
      "averageSpeedMph": 14.2,
      "safetyEvents": [],
      "_no_driver_login": false,
      "_fuel_note": "QUIRK 5: fuelConsumedGallons is in US gallons. Multiply by 3.785 for litres. Samsara does not link fuel to specific Onfleet tasks."
    },
    {
      "id": "trip_48291026_20250114_002",
      "vehicleId": "48291026",
      "driverId": "22831025",
      "startMs": 1736874000000,
      "endMs": 1736884459170,
      "startLocation": {
        "latitude": 40.737529,
        "longitude": -111.845039
      },
      "endLocation": {
        "latitude": 40.762554,
        "longitude": -111.851029
      },
      "startAddress": "948 Sabrina Vista Apt. 011",
      "endAddress": "330 Robert Prairie",
      "startCoords": {
        "latitude": 40.761165,
        "longitude": -111.919049
      },
      "endCoords": {
        "latitude": 40.76735,
        "longitude": -111.915542
      },
      "distanceMeters": 51225.9,
      "durationMs": 10459170,
      "drivingDurationMs": 9073339,
      "idlingDurationMs": 1385831,
      "fuelConsumedMl": 6515,
      "fuelConsumedGallons": 1.721,
      "maxSpeedMph": 30.8,
      "averageSpeedMph": 11.0,
      "safetyEvents": [],
      "_no_driver_login": false,
      "_fuel_note": ""
    },
    {
      "id": "trip_48291026_20250115_001",
      "vehicleId": "48291026",
      "driverId": null,
      "startMs": 1736937780000,
      "endMs": 1736939450908,
      "startLocation": {
        "latitude": 40.792764,
        "longitude": -111.870602
      },
      "endLocation": {
        "latitude": 40.747086,
        "longitude": -111.922261
      },
      "startAddress": "513 Erica Flat",
      "endAddress": "1170 Todd Highway Suite 344",
      "startCoords": {
        "latitude": 40.715828,
        "longitude": -111.809406
      },
      "endCoords": {
        "latitude": 40.739834,
        "longitude": -111.796536
      },
      "distanceMeters": 9565.8,
      "durationMs": 1670908,
      "drivingDurationMs": 1387053,
      "idlingDurationMs": 283855,
      "fuelConsumedMl": 1215,
      "fuelConsumedGallons": 0.321,
      "maxSpeedMph": 70.8,
      "averageSpeedMph": 12.8,
      "safetyEvents": [
        {
          "type": "speeding",
          "startMs": 1736937900000,
          "maxSpeedMph": 70.8
        }
      ],
      "_no_driver_login": true,
      "_fuel_note": "QUIRK 5: fuelConsumedGallons is in US gallons. Multiply by 3.785 for litres. Samsara does not link fuel to specific Onfleet tasks."
    },
    {
      "id": "trip_48291026_20250115_002",
      "vehicleId": "48291026",
      "driverId": "22831025",
      "startMs": 1736938680000,
      "endMs": 1736945827302,
      "startLocation": {
        "latitude": 40.775497,
        "longitude": -111.877544
      },
      "endLocation": {
        "latitude": 40.755987,
        "longitude": -111.938116
      },
      "startAddress": "372 Jeremy River Apt. 761",
      "endAddress": "225 Wade Pike Suite 313",
      "startCoords": {
        "latitude": 40.71834,
        "longitude": -111.911191
      },
      "endCoords": {
        "latitude": 40.725055,
        "longitude": -111.934266
      },
      "distanceMeters": 34685.5,
      "durationMs": 7147302,
      "drivingDurationMs": 6301913,
      "idlingDurationMs": 845389,
      "fuelConsumedMl": 4410,
      "fuelConsumedGallons": 1.165,
      "maxSpeedMph": 63.5,
      "averageSpeedMph": 10.9,
      "safetyEvents": [],
      "_no_driver_login": false,
      "_fuel_note": ""
    },
    {
      "id": "trip_48291026_20250115_003",
      "vehicleId": "48291026",
      "driverId": "22831025",
      "startMs": 1736967480000,
      "endMs": 1736972242703,
      "startLocation": {
        "latitude": 40.743466,
        "longitude": -111.898904
      },
      "endLocation": {
        "latitude": 40.784576,
        "longitude": -111.889624
      },
      "startAddress": "740 Parker Harbor Apt. 739",
      "endAddress": "96175 Peterson Oval Apt. 618",
      "startCoords": {
        "latitude": 40.788048,
        "longitude": -111.878976
      },
      "endCoords": {
        "latitude": 40.747766,
        "longitude": -111.937663
      },
      "distanceMeters": 30701.5,
      "durationMs": 4762703,
      "drivingDurationMs": 3844517,
      "idlingDurationMs": 918186,
      "fuelConsumedMl": 3903,
      "fuelConsumedGallons": 1.031,
      "maxSpeedMph": 64.7,
      "averageSpeedMph": 14.4,
      "safetyEvents": [],
      "_no_driver_login": false,
      "_fuel_note": ""
    },
    {
      "id": "trip_48291026_20250116_001",
      "vehicleId": "48291026",
      "driverId": "22831025",
      "startMs": 1737012840000,
      "endMs": 1737023780045,
      "startLocation": {
        "latitude": 40.701109,
        "longitude": -111.79709
      },
      "endLocation": {
        "latitude": 40.78643,
        "longitude": -111.926232
      },
      "startAddress": "12458 Jose Tunnel",
      "endAddress": "080 Williams Falls Suite 857",
      "startCoords": {
        "latitude": 40.745421,
        "longitude": -111.775763
      },
      "endCoords": {
        "latitude": 40.661538,
        "longitude": -111.937448
      },
      "distanceMeters": 82836.7,
      "durationMs": 10940046,
      "drivingDurationMs": 9618660,
      "idlingDurationMs": 1321386,
      "fuelConsumedMl": 10531,
      "fuelConsumedGallons": 2.782,
      "maxSpeedMph": 58.7,
      "averageSpeedMph": 16.9,
      "safetyEvents": [],
      "_no_driver_login": false,
      "_fuel_note": "QUIRK 5: fuelConsumedGallons is in US gallons. Multiply by 3.785 for litres. Samsara does not link fuel to specific Onfleet tasks."
    },
    {
      "id": "trip_48291026_20250116_002",
      "vehicleId": "48291026",
      "driverId": "22831025",
      "startMs": 1737022800000,
      "endMs": 1737023845378,
      "startLocation": {
        "latitude": 40.673503,
        "longitude": -111.87178
      },
      "endLocation": {
        "latitude": 40.730656,
        "longitude": -111.845717
      },
      "startAddress": "364 Mark Fall Suite 702",
      "endAddress": "154 Sullivan Rest Apt. 072",
      "startCoords": {
        "latitude": 40.769927,
        "longitude": -111.851389
      },
      "endCoords": {
        "latitude": 40.734911,
        "longitude": -111.948535
      },
      "distanceMeters": 5347.7,
      "durationMs": 1045379,
      "drivingDurationMs": 839968,
      "idlingDurationMs": 205410,
      "fuelConsumedMl": 681,
      "fuelConsumedGallons": 0.18,
      "maxSpeedMph": 49.8,
      "averageSpeedMph": 11.4,
      "safetyEvents": [],
      "_no_driver_login": false,
      "_fuel_note": ""
    },
    {
      "id": "trip_48291026_20250116_003",
      "vehicleId": "48291026",
      "driverId": "22831025",
      "startMs": 1737031680000,
      "endMs": 1737034705203,
      "startLocation": {
        "latitude": 40.679457,
        "longitude": -111.9071
      },
      "endLocation": {
        "latitude": 40.688242,
        "longitude": -111.81288
      },
      "startAddress": "23187 William Loop Apt. 344",
      "endAddress": "97508 Ashley Shoal Apt. 385",
      "startCoords": {
        "latitude": 40.79924,
        "longitude": -111.825314
      },
      "endCoords": {
        "latitude": 40.660589,
        "longitude": -111.92176
      },
      "distanceMeters": 13674.1,
      "durationMs": 3025204,
      "drivingDurationMs": 2727680,
      "idlingDurationMs": 297523,
      "fuelConsumedMl": 1738,
      "fuelConsumedGallons": 0.459,
      "maxSpeedMph": 59.7,
      "averageSpeedMph": 10.1,
      "safetyEvents": [],
      "_no_driver_login": false,
      "_fuel_note": ""
    },
    {
      "id": "trip_48291026_20250116_004",
      "vehicleId": "48291026",
      "driverId": null,
      "startMs": 1737021900000,
      "endMs": 1737031961438,
      "startLocation": {
        "latitude": 40.761519,
        "longitude": -111.902004
      },
      "endLocation": {
        "latitude": 40.779888,
        "longitude": -111.95916
      },
      "startAddress": "980 Angela Harbors Apt. 278",
      "endAddress": "2684 Rodriguez Wells",
      "startCoords": {
        "latitude": 40.715689,
        "longitude": -111.801412
      },
      "endCoords": {
        "latitude": 40.744736,
        "longitude": -111.850284
      },
      "distanceMeters": 55010.9,
      "durationMs": 10061438,
      "drivingDurationMs": 8211056,
      "idlingDurationMs": 1850382,
      "fuelConsumedMl": 6995,
      "fuelConsumedGallons": 1.848,
      "maxSpeedMph": 52.2,
      "averageSpeedMph": 12.2,
      "safetyEvents": [],
      "_no_driver_login": true,
      "_fuel_note": ""
    },
    {
      "id": "trip_48291026_20250116_005",
      "vehicleId": "48291026",
      "driverId": "22831025",
      "startMs": 1737010500000,
      "endMs": 1737017020357,
      "startLocation": {
        "latitude": 40.667671,
        "longitude": -111.937941
      },
      "endLocation": {
        "latitude": 40.699946,
        "longitude": -111.930682
      },
      "startAddress": "9044 Nguyen Key Apt. 792",
      "endAddress": "060 John Path Apt. 000",
      "startCoords": {
        "latitude": 40.724012,
        "longitude": -111.892909
      },
      "endCoords": {
        "latitude": 40.698064,
        "longitude": -111.894448
      },
      "distanceMeters": 44682.2,
      "durationMs": 6520357,
      "drivingDurationMs": 5713167,
      "idlingDurationMs": 807190,
      "fuelConsumedMl": 5682,
      "fuelConsumedGallons": 1.501,
      "maxSpeedMph": 55.5,
      "averageSpeedMph": 15.3,
      "safetyEvents": [],
      "_no_driver_login": false,
      "_fuel_note": ""
    },
    {
      "id": "trip_48291026_20250117_001",
      "vehicleId": "48291026",
      "driverId": "22831025",
      "startMs": 1737094140000,
      "endMs": 1737100782132,
      "startLocation": {
        "latitude": 40.699594,
        "longitude": -111.882147
      },
      "endLocation": {
        "latitude": 40.731826,
        "longitude": -111.829762
      },
      "startAddress": "2706 Tate Spring",
      "endAddress": "78956 Sharon Islands",
      "startCoords": {
        "latitude": 40.784399,
        "longitude": -111.845293
      },
      "endCoords": {
        "latitude": 40.794179,
        "longitude": -111.842249
      },
      "distanceMeters": 54223.3,
      "durationMs": 6642133,
      "drivingDurationMs": 6112265,
      "idlingDurationMs": 529868,
      "fuelConsumedMl": 6893,
      "fuelConsumedGallons": 1.821,
      "maxSpeedMph": 67.1,
      "averageSpeedMph": 18.3,
      "safetyEvents": [
        {
          "type": "speeding",
          "startMs": 1737094560000,
          "maxSpeedMph": 67.1
        }
      ],
      "_no_driver_login": false,
      "_fuel_note": "QUIRK 5: fuelConsumedGallons is in US gallons. Multiply by 3.785 for litres. Samsara does not link fuel to specific Onfleet tasks."
    },
    {
      "id": "trip_48291026_20250117_002",
      "vehicleId": "48291026",
      "driverId": "22831025",
      "startMs": 1737125100000,
      "endMs": 1737133833365,
      "startLocation": {
        "latitude": 40.726418,
        "longitude": -111.904165
      },
      "endLocation": {
        "latitude": 40.772195,
        "longitude": -111.942517
      },
      "startAddress": "51290 Howard Union Suite 385",
      "endAddress": "40500 Carey Turnpike Apt. 066",
      "startCoords": {
        "latitude": 40.706716,
        "longitude": -111.858513
      },
      "endCoords": {
        "latitude": 40.684024,
        "longitude": -111.814809
      },
      "distanceMeters": 41110.3,
      "durationMs": 8733366,
      "drivingDurationMs": 7118302,
      "idlingDurationMs": 1615064,
      "fuelConsumedMl": 5228,
      "fuelConsumedGallons": 1.381,
      "maxSpeedMph": 39.2,
      "averageSpeedMph": 10.5,
      "safetyEvents": [],
      "_no_driver_login": false,
      "_fuel_note": ""
    },
    {
      "id": "trip_48291026_20250117_003",
      "vehicleId": "48291026",
      "driverId": "22831025",
      "startMs": 1737122700000,
      "endMs": 1737128667951,
      "startLocation": {
        "latitude": 40.726584,
        "longitude": -111.890849
      },
      "endLocation": {
        "latitude": 40.724411,
        "longitude": -111.945866
      },
      "startAddress": "58809 Carroll Row Suite 398",
      "endAddress": "8832 Stacey Views",
      "startCoords": {
        "latitude": 40.76309,
        "longitude": -111.826018
      },
      "endCoords": {
        "latitude": 40.684595,
        "longitude": -111.907097
      },
      "distanceMeters": 32310.2,
      "durationMs": 5967951,
      "drivingDurationMs": 4909345,
      "idlingDurationMs": 1058607,
      "fuelConsumedMl": 4107,
      "fuelConsumedGallons": 1.085,
      "maxSpeedMph": 45.8,
      "averageSpeedMph": 12.1,
      "safetyEvents": [],
      "_no_driver_login": false,
      "_fuel_note": ""
    },
    {
      "id": "trip_48291026_20250117_004",
      "vehicleId": "48291026",
      "driverId": "22831025",
      "startMs": 1737135600000,
      "endMs": 1737146870328,
      "startLocation": {
        "latitude": 40.716004,
        "longitude": -111.816177
      },
      "endLocation": {
        "latitude": 40.673467,
        "longitude": -111.93009
      },
      "startAddress": "21168 Powell Shores Apt. 289",
      "endAddress": "149 Barr Mews",
      "startCoords": {
        "latitude": 40.763765,
        "longitude": -111.837594
      },
      "endCoords": {
        "latitude": 40.745112,
        "longitude": -111.859328
      },
      "distanceMeters": 83508.7,
      "durationMs": 11270328,
      "drivingDurationMs": 9798532,
      "idlingDurationMs": 1471796,
      "fuelConsumedMl": 10618,
      "fuelConsumedGallons": 2.805,
      "maxSpeedMph": 65.1,
      "averageSpeedMph": 16.6,
      "safetyEvents": [
        {
          "type": "speeding",
          "startMs": 1737144540000,
          "maxSpeedMph": 65.1
        }
      ],
      "_no_driver_login": false,
      "_fuel_note": ""
    },
    {
      "id": "trip_48291026_20250118_001",
      "vehicleId": "48291026",
      "driverId": "22831025",
      "startMs": 1737206160000,
      "endMs": 1737217634939,
      "startLocation": {
        "latitude": 40.715505,
        "longitude": -111.85491
      },
      "endLocation": {
        "latitude": 40.740712,
        "longitude": -111.784828
      },
      "startAddress": "42537 Sullivan Stravenue Suite 732",
      "endAddress": "9660 Glover Fall Suite 372",
      "startCoords": {
        "latitude": 40.773362,
        "longitude": -111.900735
      },
      "endCoords": {
        "latitude": 40.781965,
        "longitude": -111.905348
      },
      "distanceMeters": 67950.7,
      "durationMs": 11474939,
      "drivingDurationMs": 10973120,
      "idlingDurationMs": 501819,
      "fuelConsumedMl": 8638,
      "fuelConsumedGallons": 2.282,
      "maxSpeedMph": 32.7,
      "averageSpeedMph": 13.2,
      "safetyEvents": [],
      "_no_driver_login": false,
      "_fuel_note": "QUIRK 5: fuelConsumedGallons is in US gallons. Multiply by 3.785 for litres. Samsara does not link fuel to specific Onfleet tasks."
    },
    {
      "id": "trip_48291026_20250118_002",
      "vehicleId": "48291026",
      "driverId": "22831025",
      "startMs": 1737195960000,
      "endMs": 1737206249798,
      "startLocation": {
        "latitude": 40.701995,
        "longitude": -111.902333
      },
      "endLocation": {
        "latitude": 40.757506,
        "longitude": -111.865713
      },
      "startAddress": "057 Theresa Crescent",
      "endAddress": "629 Powers Lights Apt. 734",
      "startCoords": {
        "latitude": 40.729758,
        "longitude": -111.836589
      },
      "endCoords": {
        "latitude": 40.712907,
        "longitude": -111.890694
      },
      "distanceMeters": 60501.2,
      "durationMs": 10289799,
      "drivingDurationMs": 9435517,
      "idlingDurationMs": 854282,
      "fuelConsumedMl": 7692,
      "fuelConsumedGallons": 2.032,
      "maxSpeedMph": 31.0,
      "averageSpeedMph": 13.2,
      "safetyEvents": [],
      "_no_driver_login": false,
      "_fuel_note": ""
    },
    {
      "id": "trip_48291026_20250118_003",
      "vehicleId": "48291026",
      "driverId": "22831025",
      "startMs": 1737183360000,
      "endMs": 1737192043976,
      "startLocation": {
        "latitude": 40.789956,
        "longitude": -111.906724
      },
      "endLocation": {
        "latitude": 40.667146,
        "longitude": -111.78524
      },
      "startAddress": "904 Randy Islands",
      "endAddress": "6068 Pineda Rapids Apt. 219",
      "startCoords": {
        "latitude": 40.670242,
        "longitude": -111.815785
      },
      "endCoords": {
        "latitude": 40.757448,
        "longitude": -111.845791
      },
      "distanceMeters": 49820.7,
      "durationMs": 8683977,
      "drivingDurationMs": 8455845,
      "idlingDurationMs": 228131,
      "fuelConsumedMl": 6333,
      "fuelConsumedGallons": 1.673,
      "maxSpeedMph": 38.5,
      "averageSpeedMph": 12.8,
      "safetyEvents": [],
      "_no_driver_login": false,
      "_fuel_note": ""
    },
    {
      "id": "trip_48291026_20250119_001",
      "vehicleId": "48291026",
      "driverId": "22831025",
      "startMs": 1737270660000,
      "endMs": 1737279632732,
      "startLocation": {
        "latitude": 40.662261,
        "longitude": -111.953033
      },
      "endLocation": {
        "latitude": 40.768374,
        "longitude": -111.798695
      },
      "startAddress": "083 Stanley Street Suite 435",
      "endAddress": "85842 Kevin Trace Suite 492",
      "startCoords": {
        "latitude": 40.69644,
        "longitude": -111.778101
      },
      "endCoords": {
        "latitude": 40.72116,
        "longitude": -111.921561
      },
      "distanceMeters": 74611.4,
      "durationMs": 8972732,
      "drivingDurationMs": 8728889,
      "idlingDurationMs": 243843,
      "fuelConsumedMl": 9486,
      "fuelConsumedGallons": 2.506,
      "maxSpeedMph": 61.7,
      "averageSpeedMph": 18.6,
      "safetyEvents": [],
      "_no_driver_login": false,
      "_fuel_note": "QUIRK 5: fuelConsumedGallons is in US gallons. Multiply by 3.785 for litres. Samsara does not link fuel to specific Onfleet tasks."
    },
    {
      "id": "trip_48291026_20250119_002",
      "vehicleId": "48291026",
      "driverId": "22831025",
      "startMs": 1737306960000,
      "endMs": 1737310764027,
      "startLocation": {
        "latitude": 40.699218,
        "longitude": -111.842771
      },
      "endLocation": {
        "latitude": 40.701003,
        "longitude": -111.906986
      },
      "startAddress": "7567 Perez Pike Suite 688",
      "endAddress": "5392 Velasquez Wall",
      "startCoords": {
        "latitude": 40.746402,
        "longitude": -111.938692
      },
      "endCoords": {
        "latitude": 40.730013,
        "longitude": -111.792869
      },
      "distanceMeters": 19665.9,
      "durationMs": 3804028,
      "drivingDurationMs": 3306576,
      "idlingDurationMs": 497451,
      "fuelConsumedMl": 2502,
      "fuelConsumedGallons": 0.661,
      "maxSpeedMph": 38.9,
      "averageSpeedMph": 11.6,
      "safetyEvents": [],
      "_no_driver_login": false,
      "_fuel_note": ""
    },
    {
      "id": "trip_48291026_20250120_001",
      "vehicleId": "48291026",
      "driverId": "22831025",
      "startMs": 1737379380000,
      "endMs": 1737385394201,
      "startLocation": {
        "latitude": 40.721137,
        "longitude": -111.860243
      },
      "endLocation": {
        "latitude": 40.681911,
        "longitude": -111.788643
      },
      "startAddress": "65679 Robert Dale",
      "endAddress": "41781 Mills Street Apt. 896",
      "startCoords": {
        "latitude": 40.686703,
        "longitude": -111.830153
      },
      "endCoords": {
        "latitude": 40.702315,
        "longitude": -111.875527
      },
      "distanceMeters": 39704.4,
      "durationMs": 6014202,
      "drivingDurationMs": 4890498,
      "idlingDurationMs": 1123704,
      "fuelConsumedMl": 5050,
      "fuelConsumedGallons": 1.334,
      "maxSpeedMph": 36.2,
      "averageSpeedMph": 14.8,
      "safetyEvents": [],
      "_no_driver_login": false,
      "_fuel_note": "QUIRK 5: fuelConsumedGallons is in US gallons. Multiply by 3.785 for litres. Samsara does not link fuel to specific Onfleet tasks."
    },
    {
      "id": "trip_48291026_20250120_002",
      "vehicleId": "48291026",
      "driverId": "22831025",
      "startMs": 1737359220000,
      "endMs": 1737363034834,
      "startLocation": {
        "latitude": 40.75199,
        "longitude": -111.927244
      },
      "endLocation": {
        "latitude": 40.75296,
        "longitude": -111.921257
      },
      "startAddress": "861 Russell Drive Apt. 193",
      "endAddress": "757 Downs Extension Apt. 876",
      "startCoords": {
        "latitude": 40.784566,
        "longitude": -111.909456
      },
      "endCoords": {
        "latitude": 40.797444,
        "longitude": -111.925632
      },
      "distanceMeters": 23146.2,
      "durationMs": 3814834,
      "drivingDurationMs": 3374423,
      "idlingDurationMs": 440411,
      "fuelConsumedMl": 2941,
      "fuelConsumedGallons": 0.777,
      "maxSpeedMph": 60.6,
      "averageSpeedMph": 13.6,
      "safetyEvents": [],
      "_no_driver_login": false,
      "_fuel_note": ""
    },
    {
      "id": "trip_48291026_20250120_003",
      "vehicleId": "48291026",
      "driverId": "22831025",
      "startMs": 1737396540000,
      "endMs": 1737400745777,
      "startLocation": {
        "latitude": 40.724719,
        "longitude": -111.788087
      },
      "endLocation": {
        "latitude": 40.790978,
        "longitude": -111.888988
      },
      "startAddress": "44471 Cunningham Shoals Apt. 390",
      "endAddress": "80862 Logan Squares Suite 714",
      "startCoords": {
        "latitude": 40.734728,
        "longitude": -111.923522
      },
      "endCoords": {
        "latitude": 40.682973,
        "longitude": -111.94004
      },
      "distanceMeters": 23194.1,
      "durationMs": 4205777,
      "drivingDurationMs": 3405732,
      "idlingDurationMs": 800045,
      "fuelConsumedMl": 2949,
      "fuelConsumedGallons": 0.779,
      "maxSpeedMph": 68.3,
      "averageSpeedMph": 12.3,
      "safetyEvents": [
        {
          "type": "speeding",
          "startMs": 1737398880000,
          "maxSpeedMph": 68.3
        }
      ],
      "_no_driver_login": false,
      "_fuel_note": ""
    },
    {
      "id": "trip_48291026_20250121_001",
      "vehicleId": "48291026",
      "driverId": "22831025",
      "startMs": 1737465780000,
      "endMs": 1737479042820,
      "startLocation": {
        "latitude": 40.752224,
        "longitude": -111.774858
      },
      "endLocation": {
        "latitude": 40.790634,
        "longitude": -111.804063
      },
      "startAddress": "32459 Jessica Garden Apt. 414",
      "endAddress": "58254 Fitzgerald Spur",
      "startCoords": {
        "latitude": 40.717512,
        "longitude": -111.8831
      },
      "endCoords": {
        "latitude": 40.747651,
        "longitude": -111.84458
      },
      "distanceMeters": 84759.5,
      "durationMs": 13262821,
      "drivingDurationMs": 12166979,
      "idlingDurationMs": 1095842,
      "fuelConsumedMl": 10777,
      "fuelConsumedGallons": 2.847,
      "maxSpeedMph": 67.1,
      "averageSpeedMph": 14.3,
      "safetyEvents": [
        {
          "type": "speeding",
          "startMs": 1737470940000,
          "maxSpeedMph": 67.1
        }
      ],
      "_no_driver_login": false,
      "_fuel_note": "QUIRK 5: fuelConsumedGallons is in US gallons. Multiply by 3.785 for litres. Samsara does not link fuel to specific Onfleet tasks."
    },
    {
      "id": "trip_48291026_20250121_002",
      "vehicleId": "48291026",
      "driverId": "22831025",
      "startMs": 1737443160000,
      "endMs": 1737450327374,
      "startLocation": {
        "latitude": 40.699767,
        "longitude": -111.872649
      },
      "endLocation": {
        "latitude": 40.770178,
        "longitude": -111.946301
      },
      "startAddress": "3438 Michael Centers",
      "endAddress": "992 Michael Circle Apt. 415",
      "startCoords": {
        "latitude": 40.748445,
        "longitude": -111.77489
      },
      "endCoords": {
        "latitude": 40.766357,
        "longitude": -111.906794
      },
      "distanceMeters": 50949.5,
      "durationMs": 7167375,
      "drivingDurationMs": 5840035,
      "idlingDurationMs": 1327340,
      "fuelConsumedMl": 6477,
      "fuelConsumedGallons": 1.711,
      "maxSpeedMph": 52.4,
      "averageSpeedMph": 15.9,
      "safetyEvents": [],
      "_no_driver_login": false,
      "_fuel_note": ""
    },
    {
      "id": "trip_48291026_20250121_003",
      "vehicleId": "48291026",
      "driverId": "22831025",
      "startMs": 1737465480000,
      "endMs": 1737475526008,
      "startLocation": {
        "latitude": 40.748052,
        "longitude": -111.897666
      },
      "endLocation": {
        "latitude": 40.705034,
        "longitude": -111.826182
      },
      "startAddress": "283 Riley Drive Apt. 527",
      "endAddress": "0771 Burke Neck",
      "startCoords": {
        "latitude": 40.752682,
        "longitude": -111.903277
      },
      "endCoords": {
        "latitude": 40.770196,
        "longitude": -111.799791
      },
      "distanceMeters": 76630.3,
      "durationMs": 10046008,
      "drivingDurationMs": 8918749,
      "idlingDurationMs": 1127259,
      "fuelConsumedMl": 9744,
      "fuelConsumedGallons": 2.574,
      "maxSpeedMph": 45.5,
      "averageSpeedMph": 17.1,
      "safetyEvents": [],
      "_no_driver_login": false,
      "_fuel_note": ""
    },
    {
      "id": "trip_48291026_20250121_004",
      "vehicleId": "48291026",
      "driverId": "22831025",
      "startMs": 1737456480000,
      "endMs": 1737470845343,
      "startLocation": {
        "latitude": 40.667991,
        "longitude": -111.781343
      },
      "endLocation": {
        "latitude": 40.76078,
        "longitude": -111.901452
      },
      "startAddress": "2369 Travis Villages Apt. 324",
      "endAddress": "34177 Kathryn Summit",
      "startCoords": {
        "latitude": 40.708579,
        "longitude": -111.873023
      },
      "endCoords": {
        "latitude": 40.663518,
        "longitude": -111.946122
      },
      "distanceMeters": 80527.7,
      "durationMs": 14365344,
      "drivingDurationMs": 13646837,
      "idlingDurationMs": 718507,
      "fuelConsumedMl": 10240,
      "fuelConsumedGallons": 2.705,
      "maxSpeedMph": 48.5,
      "averageSpeedMph": 12.5,
      "safetyEvents": [],
      "_no_driver_login": false,
      "_fuel_note": ""
    },
    {
      "id": "trip_48291026_20250121_005",
      "vehicleId": "48291026",
      "driverId": "22831025",
      "startMs": 1737476520000,
      "endMs": 1737484957176,
      "startLocation": {
        "latitude": 40.737496,
        "longitude": -111.946719
      },
      "endLocation": {
        "latitude": 40.664321,
        "longitude": -111.89285
      },
      "startAddress": "170 Michael Heights",
      "endAddress": "609 Cody Terrace Suite 172",
      "startCoords": {
        "latitude": 40.721078,
        "longitude": -111.809967
      },
      "endCoords": {
        "latitude": 40.677674,
        "longitude": -111.953531
      },
      "distanceMeters": 70332.9,
      "durationMs": 8437177,
      "drivingDurationMs": 7964054,
      "idlingDurationMs": 473123,
      "fuelConsumedMl": 8941,
      "fuelConsumedGallons": 2.362,
      "maxSpeedMph": 45.6,
      "averageSpeedMph": 18.6,
      "safetyEvents": [],
      "_no_driver_login": false,
      "_fuel_note": ""
    },
    {
      "id": "trip_48291026_20250121_006",
      "vehicleId": "48291026",
      "driverId": "22831025",
      "startMs": 1737458160000,
      "endMs": 1737463246737,
      "startLocation": {
        "latitude": 40.758941,
        "longitude": -111.885018
      },
      "endLocation": {
        "latitude": 40.713746,
        "longitude": -111.832845
      },
      "startAddress": "840 Sean Bypass",
      "endAddress": "15211 Martinez Pike Suite 256",
      "startCoords": {
        "latitude": 40.7476,
        "longitude": -111.855829
      },
      "endCoords": {
        "latitude": 40.685097,
        "longitude": -111.931776
      },
      "distanceMeters": 36843.7,
      "durationMs": 5086738,
      "drivingDurationMs": 4506874,
      "idlingDurationMs": 579864,
      "fuelConsumedMl": 4683,
      "fuelConsumedGallons": 1.237,
      "maxSpeedMph": 61.5,
      "averageSpeedMph": 16.2,
      "safetyEvents": [],
      "_no_driver_login": false,
      "_fuel_note": ""
    },
    {
      "id": "trip_48291026_20250122_001",
      "vehicleId": "48291026",
      "driverId": "22831025",
      "startMs": 1737535020000,
      "endMs": 1737550385586,
      "startLocation": {
        "latitude": 40.758167,
        "longitude": -111.895379
      },
      "endLocation": {
        "latitude": 40.743053,
        "longitude": -111.893521
      },
      "startAddress": "7797 Hawkins Glens Apt. 852",
      "endAddress": "619 Scott Lodge",
      "startCoords": {
        "latitude": 40.697947,
        "longitude": -111.80033
      },
      "endCoords": {
        "latitude": 40.705071,
        "longitude": -111.954658
      },
      "distanceMeters": 83545.8,
      "durationMs": 15365587,
      "drivingDurationMs": 13451134,
      "idlingDurationMs": 1914452,
      "fuelConsumedMl": 10622,
      "fuelConsumedGallons": 2.806,
      "maxSpeedMph": 52.9,
      "averageSpeedMph": 12.2,
      "safetyEvents": [],
      "_no_driver_login": false,
      "_fuel_note": "QUIRK 5: fuelConsumedGallons is in US gallons. Multiply by 3.785 for litres. Samsara does not link fuel to specific Onfleet tasks."
    },
    {
      "id": "trip_48291026_20250122_002",
      "vehicleId": "48291026",
      "driverId": "22831025",
      "startMs": 1737543120000,
      "endMs": 1737549952868,
      "startLocation": {
        "latitude": 40.711082,
        "longitude": -111.885326
      },
      "endLocation": {
        "latitude": 40.709951,
        "longitude": -111.865357
      },
      "startAddress": "5768 Katrina River",
      "endAddress": "2824 Lisa Street Suite 868",
      "startCoords": {
        "latitude": 40.739539,
        "longitude": -111.854955
      },
      "endCoords": {
        "latitude": 40.748571,
        "longitude": -111.922273
      },
      "distanceMeters": 30281.3,
      "durationMs": 6832868,
      "drivingDurationMs": 5669723,
      "idlingDurationMs": 1163145,
      "fuelConsumedMl": 3850,
      "fuelConsumedGallons": 1.017,
      "maxSpeedMph": 29.0,
      "averageSpeedMph": 9.9,
      "safetyEvents": [],
      "_no_driver_login": false,
      "_fuel_note": ""
    },
    {
      "id": "trip_48291026_20250123_001",
      "vehicleId": "48291026",
      "driverId": "22831025",
      "startMs": 1737657720000,
      "endMs": 1737666000000,
      "startLocation": {
        "latitude": 40.795073,
        "longitude": -111.834644
      },
      "endLocation": {
        "latitude": 40.674929,
        "longitude": -111.950088
      },
      "startAddress": "59390 Brian Inlet",
      "endAddress": "7021 Cunningham Unions",
      "startCoords": {
        "latitude": 40.773534,
        "longitude": -111.931913
      },
      "endCoords": {
        "latitude": 40.678551,
        "longitude": -111.812507
      },
      "distanceMeters": 51658.5,
      "durationMs": 8280000,
      "drivingDurationMs": 6633841,
      "idlingDurationMs": 1646159,
      "fuelConsumedMl": 6568,
      "fuelConsumedGallons": 1.735,
      "maxSpeedMph": 70.4,
      "averageSpeedMph": 14.0,
      "safetyEvents": [
        {
          "type": "speeding",
          "startMs": 1737661500000,
          "maxSpeedMph": 70.4
        }
      ],
      "_no_driver_login": false,
      "_fuel_note": "QUIRK 5: fuelConsumedGallons is in US gallons. Multiply by 3.785 for litres. Samsara does not link fuel to specific Onfleet tasks."
    },
    {
      "id": "trip_48291026_20250123_002",
      "vehicleId": "48291026",
      "driverId": null,
      "startMs": 1737658260000,
      "endMs": 1737661699386,
      "startLocation": {
        "latitude": 40.689988,
        "longitude": -111.931953
      },
      "endLocation": {
        "latitude": 40.790318,
        "longitude": -111.866841
      },
      "startAddress": "8340 Andrew Mount",
      "endAddress": "0210 Silva Centers",
      "startCoords": {
        "latitude": 40.720112,
        "longitude": -111.814742
      },
      "endCoords": {
        "latitude": 40.756174,
        "longitude": -111.783717
      },
      "distanceMeters": 21986.4,
      "durationMs": 3439386,
      "drivingDurationMs": 3248525,
      "idlingDurationMs": 190862,
      "fuelConsumedMl": 2794,
      "fuelConsumedGallons": 0.738,
      "maxSpeedMph": 58.0,
      "averageSpeedMph": 14.3,
      "safetyEvents": [],
      "_no_driver_login": true,
      "_fuel_note": ""
    },
    {
      "id": "trip_48291026_20250123_003",
      "vehicleId": "48291026",
      "driverId": "22831025",
      "startMs": 1737624540000,
      "endMs": 1737635152629,
      "startLocation": {
        "latitude": 40.746992,
        "longitude": -111.906151
      },
      "endLocation": {
        "latitude": 40.670955,
        "longitude": -111.858471
      },
      "startAddress": "084 William Drive Apt. 353",
      "endAddress": "18727 Thompson Rest Apt. 317",
      "startCoords": {
        "latitude": 40.779712,
        "longitude": -111.892382
      },
      "endCoords": {
        "latitude": 40.660665,
        "longitude": -111.938226
      },
      "distanceMeters": 64409.4,
      "durationMs": 10612630,
      "drivingDurationMs": 9478669,
      "idlingDurationMs": 1133961,
      "fuelConsumedMl": 8188,
      "fuelConsumedGallons": 2.163,
      "maxSpeedMph": 60.6,
      "averageSpeedMph": 13.6,
      "safetyEvents": [],
      "_no_driver_login": false,
      "_fuel_note": ""
    },
    {
      "id": "trip_48291026_20250124_001",
      "vehicleId": "48291026",
      "driverId": "22831025",
      "startMs": 1737738120000,
      "endMs": 1737746501486,
      "startLocation": {
        "latitude": 40.787118,
        "longitude": -111.835769
      },
      "endLocation": {
        "latitude": 40.690877,
        "longitude": -111.779108
      },
      "startAddress": "6376 Alison Harbor Apt. 594",
      "endAddress": "3591 Michael Parkways",
      "startCoords": {
        "latitude": 40.663398,
        "longitude": -111.782254
      },
      "endCoords": {
        "latitude": 40.704283,
        "longitude": -111.947576
      },
      "distanceMeters": 51529.4,
      "durationMs": 8381487,
      "drivingDurationMs": 6764150,
      "idlingDurationMs": 1617337,
      "fuelConsumedMl": 6553,
      "fuelConsumedGallons": 1.731,
      "maxSpeedMph": 64.7,
      "averageSpeedMph": 13.8,
      "safetyEvents": [],
      "_no_driver_login": false,
      "_fuel_note": "QUIRK 5: fuelConsumedGallons is in US gallons. Multiply by 3.785 for litres. Samsara does not link fuel to specific Onfleet tasks."
    },
    {
      "id": "trip_48291026_20250124_002",
      "vehicleId": "48291026",
      "driverId": "22831025",
      "startMs": 1737741240000,
      "endMs": 1737750774098,
      "startLocation": {
        "latitude": 40.703268,
        "longitude": -111.809847
      },
      "endLocation": {
        "latitude": 40.67983,
        "longitude": -111.947055
      },
      "startAddress": "499 Henry Road",
      "endAddress": "273 Anderson Plaza Suite 359",
      "startCoords": {
        "latitude": 40.784227,
        "longitude": -111.871364
      },
      "endCoords": {
        "latitude": 40.756188,
        "longitude": -111.840855
      },
      "distanceMeters": 68197.7,
      "durationMs": 9534099,
      "drivingDurationMs": 8792168,
      "idlingDurationMs": 741930,
      "fuelConsumedMl": 8672,
      "fuelConsumedGallons": 2.291,
      "maxSpeedMph": 33.9,
      "averageSpeedMph": 16.0,
      "safetyEvents": [],
      "_no_driver_login": false,
      "_fuel_note": ""
    },
    {
      "id": "trip_48291026_20250124_003",
      "vehicleId": "48291026",
      "driverId": "22831025",
      "startMs": 1737716400000,
      "endMs": 1737723539791,
      "startLocation": {
        "latitude": 40.768182,
        "longitude": -111.790697
      },
      "endLocation": {
        "latitude": 40.709813,
        "longitude": -111.852546
      },
      "startAddress": "16933 Howard Route",
      "endAddress": "1432 Rosario Summit",
      "startCoords": {
        "latitude": 40.695515,
        "longitude": -111.903921
      },
      "endCoords": {
        "latitude": 40.783353,
        "longitude": -111.913173
      },
      "distanceMeters": 43548.1,
      "durationMs": 7139791,
      "drivingDurationMs": 6730690,
      "idlingDurationMs": 409101,
      "fuelConsumedMl": 5538,
      "fuelConsumedGallons": 1.463,
      "maxSpeedMph": 38.0,
      "averageSpeedMph": 13.6,
      "safetyEvents": [],
      "_no_driver_login": false,
      "_fuel_note": ""
    },
    {
      "id": "trip_48291026_20250125_001",
      "vehicleId": "48291026",
      "driverId": "22831025",
      "startMs": 1737796320000,
      "endMs": 1737799612335,
      "startLocation": {
        "latitude": 40.76357,
        "longitude": -111.950912
      },
      "endLocation": {
        "latitude": 40.77615,
        "longitude": -111.85859
      },
      "startAddress": "7912 Mike Isle",
      "endAddress": "3809 Wendy Lake Suite 902",
      "startCoords": {
        "latitude": 40.744421,
        "longitude": -111.805545
      },
      "endCoords": {
        "latitude": 40.740573,
        "longitude": -111.862076
      },
      "distanceMeters": 21803.2,
      "durationMs": 3292335,
      "drivingDurationMs": 2852845,
      "idlingDurationMs": 439490,
      "fuelConsumedMl": 2771,
      "fuelConsumedGallons": 0.732,
      "maxSpeedMph": 57.4,
      "averageSpeedMph": 14.8,
      "safetyEvents": [],
      "_no_driver_login": false,
      "_fuel_note": "QUIRK 5: fuelConsumedGallons is in US gallons. Multiply by 3.785 for litres. Samsara does not link fuel to specific Onfleet tasks."
    },
    {
      "id": "trip_48291026_20250125_002",
      "vehicleId": "48291026",
      "driverId": null,
      "startMs": 1737825660000,
      "endMs": 1737833556117,
      "startLocation": {
        "latitude": 40.79231,
        "longitude": -111.899093
      },
      "endLocation": {
        "latitude": 40.706577,
        "longitude": -111.88474
      },
      "startAddress": "041 Tammy Walk",
      "endAddress": "792 Erika Estate",
      "startCoords": {
        "latitude": 40.69565,
        "longitude": -111.905357
      },
      "endCoords": {
        "latitude": 40.778024,
        "longitude": -111.796636
      },
      "distanceMeters": 50479.1,
      "durationMs": 7896118,
      "drivingDurationMs": 7253648,
      "idlingDurationMs": 642470,
      "fuelConsumedMl": 6416,
      "fuelConsumedGallons": 1.695,
      "maxSpeedMph": 50.8,
      "averageSpeedMph": 14.3,
      "safetyEvents": [],
      "_no_driver_login": true,
      "_fuel_note": ""
    },
    {
      "id": "trip_48291026_20250126_001",
      "vehicleId": "48291026",
      "driverId": "22831025",
      "startMs": 1737892380000,
      "endMs": 1737902975521,
      "startLocation": {
        "latitude": 40.72801,
        "longitude": -111.882531
      },
      "endLocation": {
        "latitude": 40.677917,
        "longitude": -111.921158
      },
      "startAddress": "561 Jason Field Suite 301",
      "endAddress": "3395 Mcmillan Lakes",
      "startCoords": {
        "latitude": 40.718666,
        "longitude": -111.959704
      },
      "endCoords": {
        "latitude": 40.677396,
        "longitude": -111.908342
      },
      "distanceMeters": 55597.9,
      "durationMs": 10595521,
      "drivingDurationMs": 9689556,
      "idlingDurationMs": 905966,
      "fuelConsumedMl": 7067,
      "fuelConsumedGallons": 1.867,
      "maxSpeedMph": 40.3,
      "averageSpeedMph": 11.7,
      "safetyEvents": [],
      "_no_driver_login": false,
      "_fuel_note": "QUIRK 5: fuelConsumedGallons is in US gallons. Multiply by 3.785 for litres. Samsara does not link fuel to specific Onfleet tasks."
    },
    {
      "id": "trip_48291026_20250126_002",
      "vehicleId": "48291026",
      "driverId": "22831025",
      "startMs": 1737913020000,
      "endMs": 1737918270790,
      "startLocation": {
        "latitude": 40.701009,
        "longitude": -111.901316
      },
      "endLocation": {
        "latitude": 40.72624,
        "longitude": -111.84917
      },
      "startAddress": "8977 Garcia Mill Suite 514",
      "endAddress": "1009 Munoz Brook",
      "startCoords": {
        "latitude": 40.740345,
        "longitude": -111.816795
      },
      "endCoords": {
        "latitude": 40.728129,
        "longitude": -111.949343
      },
      "distanceMeters": 27048.8,
      "durationMs": 5250791,
      "drivingDurationMs": 4480757,
      "idlingDurationMs": 770034,
      "fuelConsumedMl": 3441,
      "fuelConsumedGallons": 0.909,
      "maxSpeedMph": 36.1,
      "averageSpeedMph": 11.5,
      "safetyEvents": [],
      "_no_driver_login": false,
      "_fuel_note": ""
    },
    {
      "id": "trip_48291026_20250126_003",
      "vehicleId": "48291026",
      "driverId": "22831025",
      "startMs": 1737904680000,
      "endMs": 1737911362720,
      "startLocation": {
        "latitude": 40.784174,
        "longitude": -111.922579
      },
      "endLocation": {
        "latitude": 40.737727,
        "longitude": -111.799846
      },
      "startAddress": "81366 Austin Lights Suite 102",
      "endAddress": "17451 Joseph Mount",
      "startCoords": {
        "latitude": 40.799873,
        "longitude": -111.777032
      },
      "endCoords": {
        "latitude": 40.701086,
        "longitude": -111.910879
      },
      "distanceMeters": 47280.4,
      "durationMs": 6682720,
      "drivingDurationMs": 5668329,
      "idlingDurationMs": 1014392,
      "fuelConsumedMl": 6011,
      "fuelConsumedGallons": 1.588,
      "maxSpeedMph": 59.6,
      "averageSpeedMph": 15.8,
      "safetyEvents": [],
      "_no_driver_login": false,
      "_fuel_note": ""
    },
    {
      "id": "trip_48291026_20250126_004",
      "vehicleId": "48291026",
      "driverId": "22831025",
      "startMs": 1737876180000,
      "endMs": 1737888049782,
      "startLocation": {
        "latitude": 40.66697,
        "longitude": -111.913349
      },
      "endLocation": {
        "latitude": 40.74684,
        "longitude": -111.900219
      },
      "startAddress": "01106 Aaron Avenue",
      "endAddress": "737 Paul Extensions Suite 555",
      "startCoords": {
        "latitude": 40.708572,
        "longitude": -111.830946
      },
      "endCoords": {
        "latitude": 40.712724,
        "longitude": -111.912432
      },
      "distanceMeters": 81258.2,
      "durationMs": 11869783,
      "drivingDurationMs": 10314154,
      "idlingDurationMs": 1555629,
      "fuelConsumedMl": 10330,
      "fuelConsumedGallons": 2.729,
      "maxSpeedMph": 48.2,
      "averageSpeedMph": 15.3,
      "safetyEvents": [],
      "_no_driver_login": false,
      "_fuel_note": ""
    },
    {
      "id": "trip_48291026_20250127_001",
      "vehicleId": "48291026",
      "driverId": "22831025",
      "startMs": 1737989520000,
      "endMs": 1737992853196,
      "startLocation": {
        "latitude": 40.738712,
        "longitude": -111.937285
      },
      "endLocation": {
        "latitude": 40.767237,
        "longitude": -111.925296
      },
      "startAddress": "82488 Christopher Harbor Suite 820",
      "endAddress": "18079 Mays Pass Apt. 065",
      "startCoords": {
        "latitude": 40.660819,
        "longitude": -111.838792
      },
      "endCoords": {
        "latitude": 40.790142,
        "longitude": -111.849254
      },
      "distanceMeters": 19119.1,
      "durationMs": 3333197,
      "drivingDurationMs": 3063504,
      "idlingDurationMs": 269692,
      "fuelConsumedMl": 2430,
      "fuelConsumedGallons": 0.642,
      "maxSpeedMph": 53.8,
      "averageSpeedMph": 12.8,
      "safetyEvents": [],
      "_no_driver_login": false,
      "_fuel_note": "QUIRK 5: fuelConsumedGallons is in US gallons. Multiply by 3.785 for litres. Samsara does not link fuel to specific Onfleet tasks."
    },
    {
      "id": "trip_48291026_20250127_002",
      "vehicleId": "48291026",
      "driverId": "22831025",
      "startMs": 1737961440000,
      "endMs": 1737965032637,
      "startLocation": {
        "latitude": 40.772567,
        "longitude": -111.80415
      },
      "endLocation": {
        "latitude": 40.67863,
        "longitude": -111.826521
      },
      "startAddress": "47957 Booth Cliffs Apt. 960",
      "endAddress": "13210 Soto Streets",
      "startCoords": {
        "latitude": 40.798819,
        "longitude": -111.943412
      },
      "endCoords": {
        "latitude": 40.73584,
        "longitude": -111.815422
      },
      "distanceMeters": 22462.9,
      "durationMs": 3592637,
      "drivingDurationMs": 2934267,
      "idlingDurationMs": 658371,
      "fuelConsumedMl": 2854,
      "fuelConsumedGallons": 0.754,
      "maxSpeedMph": 68.4,
      "averageSpeedMph": 14.0,
      "safetyEvents": [
        {
          "type": "speeding",
          "startMs": 1737962880000,
          "maxSpeedMph": 68.4
        }
      ],
      "_no_driver_login": false,
      "_fuel_note": ""
    },
    {
      "id": "trip_48291026_20250127_003",
      "vehicleId": "48291026",
      "driverId": "22831025",
      "startMs": 1737997500000,
      "endMs": 1737999191799,
      "startLocation": {
        "latitude": 40.682252,
        "longitude": -111.917112
      },
      "endLocation": {
        "latitude": 40.7369,
        "longitude": -111.866531
      },
      "startAddress": "47271 Danielle Hills",
      "endAddress": "94841 Cunningham Mews Apt. 502",
      "startCoords": {
        "latitude": 40.796972,
        "longitude": -111.784024
      },
      "endCoords": {
        "latitude": 40.765172,
        "longitude": -111.929769
      },
      "distanceMeters": 11966.0,
      "durationMs": 1691800,
      "drivingDurationMs": 1386611,
      "idlingDurationMs": 305189,
      "fuelConsumedMl": 1522,
      "fuelConsumedGallons": 0.402,
      "maxSpeedMph": 48.9,
      "averageSpeedMph": 15.8,
      "safetyEvents": [],
      "_no_driver_login": false,
      "_fuel_note": ""
    },
    {
      "id": "trip_48291026_20250128_001",
      "vehicleId": "48291026",
      "driverId": "22831025",
      "startMs": 1738079820000,
      "endMs": 1738084895588,
      "startLocation": {
        "latitude": 40.761507,
        "longitude": -111.852472
      },
      "endLocation": {
        "latitude": 40.736822,
        "longitude": -111.932716
      },
      "startAddress": "645 Ricardo Plaza Suite 051",
      "endAddress": "701 Cynthia Landing",
      "startCoords": {
        "latitude": 40.751703,
        "longitude": -111.935642
      },
      "endCoords": {
        "latitude": 40.672748,
        "longitude": -111.89915
      },
      "distanceMeters": 30922.9,
      "durationMs": 5075589,
      "drivingDurationMs": 4087699,
      "idlingDurationMs": 987890,
      "fuelConsumedMl": 3933,
      "fuelConsumedGallons": 1.039,
      "maxSpeedMph": 28.2,
      "averageSpeedMph": 13.6,
      "safetyEvents": [],
      "_no_driver_login": false,
      "_fuel_note": "QUIRK 5: fuelConsumedGallons is in US gallons. Multiply by 3.785 for litres. Samsara does not link fuel to specific Onfleet tasks."
    },
    {
      "id": "trip_48291026_20250128_002",
      "vehicleId": "48291026",
      "driverId": "22831025",
      "startMs": 1738061640000,
      "endMs": 1738071831947,
      "startLocation": {
        "latitude": 40.657798,
        "longitude": -111.917723
      },
      "endLocation": {
        "latitude": 40.756544,
        "longitude": -111.871906
      },
      "startAddress": "806 Julia Mission",
      "endAddress": "741 Timothy Square",
      "startCoords": {
        "latitude": 40.72505,
        "longitude": -111.838323
      },
      "endCoords": {
        "latitude": 40.70498,
        "longitude": -111.773836
      },
      "distanceMeters": 69844.1,
      "durationMs": 10191948,
      "drivingDurationMs": 8723514,
      "idlingDurationMs": 1468433,
      "fuelConsumedMl": 8881,
      "fuelConsumedGallons": 2.346,
      "maxSpeedMph": 59.9,
      "averageSpeedMph": 15.3,
      "safetyEvents": [],
      "_no_driver_login": false,
      "_fuel_note": ""
    },
    {
      "id": "trip_48291026_20250128_003",
      "vehicleId": "48291026",
      "driverId": "22831025",
      "startMs": 1738073640000,
      "endMs": 1738076410502,
      "startLocation": {
        "latitude": 40.797998,
        "longitude": -111.775711
      },
      "endLocation": {
        "latitude": 40.681837,
        "longitude": -111.888868
      },
      "startAddress": "23423 Douglas Ford",
      "endAddress": "701 Paul Terrace",
      "startCoords": {
        "latitude": 40.742235,
        "longitude": -111.823156
      },
      "endCoords": {
        "latitude": 40.697614,
        "longitude": -111.920771
      },
      "distanceMeters": 20473.6,
      "durationMs": 2770502,
      "drivingDurationMs": 2350084,
      "idlingDurationMs": 420418,
      "fuelConsumedMl": 2604,
      "fuelConsumedGallons": 0.688,
      "maxSpeedMph": 38.7,
      "averageSpeedMph": 16.5,
      "safetyEvents": [],
      "_no_driver_login": false,
      "_fuel_note": ""
    },
    {
      "id": "trip_48291026_20250128_004",
      "vehicleId": "48291026",
      "driverId": "22831025",
      "startMs": 1738059360000,
      "endMs": 1738066539859,
      "startLocation": {
        "latitude": 40.708222,
        "longitude": -111.861621
      },
      "endLocation": {
        "latitude": 40.780389,
        "longitude": -111.932689
      },
      "startAddress": "33423 King Station",
      "endAddress": "2239 Timothy Brook",
      "startCoords": {
        "latitude": 40.749448,
        "longitude": -111.91091
      },
      "endCoords": {
        "latitude": 40.737619,
        "longitude": -111.878083
      },
      "distanceMeters": 52459.5,
      "durationMs": 7179860,
      "drivingDurationMs": 6980805,
      "idlingDurationMs": 199055,
      "fuelConsumedMl": 6670,
      "fuelConsumedGallons": 1.762,
      "maxSpeedMph": 42.9,
      "averageSpeedMph": 16.3,
      "safetyEvents": [],
      "_no_driver_login": false,
      "_fuel_note": ""
    },
    {
      "id": "trip_48291026_20250128_005",
      "vehicleId": "48291026",
      "driverId": "22831025",
      "startMs": 1738089120000,
      "endMs": 1738098000000,
      "startLocation": {
        "latitude": 40.786111,
        "longitude": -111.776085
      },
      "endLocation": {
        "latitude": 40.676915,
        "longitude": -111.868443
      },
      "startAddress": "2943 Schultz Greens Apt. 279",
      "endAddress": "6290 Cooper Drives",
      "startCoords": {
        "latitude": 40.677734,
        "longitude": -111.932081
      },
      "endCoords": {
        "latitude": 40.706974,
        "longitude": -111.775101
      },