{
  "vehicleId": "41724318",
  "vehicleName": "DEN-VAN-03",
  "month": "2025_01",
  "pagination": {
    "endCursor": "trip_41724318_20250131_004",
    "hasNextPage": false
  },
  "trips": [
    {
      "id": "trip_41724318_20250101_001",
      "vehicleId": "41724318",
      "driverId": "20000021",
      "startMs": 1735737900000,
      "endMs": 1735748518466,
      "startAddress": "3039 Christopher Oval Apt. 822",
      "endAddress": "248 Brandt Plains Apt. 465",
      "startCoords": {
        "latitude": 39.761418,
        "longitude": -104.947103
      },
      "endCoords": {
        "latitude": 39.745484,
        "longitude": -104.977876
      },
      "distanceMeters": 75774.7,
      "durationMs": 10618467,
      "drivingDurationMs": 10103315,
      "idlingDurationMs": 515152,
      "fuelConsumedMl": 9634,
      "fuelConsumedGallons": 2.545,
      "maxSpeedMph": 34.1,
      "averageSpeedMph": 16.0,
      "safetyEvents": []
    },
    {
      "id": "trip_41724318_20250101_002",
      "vehicleId": "41724318",
      "driverId": "20000021",
      "startMs": 1735730040000,
      "endMs": 1735747330087,
      "startAddress": "713 Caleb Brooks Apt. 930",
      "endAddress": "031 Michele Cliffs",
      "startCoords": {
        "latitude": 39.705759,
        "longitude": -105.057603
      },
      "endCoords": {
        "latitude": 39.781815,
        "longitude": -104.975452
      },
      "distanceMeters": 84786.1,
      "durationMs": 17290088,
      "drivingDurationMs": 15309990,
      "idlingDurationMs": 1980098,
      "fuelConsumedMl": 10781,
      "fuelConsumedGallons": 2.848,
      "maxSpeedMph": 61.3,
      "averageSpeedMph": 11.0,
      "safetyEvents": []
    },
    {
      "id": "trip_41724318_20250101_003",
      "vehicleId": "41724318",
      "driverId": "20000021",
      "startMs": 1735734240000,
      "endMs": 1735742582963,
      "startAddress": "7382 Sanchez Mountains",
      "endAddress": "11656 Owens Stream Apt. 106",
      "startCoords": {
        "latitude": 39.781787,
        "longitude": -105.066155
      },
      "endCoords": {
        "latitude": 39.811265,
        "longitude": -104.946376
      },
      "distanceMeters": 52671.1,
      "durationMs": 8342963,
      "drivingDurationMs": 7722812,
      "idlingDurationMs": 620151,
      "fuelConsumedMl": 6696,
      "fuelConsumedGallons": 1.769,
      "maxSpeedMph": 52.3,
      "averageSpeedMph": 14.1,
      "safetyEvents": []
    },
    {
      "id": "trip_41724318_20250102_001",
      "vehicleId": "41724318",
      "driverId": null,
      "startMs": 1735798440000,
      "endMs": 1735801656951,
      "startAddress": "144 Juan Mill Suite 607",
      "endAddress": "326 Choi Divide",
      "startCoords": {
        "latitude": 39.694445,
        "longitude": -104.91349
      },
      "endCoords": {
        "latitude": 39.813358,
        "longitude": -104.981645
      },
      "distanceMeters": 21913.4,
      "durationMs": 3216952,
      "drivingDurationMs": 2616206,
      "idlingDurationMs": 600746,
      "fuelConsumedMl": 2786,
      "fuelConsumedGallons": 0.736,
      "maxSpeedMph": 48.9,
      "averageSpeedMph": 15.2,
      "safetyEvents": []
    },
    {
      "id": "trip_41724318_20250102_002",
      "vehicleId": "41724318",
      "driverId": "20000017",
      "startMs": 1735798260000,
      "endMs": 1735814073268,
      "startAddress": "508 David Avenue Suite 881",
      "endAddress": "53682 Jack Ridges Suite 312",
      "startCoords": {
        "latitude": 39.786461,
        "longitude": -105.012744
      },
      "endCoords": {
        "latitude": 39.694818,
        "longitude": -105.057139
      },
      "distanceMeters": 79301.3,
      "durationMs": 15813269,
      "drivingDurationMs": 12743268,
      "idlingDurationMs": 3070001,
      "fuelConsumedMl": 10084,
      "fuelConsumedGallons": 2.664,
      "maxSpeedMph": 53.8,
      "averageSpeedMph": 11.2,
      "safetyEvents": []
    },
    {
      "id": "trip_41724318_20250103_001",
      "vehicleId": "41724318",
      "driverId": "20000016",
      "startMs": 1735920360000,
      "endMs": 1735927566609,
      "startAddress": "912 Potter Rue Suite 787",
      "endAddress": "5877 Adams Locks",
      "startCoords": {
        "latitude": 39.720876,
        "longitude": -105.083984
      },
      "endCoords": {
        "latitude": 39.701204,
        "longitude": -104.924448
      },
      "distanceMeters": 40988.4,
      "durationMs": 7206610,
      "drivingDurationMs": 6504604,
      "idlingDurationMs": 702006,
      "fuelConsumedMl": 5213,
      "fuelConsumedGallons": 1.377,
      "maxSpeedMph": 52.7,
      "averageSpeedMph": 12.7,
      "safetyEvents": []
    },
    {
      "id": "trip_41724318_20250103_002",
      "vehicleId": "41724318",
      "driverId": "20000016",
      "startMs": 1735917120000,
      "endMs": 1735924912844,
      "startAddress": "33736 Kevin Lane",
      "endAddress": "4812 Kenneth Path",
      "startCoords": {
        "latitude": 39.730588,
        "longitude": -104.991634
      },
      "endCoords": {
        "latitude": 39.795403,
        "longitude": -105.00359
      },
      "distanceMeters": 51148.3,
      "durationMs": 7792844,
      "drivingDurationMs": 6795080,
      "idlingDurationMs": 997764,
      "fuelConsumedMl": 6503,
      "fuelConsumedGallons": 1.718,
      "maxSpeedMph": 71.1,
      "averageSpeedMph": 14.7,
      "safetyEvents": [
        {
          "type": "speeding",
          "startMs": 1735917840000,
          "maxSpeedMph": 71.1
        }
      ]
    },
    {
      "id": "trip_41724318_20250103_003",
      "vehicleId": "41724318",
      "driverId": "20000016",
      "startMs": 1735907940000,
      "endMs": 1735911974082,
      "startAddress": "90789 Simmons Mountain Suite 657",
      "endAddress": "6027 Joseph Club Suite 148",
      "startCoords": {
        "latitude": 39.73236,
        "longitude": -104.96889
      },
      "endCoords": {
        "latitude": 39.766126,
        "longitude": -104.927925
      },
      "distanceMeters": 27921.9,
      "durationMs": 4034083,
      "drivingDurationMs": 3744557,
      "idlingDurationMs": 289526,
      "fuelConsumedMl": 3551,
      "fuelConsumedGallons": 0.938,
      "maxSpeedMph": 35.4,
      "averageSpeedMph": 15.5,
      "safetyEvents": []
    },
    {
      "id": "trip_41724318_20250103_004",
      "vehicleId": "41724318",
      "driverId": "20000016",
      "startMs": 1735887900000,
      "endMs": 1735891315138,
      "startAddress": "3111 Johnson Flats",
      "endAddress": "54443 Yesenia Terrace Suite 044",
      "startCoords": {
        "latitude": 39.77665,
        "longitude": -105.036659
      },
      "endCoords": {
        "latitude": 39.747857,
        "longitude": -104.925307
      },
      "distanceMeters": 17960.0,
      "durationMs": 3415139,
      "drivingDurationMs": 3050516,
      "idlingDurationMs": 364622,
      "fuelConsumedMl": 2283,
      "fuelConsumedGallons": 0.603,
      "maxSpeedMph": 40.8,
      "averageSpeedMph": 11.8,
      "safetyEvents": []
    },
    {
      "id": "trip_41724318_20250104_001",
      "vehicleId": "41724318",
      "driverId": "20000006",
      "startMs": 1735972980000,
      "endMs": 1735982174667,
      "startAddress": "836 White Summit",
      "endAddress": "75830 Murphy Land",
      "startCoords": {
        "latitude": 39.704394,
        "longitude": -105.012306
      },
      "endCoords": {
        "latitude": 39.768853,
        "longitude": -105.06857
      },
      "distanceMeters": 44331.9,
      "durationMs": 9194668,
      "drivingDurationMs": 8195943,
      "idlingDurationMs": 998725,
      "fuelConsumedMl": 5636,
      "fuelConsumedGallons": 1.489,
      "maxSpeedMph": 57.0,
      "averageSpeedMph": 10.8,
      "safetyEvents": []
    },
    {
      "id": "trip_41724318_20250104_002",
      "vehicleId": "41724318",
      "driverId": "20000006",
      "startMs": 1735977840000,
      "endMs": 1735984184591,
      "startAddress": "094 Deborah Row Suite 604",
      "endAddress": "090 Osborn Roads Suite 727",
      "startCoords": {
        "latitude": 39.717295,
        "longitude": -105.007773
      },
      "endCoords": {
        "latitude": 39.755672,
        "longitude": -104.943752
      },
      "distanceMeters": 34096.8,
      "durationMs": 6344592,
      "drivingDurationMs": 5905000,
      "idlingDurationMs": 439592,
      "fuelConsumedMl": 4334,
      "fuelConsumedGallons": 1.145,
      "maxSpeedMph": 65.1,
      "averageSpeedMph": 12.0,
      "safetyEvents": [
        {
          "type": "speeding",
          "startMs": 1735983840000,
          "maxSpeedMph": 65.1
        }
      ]
    },
    {
      "id": "trip_41724318_20250104_003",
      "vehicleId": "41724318",
      "driverId": "20000006",
      "startMs": 1736005020000,
      "endMs": 1736008944905,
      "startAddress": "50922 Christopher Village",
      "endAddress": "70518 Lucero Fields",
      "startCoords": {
        "latitude": 39.770671,
        "longitude": -105.011587
      },
      "endCoords": {
        "latitude": 39.753571,
        "longitude": -105.035221
      },
      "distanceMeters": 26837.8,
      "durationMs": 3924906,
      "drivingDurationMs": 3325526,
      "idlingDurationMs": 599380,
      "fuelConsumedMl": 3411,
      "fuelConsumedGallons": 0.901,
      "maxSpeedMph": 45.6,
      "averageSpeedMph": 15.3,
      "safetyEvents": []
    },
    {
      "id": "trip_41724318_20250105_001",
      "vehicleId": "41724318",
      "driverId": "20000002",
      "startMs": 1736094240000,
      "endMs": 1736105051382,
      "startAddress": "75957 Ray Plaza",
      "endAddress": "582 Drake Tunnel Apt. 306",
      "startCoords": {
        "latitude": 39.774676,
        "longitude": -104.96039
      },
      "endCoords": {
        "latitude": 39.784264,
        "longitude": -104.966243
      },
      "distanceMeters": 79121.5,
      "durationMs": 10811383,
      "drivingDurationMs": 10065175,
      "idlingDurationMs": 746208,
      "fuelConsumedMl": 10062,
      "fuelConsumedGallons": 2.658,
      "maxSpeedMph": 29.5,
      "averageSpeedMph": 16.4,
      "safetyEvents": []
    },
    {
      "id": "trip_41724318_20250105_002",
      "vehicleId": "41724318",
      "driverId": "20000002",
      "startMs": 1736073480000,
      "endMs": 1736079376326,
      "startAddress": "5847 Williams Ramp Suite 412",
      "endAddress": "37218 Gutierrez Locks",
      "startCoords": {
        "latitude": 39.805028,
        "longitude": -105.085395
      },
      "endCoords": {
        "latitude": 39.794859,
        "longitude": -104.966419
      },
      "distanceMeters": 41437.7,
      "durationMs": 5896326,
      "drivingDurationMs": 5417685,
      "idlingDurationMs": 478641,
      "fuelConsumedMl": 5269,
      "fuelConsumedGallons": 1.392,
      "maxSpeedMph": 54.5,
      "averageSpeedMph": 15.7,
      "safetyEvents": []
    },
    {
      "id": "trip_41724318_20250105_003",
      "vehicleId": "41724318",
      "driverId": "20000002",
      "startMs": 1736079900000,
      "endMs": 1736087202336,
      "startAddress": "541 Francisco Orchard Apt. 506",
      "endAddress": "2670 Pace Crest Suite 377",
      "startCoords": {
        "latitude": 39.70763,
        "longitude": -105.007365
      },
      "endCoords": {
        "latitude": 39.783452,
        "longitude": -104.993478
      },
      "distanceMeters": 61485.6,
      "durationMs": 7302337,
      "drivingDurationMs": 6996265,
      "idlingDurationMs": 306072,
      "fuelConsumedMl": 7817,
      "fuelConsumedGallons": 2.065,
      "maxSpeedMph": 68.0,
      "averageSpeedMph": 18.8,
      "safetyEvents": [
        {
          "type": "speeding",
          "startMs": 1736084100000,
          "maxSpeedMph": 68.0
        }
      ]
    },
    {
      "id": "trip_41724318_20250106_001",
      "vehicleId": "41724318",
      "driverId": "20000001",
      "startMs": 1736166600000,
      "endMs": 1736171507319,
      "startAddress": "5611 Peck Square Suite 288",
      "endAddress": "050 Young Locks Suite 608",
      "startCoords": {
        "latitude": 39.75742,
        "longitude": -105.040759
      },
      "endCoords": {
        "latitude": 39.794247,
        "longitude": -104.925051
      },
      "distanceMeters": 28157.3,
      "durationMs": 4907319,
      "drivingDurationMs": 4086858,
      "idlingDurationMs": 820461,
      "fuelConsumedMl": 3581,
      "fuelConsumedGallons": 0.946,
      "maxSpeedMph": 38.9,
      "averageSpeedMph": 12.8,
      "safetyEvents": []
    },
    {
      "id": "trip_41724318_20250106_002",
      "vehicleId": "41724318",
      "driverId": "20000001",
      "startMs": 1736183700000,
      "endMs": 1736193573475,
      "startAddress": "26003 Abigail Ford",
      "endAddress": "6910 Moore Motorway Apt. 531",
      "startCoords": {
        "latitude": 39.789019,
        "longitude": -104.972687
      },
      "endCoords": {
        "latitude": 39.710923,
        "longitude": -104.926801
      },
      "distanceMeters": 58306.4,
      "durationMs": 9873476,
      "drivingDurationMs": 8742969,
      "idlingDurationMs": 1130507,
      "fuelConsumedMl": 7412,
      "fuelConsumedGallons": 1.958,
      "maxSpeedMph": 62.4,
      "averageSpeedMph": 13.2,
      "safetyEvents": []
    },
    {
      "id": "trip_41724318_20250106_003",
      "vehicleId": "41724318",
      "driverId": "20000001",
      "startMs": 1736181600000,
      "endMs": 1736185107870,
      "startAddress": "45506 Ryan Coves",
      "endAddress": "768 Christine Pine Suite 401",
      "startCoords": {
        "latitude": 39.704803,
        "longitude": -105.084393
      },
      "endCoords": {
        "latitude": 39.712505,
        "longitude": -104.925016
      },
      "distanceMeters": 16898.1,
      "durationMs": 3507870,
      "drivingDurationMs": 3090100,
      "idlingDurationMs": 417770,
      "fuelConsumedMl": 2150,
      "fuelConsumedGallons": 0.568,
      "maxSpeedMph": 40.0,
      "averageSpeedMph": 10.8,
      "safetyEvents": []
    },
    {
      "id": "trip_41724318_20250106_004",
      "vehicleId": "41724318",
      "driverId": "20000001",
      "startMs": 1736166360000,
      "endMs": 1736173940270,
      "startAddress": "8087 Matthew Freeway",
      "endAddress": "882 Williams Fort Suite 910",
      "startCoords": {
        "latitude": 39.692571,
        "longitude": -105.007327
      },
      "endCoords": {
        "latitude": 39.691174,
        "longitude": -105.067001
      },
      "distanceMeters": 46997.7,
      "durationMs": 7580271,
      "drivingDurationMs": 6085546,
      "idlingDurationMs": 1494725,
      "fuelConsumedMl": 5977,
      "fuelConsumedGallons": 1.579,
      "maxSpeedMph": 37.8,
      "averageSpeedMph": 13.9,
      "safetyEvents": []
    },
    {
      "id": "trip_41724318_20250106_005",
      "vehicleId": "41724318",
      "driverId": "20000001",
      "startMs": 1736162220000,
      "endMs": 1736173351217,
      "startAddress": "570 William Port",
      "endAddress": "4920 Braun Prairie",
      "startCoords": {
        "latitude": 39.683805,
        "longitude": -104.963401
      },
      "endCoords": {
        "latitude": 39.73009,
        "longitude": -105.034011
      },
      "distanceMeters": 80439.9,
      "durationMs": 11131218,
      "drivingDurationMs": 10356254,
      "idlingDurationMs": 774963,
      "fuelConsumedMl": 10228,
      "fuelConsumedGallons": 2.702,
      "maxSpeedMph": 67.4,
      "averageSpeedMph": 16.2,
      "safetyEvents": [
        {
          "type": "speeding",
          "startMs": 1736166600000,
          "maxSpeedMph": 67.4
        }
      ]
    },
    {
      "id": "trip_41724318_20250106_006",
      "vehicleId": "41724318",
      "driverId": "20000001",
      "startMs": 1736175960000,
      "endMs": 1736183461787,
      "startAddress": "9996 Kane Shoals",
      "endAddress": "997 Pamela Hill Apt. 859",
      "startCoords": {
        "latitude": 39.780153,
        "longitude": -104.95916
      },
      "endCoords": {
        "latitude": 39.794786,
        "longitude": -105.063189
      },
      "distanceMeters": 39472.6,
      "durationMs": 7501787,
      "drivingDurationMs": 6599641,
      "idlingDurationMs": 902147,
      "fuelConsumedMl": 5019,
      "fuelConsumedGallons": 1.326,
      "maxSpeedMph": 42.7,
      "averageSpeedMph": 11.8,
      "safetyEvents": []
    },
    {
      "id": "trip_41724318_20250107_001",
      "vehicleId": "41724318",
      "driverId": "20000017",
      "startMs": 1736231880000,
      "endMs": 1736236088224,
      "startAddress": "8625 Lawrence Crossing",
      "endAddress": "465 Sara Stream Apt. 780",
      "startCoords": {
        "latitude": 39.785244,
        "longitude": -105.036108
      },
      "endCoords": {
        "latitude": 39.691977,
        "longitude": -104.980013
      },
      "distanceMeters": 26842.2,
      "durationMs": 4208224,
      "drivingDurationMs": 3570889,
      "idlingDurationMs": 637335,
      "fuelConsumedMl": 3414,
      "fuelConsumedGallons": 0.902,
      "maxSpeedMph": 45.5,
      "averageSpeedMph": 14.3,
      "safetyEvents": []
    },
    {
      "id": "trip_41724318_20250107_002",
      "vehicleId": "41724318",
      "driverId": "20000017",
      "startMs": 1736232900000,
      "endMs": 1736243500184,
      "startAddress": "915 Jennings Field",
      "endAddress": "6717 Newton Estates Suite 914",
      "startCoords": {
        "latitude": 39.791827,
        "longitude": -104.965826
      },
      "endCoords": {
        "latitude": 39.762371,
        "longitude": -105.068162
      },
      "distanceMeters": 62442.4,
      "durationMs": 10600184,
      "drivingDurationMs": 9141128,
      "idlingDurationMs": 1459056,
      "fuelConsumedMl": 7938,
      "fuelConsumedGallons": 2.097,
      "maxSpeedMph": 48.0,
      "averageSpeedMph": 13.2,
      "safetyEvents": []
    },
    {
      "id": "trip_41724318_20250107_003",
      "vehicleId": "41724318",
      "driverId": "20000017",
      "startMs": 1736247660000,
      "endMs": 1736255889705,
      "startAddress": "62999 Oneal Roads",
      "endAddress": "5099 Hannah Creek Apt. 898",
      "startCoords": {
        "latitude": 39.695667,
        "longitude": -104.930717
      },
      "endCoords": {
        "latitude": 39.700943,
        "longitude": -105.004258
      },
      "distanceMeters": 54033.6,
      "durationMs": 8229706,
      "drivingDurationMs": 6950572,
      "idlingDurationMs": 1279134,
      "fuelConsumedMl": 6871,
      "fuelConsumedGallons": 1.815,
      "maxSpeedMph": 35.8,
      "averageSpeedMph": 14.7,
      "safetyEvents": []
    },
    {
      "id": "trip_41724318_20250107_004",
      "vehicleId": "41724318",
      "driverId": "20000017",
      "startMs": 1736269380000,
      "endMs": 1736273376263,
      "startAddress": "3908 Marissa Spur Suite 211",
      "endAddress": "844 Debra Loaf Suite 884",
      "startCoords": {
        "latitude": 39.790028,
        "longitude": -105.025098
      },
      "endCoords": {
        "latitude": 39.780591,
        "longitude": -104.918369
      },
      "distanceMeters": 30138.9,
      "durationMs": 3996263,
      "drivingDurationMs": 3615410,
      "idlingDurationMs": 380853,
      "fuelConsumedMl": 3831,
      "fuelConsumedGallons": 1.012,
      "maxSpeedMph": 65.5,
      "averageSpeedMph": 16.9,
      "safetyEvents": [
        {
          "type": "speeding",
          "startMs": 1736272920000,
          "maxSpeedMph": 65.5
        }
      ]
    },
    {
      "id": "trip_41724318_20250108_001",
      "vehicleId": "41724318",
      "driverId": "20000020",
      "startMs": 1736335740000,
      "endMs": 1736346705893,
      "startAddress": "5673 Shaun Groves",
      "endAddress": "0165 Sean Course Apt. 681",
      "startCoords": {
        "latitude": 39.761676,
        "longitude": -105.027348
      },
      "endCoords": {
        "latitude": 39.775881,
        "longitude": -105.011106
      },
      "distanceMeters": 70657.1,
      "durationMs": 10965894,
      "drivingDurationMs": 9926749,
      "idlingDurationMs": 1039145,
      "fuelConsumedMl": 8983,
      "fuelConsumedGallons": 2.373,
      "maxSpeedMph": 67.7,
      "averageSpeedMph": 14.4,
      "safetyEvents": [
        {
          "type": "speeding",
          "startMs": 1736344740000,
          "maxSpeedMph": 67.7
        }
      ]
    },
    {
      "id": "trip_41724318_20250108_002",
      "vehicleId": "41724318",
      "driverId": "20000020",
      "startMs": 1736338980000,
      "endMs": 1736346271202,
      "startAddress": "802 Robinson Brooks Suite 376",
      "endAddress": "964 Turner Trail",
      "startCoords": {
        "latitude": 39.755009,
        "longitude": -104.985644
      },
      "endCoords": {
        "latitude": 39.735667,
        "longitude": -105.006454
      },
      "distanceMeters": 42398.7,
      "durationMs": 7291203,
      "drivingDurationMs": 6675763,
      "idlingDurationMs": 615440,
      "fuelConsumedMl": 5390,
      "fuelConsumedGallons": 1.424,
      "maxSpeedMph": 63.8,
      "averageSpeedMph": 13.0,
      "safetyEvents": []
    },
    {
      "id": "trip_41724318_20250109_001",
      "vehicleId": "41724318",
      "driverId": "20000017",
      "startMs": 1736430660000,
      "endMs": 1736445461791,
      "startAddress": "51602 Lorraine Islands Apt. 071",
      "endAddress": "5870 Walters Square Apt. 422",
      "startCoords": {
        "latitude": 39.717642,
        "longitude": -104.985324
      },
      "endCoords": {
        "latitude": 39.748244,
        "longitude": -104.997816
      },
      "distanceMeters": 65094.0,
      "durationMs": 14801792,
      "drivingDurationMs": 12666114,
      "idlingDurationMs": 2135677,
      "fuelConsumedMl": 8275,
      "fuelConsumedGallons": 2.186,
      "maxSpeedMph": 32.0,
      "averageSpeedMph": 9.8,
      "safetyEvents": []
    },
    {
      "id": "trip_41724318_20250109_002",
      "vehicleId": "41724318",
      "driverId": "20000017",
      "startMs": 1736434140000,
      "endMs": 1736451980760,
      "startAddress": "6411 Nathan Landing Apt. 253",
      "endAddress": "8191 Lynn Street",
      "startCoords": {
        "latitude": 39.69497,
        "longitude": -104.972137
      },
      "endCoords": {
        "latitude": 39.787426,
        "longitude": -104.962787
      },
      "distanceMeters": 82768.8,
      "durationMs": 17840761,
      "drivingDurationMs": 14454162,
      "idlingDurationMs": 3386598,
      "fuelConsumedMl": 10523,
      "fuelConsumedGallons": 2.78,
      "maxSpeedMph": 47.9,
      "averageSpeedMph": 10.4,
      "safetyEvents": []
    },
    {
      "id": "trip_41724318_20250109_003",
      "vehicleId": "41724318",
      "driverId": "20000017",
      "startMs": 1736429460000,
      "endMs": 1736438382264,
      "startAddress": "53494 Christina Well Suite 157",
      "endAddress": "7166 Glenn Passage Apt. 463",
      "startCoords": {
        "latitude": 39.746642,
        "longitude": -104.994122
      },
      "endCoords": {
        "latitude": 39.805603,
        "longitude": -104.930156
      },
      "distanceMeters": 53834.6,
      "durationMs": 8922265,
      "drivingDurationMs": 7784998,
      "idlingDurationMs": 1137266,
      "fuelConsumedMl": 6844,
      "fuelConsumedGallons": 1.808,
      "maxSpeedMph": 65.7,
      "averageSpeedMph": 13.5,
      "safetyEvents": [
        {
          "type": "speeding",
          "startMs": 1736431560000,
          "maxSpeedMph": 65.7
        }
      ]
    },
    {
      "id": "trip_41724318_20250109_004",
      "vehicleId": "41724318",
      "driverId": "20000017",
      "startMs": 1736422380000,
      "endMs": 1736431200232,
      "startAddress": "1621 Snow Stravenue",
      "endAddress": "52007 Ayers Island Apt. 420",
      "startCoords": {
        "latitude": 39.781971,
        "longitude": -105.087594
      },
      "endCoords": {
        "latitude": 39.776492,
        "longitude": -104.959277
      },
      "distanceMeters": 51144.3,
      "durationMs": 8820232,
      "drivingDurationMs": 7390000,
      "idlingDurationMs": 1430232,
      "fuelConsumedMl": 6503,
      "fuelConsumedGallons": 1.718,
      "maxSpeedMph": 62.8,
      "averageSpeedMph": 13.0,
      "safetyEvents": []
    },
    {
      "id": "trip_41724318_20250109_005",
      "vehicleId": "41724318",
      "driverId": "20000017",
      "startMs": 1736446500000,
      "endMs": 1736451986440,
      "startAddress": "868 Contreras Manor Suite 714",
      "endAddress": "360 Julie Ramp",
      "startCoords": {
        "latitude": 39.792639,
        "longitude": -105.014277
      },
      "endCoords": {
        "latitude": 39.78862,
        "longitude": -105.025247
      },
      "distanceMeters": 34494.5,
      "durationMs": 5486441,
      "drivingDurationMs": 4477052,
      "idlingDurationMs": 1009389,
      "fuelConsumedMl": 4387,
      "fuelConsumedGallons": 1.159,
      "maxSpeedMph": 57.2,
      "averageSpeedMph": 14.1,
      "safetyEvents": []
    },
    {
      "id": "trip_41724318_20250109_006",
      "vehicleId": "41724318",
      "driverId": "20000017",
      "startMs": 1736429760000,
      "endMs": 1736431013036,
      "startAddress": "01461 Jessica Rapid",
      "endAddress": "8888 Amanda Fords",
      "startCoords": {
        "latitude": 39.791328,
        "longitude": -104.927251
      },
      "endCoords": {
        "latitude": 39.722405,
        "longitude": -105.053354
      },
      "distanceMeters": 8065.3,
      "durationMs": 1253037,
      "drivingDurationMs": 1058813,
      "idlingDurationMs": 194223,
      "fuelConsumedMl": 1026,
      "fuelConsumedGallons": 0.271,
      "maxSpeedMph": 67.6,
      "averageSpeedMph": 14.4,
      "safetyEvents": [
        {
          "type": "speeding",
          "startMs": 1736430840000,
          "maxSpeedMph": 67.6
        }
      ]
    },
    {
      "id": "trip_41724318_20250110_001",
      "vehicleId": "41724318",
      "driverId": "20000012",
      "startMs": 1736526780000,
      "endMs": 1736537740560,
      "startAddress": "228 David Falls Apt. 193",
      "endAddress": "278 Farmer Dale Suite 439",
      "startCoords": {
        "latitude": 39.795924,
        "longitude": -105.01423
      },
      "endCoords": {
        "latitude": 39.783163,
        "longitude": -104.960633
      },
      "distanceMeters": 44960.7,
      "durationMs": 10960561,
      "drivingDurationMs": 8800548,
      "idlingDurationMs": 2160013,
      "fuelConsumedMl": 5716,
      "fuelConsumedGallons": 1.51,
      "maxSpeedMph": 39.8,
      "averageSpeedMph": 9.2,
      "safetyEvents": []
    },
    {
      "id": "trip_41724318_20250110_002",
      "vehicleId": "41724318",
      "driverId": "20000012",
      "startMs": 1736515260000,
      "endMs": 1736527644424,
      "startAddress": "04596 Eileen Camp",
      "endAddress": "6048 Hinton Court Apt. 344",
      "startCoords": {
        "latitude": 39.787763,
        "longitude": -104.91026
      },
      "endCoords": {
        "latitude": 39.815791,
        "longitude": -105.024564
      },
      "distanceMeters": 68685.3,
      "durationMs": 12384424,
      "drivingDurationMs": 10468867,
      "idlingDurationMs": 1915557,
      "fuelConsumedMl": 8733,
      "fuelConsumedGallons": 2.307,
      "maxSpeedMph": 59.7,
      "averageSpeedMph": 12.4,
      "safetyEvents": []
    },
    {
      "id": "trip_41724318_20250111_001",
      "vehicleId": "41724318",
      "driverId": "20000004",
      "startMs": 1736613900000,
      "endMs": 1736621643700,
      "startAddress": "14144 Jonathan Bridge",
      "endAddress": "72386 Jennifer Knoll Suite 285",
      "startCoords": {
        "latitude": 39.719631,
        "longitude": -104.926367
      },
      "endCoords": {
        "latitude": 39.745571,
        "longitude": -105.029982
      },
      "distanceMeters": 53996.7,
      "durationMs": 7743701,
      "drivingDurationMs": 6740804,
      "idlingDurationMs": 1002896,
      "fuelConsumedMl": 6867,
      "fuelConsumedGallons": 1.814,
      "maxSpeedMph": 31.5,
      "averageSpeedMph": 15.6,
      "safetyEvents": []
    },
    {
      "id": "trip_41724318_20250112_001",
      "vehicleId": "41724318",
      "driverId": "20000007",
      "startMs": 1736682660000,
      "endMs": 1736697138173,
      "startAddress": "8813 Jerry Road Suite 691",
      "endAddress": "150 Parker Islands",
      "startCoords": {
        "latitude": 39.781875,
        "longitude": -105.074946
      },
      "endCoords": {
        "latitude": 39.716939,
        "longitude": -104.95109
      },
      "distanceMeters": 84544.4,
      "durationMs": 14478173,
      "drivingDurationMs": 13162298,
      "idlingDurationMs": 1315876,
      "fuelConsumedMl": 10751,
      "fuelConsumedGallons": 2.84,
      "maxSpeedMph": 31.1,
      "averageSpeedMph": 13.1,
      "safetyEvents": []
    },
    {
      "id": "trip_41724318_20250112_002",
      "vehicleId": "41724318",
      "driverId": "20000007",
      "startMs": 1736666820000,
      "endMs": 1736676150177,
      "startAddress": "6257 Daniel Way Suite 361",
      "endAddress": "6987 Jackson Way",
      "startCoords": {
        "latitude": 39.692642,
        "longitude": -105.063445
      },
      "endCoords": {
        "latitude": 39.72058,
        "longitude": -105.07359
      },
      "distanceMeters": 44764.0,
      "durationMs": 9330178,
      "drivingDurationMs": 8343520,
      "idlingDurationMs": 986658,
      "fuelConsumedMl": 5693,
      "fuelConsumedGallons": 1.504,
      "maxSpeedMph": 43.3,
      "averageSpeedMph": 10.7,
      "safetyEvents": []
    },
    {
      "id": "trip_41724318_20250113_001",
      "vehicleId": "41724318",
      "driverId": "20000021",
      "startMs": 1736753580000,
      "endMs": 1736760784028,
      "startAddress": "5657 Madison Mission Suite 420",
      "endAddress": "0515 Barnes Union Suite 092",
      "startCoords": {
        "latitude": 39.802239,
        "longitude": -105.038135
      },
      "endCoords": {
        "latitude": 39.728583,
        "longitude": -104.902898
      },
      "distanceMeters": 43275.3,
      "durationMs": 7204029,
      "drivingDurationMs": 5890231,
      "idlingDurationMs": 1313798,
      "fuelConsumedMl": 5504,
      "fuelConsumedGallons": 1.454,
      "maxSpeedMph": 37.8,
      "averageSpeedMph": 13.4,
      "safetyEvents": []
    },
    {
      "id": "trip_41724318_20250113_002",
      "vehicleId": "41724318",
      "driverId": "20000021",
      "startMs": 1736777580000,
      "endMs": 1736780313627,
      "startAddress": "67599 Austin Burg",
      "endAddress": "41405 Paul Neck",
      "startCoords": {
        "latitude": 39.777624,
        "longitude": -104.955659
      },
      "endCoords": {
        "latitude": 39.792203,
        "longitude": -104.91149
      },
      "distanceMeters": 13373.7,
      "durationMs": 2733627,
      "drivingDurationMs": 2524799,
      "idlingDurationMs": 208828,
      "fuelConsumedMl": 1700,
      "fuelConsumedGallons": 0.449,
      "maxSpeedMph": 67.1,
      "averageSpeedMph": 10.9,
      "safetyEvents": [
        {
          "type": "speeding",
          "startMs": 1736780160000,
          "maxSpeedMph": 67.1
        }
      ]
    },
    {
      "id": "trip_41724318_20250113_003",
      "vehicleId": "41724318",
      "driverId": "20000021",
      "startMs": 1736792400000,
      "endMs": 1736802000000,
      "startAddress": "144 Howard Path",
      "endAddress": "00040 Kelly Loop Suite 549",
      "startCoords": {
        "latitude": 39.791844,
        "longitude": -104.933527
      },
      "endCoords": {
        "latitude": 39.795648,
        "longitude": -104.974449
      },
      "distanceMeters": 45140.1,
      "durationMs": 9600000,
      "drivingDurationMs": 7820865,
      "idlingDurationMs": 1779135,
      "fuelConsumedMl": 5739,
      "fuelConsumedGallons": 1.516,
      "maxSpeedMph": 47.5,
      "averageSpeedMph": 10.5,
      "safetyEvents": []
    },
    {
      "id": "trip_41724318_20250114_001",
      "vehicleId": "41724318",
      "driverId": "20000018",
      "startMs": 1736876580000,
      "endMs": 1736883249413,
      "startAddress": "009 Kimberly Street Apt. 195",
      "endAddress": "8730 Cohen Prairie",
      "startCoords": {
        "latitude": 39.824528,
        "longitude": -104.937471
      },
      "endCoords": {
        "latitude": 39.802473,
        "longitude": -104.969918
      },
      "distanceMeters": 33007.8,
      "durationMs": 6669413,
      "drivingDurationMs": 5377861,
      "idlingDurationMs": 1291552,
      "fuelConsumedMl": 4198,
      "fuelConsumedGallons": 1.109,
      "maxSpeedMph": 39.4,
      "averageSpeedMph": 11.1,
      "safetyEvents": []
    },
    {
      "id": "trip_41724318_20250114_002",
      "vehicleId": "41724318",
      "driverId": "20000018",
      "startMs": 1736867640000,
      "endMs": 1736874501791,
      "startAddress": "34329 Nichole Divide",
      "endAddress": "5556 Pamela Hollow",
      "startCoords": {
        "latitude": 39.735256,
        "longitude": -104.94545
      },
      "endCoords": {
        "latitude": 39.715428,
        "longitude": -105.002305
      },
      "distanceMeters": 30934.3,
      "durationMs": 6861791,
      "drivingDurationMs": 5831316,
      "idlingDurationMs": 1030475,
      "fuelConsumedMl": 3933,
      "fuelConsumedGallons": 1.039,
      "maxSpeedMph": 68.6,
      "averageSpeedMph": 10.1,
      "safetyEvents": [
        {
          "type": "speeding",
          "startMs": 1736868000000,
          "maxSpeedMph": 68.6
        }
      ]
    },
    {
      "id": "trip_41724318_20250114_003",
      "vehicleId": "41724318",
      "driverId": "20000018",
      "startMs": 1736879160000,
      "endMs": 1736882542789,
      "startAddress": "6578 Mary Valleys Apt. 939",
      "endAddress": "10951 Gill Plaza Suite 828",
      "startCoords": {
        "latitude": 39.747477,
        "longitude": -105.015196
      },
      "endCoords": {
        "latitude": 39.827539,
        "longitude": -105.06129
      },
      "distanceMeters": 15857.0,
      "durationMs": 3382790,
      "drivingDurationMs": 2769690,
      "idlingDurationMs": 613100,
      "fuelConsumedMl": 2018,
      "fuelConsumedGallons": 0.533,
      "maxSpeedMph": 46.3,
      "averageSpeedMph": 10.5,
      "safetyEvents": []
    },
    {
      "id": "trip_41724318_20250115_001",
      "vehicleId": "41724318",
      "driverId": null,
      "startMs": 1736926260000,
      "endMs": 1736943082970,
      "startAddress": "81903 Wallace Cove Suite 510",
      "endAddress": "583 Smith Street",
      "startCoords": {
        "latitude": 39.742943,
        "longitude": -105.002654
      },
      "endCoords": {
        "latitude": 39.691942,
        "longitude": -104.979834
      },
      "distanceMeters": 79315.8,
      "durationMs": 16822971,
      "drivingDurationMs": 14918137,
      "idlingDurationMs": 1904834,
      "fuelConsumedMl": 10084,
      "fuelConsumedGallons": 2.664,
      "maxSpeedMph": 29.2,
      "averageSpeedMph": 10.5,
      "safetyEvents": []
    },
    {
      "id": "trip_41724318_20250115_002",
      "vehicleId": "41724318",
      "driverId": "20000015",
      "startMs": 1736924880000,
      "endMs": 1736928202637,
      "startAddress": "27104 Clark Islands",
      "endAddress": "56343 Heather Club",
      "startCoords": {
        "latitude": 39.72025,
        "longitude": -104.935407
      },
      "endCoords": {
        "latitude": 39.793388,
        "longitude": -104.968904
      },
      "distanceMeters": 25291.9,
      "durationMs": 3322638,
      "drivingDurationMs": 2931452,
      "idlingDurationMs": 391186,
      "fuelConsumedMl": 3214,
      "fuelConsumedGallons": 0.849,
      "maxSpeedMph": 42.5,
      "averageSpeedMph": 17.0,
      "safetyEvents": []
    },
    {
      "id": "trip_41724318_20250115_003",
      "vehicleId": "41724318",
      "driverId": "20000015",
      "startMs": 1736954400000,
      "endMs": 1736958148125,
      "startAddress": "3354 Fuller Squares",
      "endAddress": "3382 Turner Oval Suite 892",
      "startCoords": {
        "latitude": 39.793849,
        "longitude": -105.011725
      },
      "endCoords": {
        "latitude": 39.750724,
        "longitude": -104.962121
      },
      "distanceMeters": 21706.7,
      "durationMs": 3748125,
      "drivingDurationMs": 3219114,
      "idlingDurationMs": 529011,
      "fuelConsumedMl": 2760,
      "fuelConsumedGallons": 0.729,
      "maxSpeedMph": 33.1,
      "averageSpeedMph": 13.0,
      "safetyEvents": []
    },
    {
      "id": "trip_41724318_20250115_004",
      "vehicleId": "41724318",
      "driverId": "20000015",
      "startMs": 1736920800000,
      "endMs": 1736927552972,
      "startAddress": "68299 Peterson Plaza",
      "endAddress": "84571 Berry Spur",
      "startCoords": {
        "latitude": 39.817958,
        "longitude": -104.93731
      },
      "endCoords": {
        "latitude": 39.74932,
        "longitude": -104.968184
      },
      "distanceMeters": 36021.9,
      "durationMs": 6752973,
      "drivingDurationMs": 6133658,
      "idlingDurationMs": 619315,
      "fuelConsumedMl": 4580,
      "fuelConsumedGallons": 1.21,
      "maxSpeedMph": 70.0,
      "averageSpeedMph": 11.9,
      "safetyEvents": [
        {
          "type": "speeding",
          "startMs": 1736927340000,
          "maxSpeedMph": 70.0
        }
      ]
    },
    {
      "id": "trip_41724318_20250115_005",
      "vehicleId": "41724318",
      "driverId": "20000015",
      "startMs": 1736934780000,
      "endMs": 1736936526692,
      "startAddress": "816 Mike Hill",
      "endAddress": "45365 James Path",
      "startCoords": {
        "latitude": 39.72181,
        "longitude": -104.938777
      },
      "endCoords": {
        "latitude": 39.791608,
        "longitude": -104.951706
      },
      "distanceMeters": 11402.3,
      "durationMs": 1746693,
      "drivingDurationMs": 1431461,
      "idlingDurationMs": 315232,
      "fuelConsumedMl": 1450,
      "fuelConsumedGallons": 0.383,
      "maxSpeedMph": 30.0,
      "averageSpeedMph": 14.6,
      "safetyEvents": []
    },
    {
      "id": "trip_41724318_20250115_006",
      "vehicleId": "41724318",
      "driverId": "20000015",
      "startMs": 1736947260000,
      "endMs": 1736958096050,
      "startAddress": "36746 Ryan Meadow Apt. 543",
      "endAddress": "0736 Miller Parks",
      "startCoords": {
        "latitude": 39.700493,
        "longitude": -105.087657
      },
      "endCoords": {
        "latitude": 39.761976,
        "longitude": -104.918888
      },
      "distanceMeters": 77992.7,
      "durationMs": 10836051,
      "drivingDurationMs": 8837462,
      "idlingDurationMs": 1998589,
      "fuelConsumedMl": 9918,
      "fuelConsumedGallons": 2.62,
      "maxSpeedMph": 39.6,
      "averageSpeedMph": 16.1,
      "safetyEvents": []
    },
    {
      "id": "trip_41724318_20250116_001",
      "vehicleId": "41724318",
      "driverId": "20000018",
      "startMs": 1737044160000,
      "endMs": 1737051383477,
      "startAddress": "23815 Peterson Dam Suite 876",
      "endAddress": "602 Mark Haven",
      "startCoords": {
        "latitude": 39.783496,
        "longitude": -104.940999
      },
      "endCoords": {
        "latitude": 39.782489,
        "longitude": -104.996254
      },
      "distanceMeters": 49493.2,
      "durationMs": 7223477,
      "drivingDurationMs": 7039112,
      "idlingDurationMs": 184365,
      "fuelConsumedMl": 6291,
      "fuelConsumedGallons": 1.662,
      "maxSpeedMph": 58.9,
      "averageSpeedMph": 15.3,
      "safetyEvents": []
    },
    {
      "id": "trip_41724318_20250116_002",
      "vehicleId": "41724318",
      "driverId": "20000018",
      "startMs": 1737012180000,
      "endMs": 1737015399615,
      "startAddress": "930 Hicks Common",
      "endAddress": "78679 Hudson Rest Apt. 819",
      "startCoords": {
        "latitude": 39.802937,
        "longitude": -105.076759
      },
      "endCoords": {
        "latitude": 39.716317,
        "longitude": -105.007784
      },
      "distanceMeters": 18644.0,
      "durationMs": 3219616,
      "drivingDurationMs": 2715856,
      "idlingDurationMs": 503760,
      "fuelConsumedMl": 2370,
      "fuelConsumedGallons": 0.626,
      "maxSpeedMph": 59.9,
      "averageSpeedMph": 13.0,
      "safetyEvents": []
    },
    {
      "id": "trip_41724318_20250116_003",
      "vehicleId": "41724318",
      "driverId": "20000018",
      "startMs": 1737038220000,
      "endMs": 1737044006605,
      "startAddress": "948 Nelson Crest",
      "endAddress": "19002 Davis Junction",
      "startCoords": {
        "latitude": 39.726059,
        "longitude": -105.072049
      },
      "endCoords": {
        "latitude": 39.69147,
        "longitude": -104.904293
      },
      "distanceMeters": 34839.2,
      "durationMs": 5786605,
      "drivingDurationMs": 5183359,
      "idlingDurationMs": 603246,
      "fuelConsumedMl": 4429,
      "fuelConsumedGallons": 1.17,
      "maxSpeedMph": 58.8,
      "averageSpeedMph": 13.5,
      "safetyEvents": []
    },
    {
      "id": "trip_41724318_20250116_004",
      "vehicleId": "41724318",
      "driverId": "20000018",
      "startMs": 1737010920000,
      "endMs": 1737022059553,
      "startAddress": "5863 Clark Ford",
      "endAddress": "70289 Ortiz Mews",
      "startCoords": {
        "latitude": 39.699027,
        "longitude": -104.983197
      },
      "endCoords": {
        "latitude": 39.735926,
        "longitude": -104.950962
      },
      "distanceMeters": 79109.8,
      "durationMs": 11139553,
      "drivingDurationMs": 10958264,
      "idlingDurationMs": 181289,
      "fuelConsumedMl": 10058,
      "fuelConsumedGallons": 2.657,
      "maxSpeedMph": 57.8,
      "averageSpeedMph": 15.9,
      "safetyEvents": []
    },
    {
      "id": "trip_41724318_20250116_005",
      "vehicleId": "41724318",
      "driverId": "20000018",
      "startMs": 1737008580000,
      "endMs": 1737010200780,
      "startAddress": "584 Chad Lights Apt. 106",
      "endAddress": "49473 Gross Spur Suite 310",
      "startCoords": {
        "latitude": 39.817824,
        "longitude": -105.044491
      },
      "endCoords": {
        "latitude": 39.782132,
        "longitude": -105.054659
      },
      "distanceMeters": 8845.2,
      "durationMs": 1620781,
      "drivingDurationMs": 1392204,
      "idlingDurationMs": 228577,
      "fuelConsumedMl": 1124,
      "fuelConsumedGallons": 0.297,
      "maxSpeedMph": 48.8,
      "averageSpeedMph": 12.2,
      "safetyEvents": []
    },
    {
      "id": "trip_41724318_20250116_006",
      "vehicleId": "41724318",
      "driverId": "20000018",
      "startMs": 1737010800000,
      "endMs": 1737029011182,
      "startAddress": "7710 Erin Shore Apt. 759",
      "endAddress": "88958 Bishop Rest Apt. 584",
      "startCoords": {
        "latitude": 39.797682,
        "longitude": -104.998613
      },
      "endCoords": {
        "latitude": 39.777194,
        "longitude": -104.960764
      },
      "distanceMeters": 84180.6,
      "durationMs": 18211182,
      "drivingDurationMs": 14848059,
      "idlingDurationMs": 3363123,
      "fuelConsumedMl": 10701,
      "fuelConsumedGallons": 2.827,
      "maxSpeedMph": 48.7,
      "averageSpeedMph": 10.3,
      "safetyEvents": []
    },
    {
      "id": "trip_41724318_20250117_001",
      "vehicleId": "41724318",
      "driverId": "20000017",
      "startMs": 1737107460000,
      "endMs": 1737113574336,
      "startAddress": "4225 Gonzalez Forge Suite 485",
      "endAddress": "374 Dustin Causeway",
      "startCoords": {
        "latitude": 39.684647,
        "longitude": -105.08433
      },
      "endCoords": {
        "latitude": 39.741773,
        "longitude": -105.010328
      },
      "distanceMeters": 36707.4,
      "durationMs": 6114336,
      "drivingDurationMs": 5396711,
      "idlingDurationMs": 717625,
      "fuelConsumedMl": 4667,
      "fuelConsumedGallons": 1.233,
      "maxSpeedMph": 59.8,
      "averageSpeedMph": 13.4,
      "safetyEvents": []
    },
    {
      "id": "trip_41724318_20250117_002",
      "vehicleId": "41724318",
      "driverId": "20000017",
      "startMs": 1737138120000,
      "endMs": 1737147332175,
      "startAddress": "0830 Freeman Mews",
      "endAddress": "5859 Conway Course Suite 733",
      "startCoords": {
        "latitude": 39.707087,
        "longitude": -104.9009
      },
      "endCoords": {
        "latitude": 39.806611,
        "longitude": -105.065102
      },
      "distanceMeters": 37177.3,
      "durationMs": 9212175,
      "drivingDurationMs": 7413948,
      "idlingDurationMs": 1798227,
      "fuelConsumedMl": 4728,
      "fuelConsumedGallons": 1.249,
      "maxSpeedMph": 44.6,
      "averageSpeedMph": 9.0,
      "safetyEvents": []
    },
    {
      "id": "trip_41724318_20250117_003",
      "vehicleId": "41724318",
      "driverId": "20000017",
      "startMs": 1737103800000,
      "endMs": 1737112669600,
      "startAddress": "3837 Jack Place",
      "endAddress": "056 Shelton Mount Suite 192",
      "startCoords": {
        "latitude": 39.807173,
        "longitude": -105.009536
      },
      "endCoords": {
        "latitude": 39.821874,
        "longitude": -105.056653
      },
      "distanceMeters": 59995.2,
      "durationMs": 8869601,
      "drivingDurationMs": 8455745,
      "idlingDurationMs": 413856,
      "fuelConsumedMl": 7628,
      "fuelConsumedGallons": 2.015,
      "maxSpeedMph": 64.5,
      "averageSpeedMph": 15.1,
      "safetyEvents": []
    },
    {
      "id": "trip_41724318_20250117_004",
      "vehicleId": "41724318",
      "driverId": "20000017",
      "startMs": 1737125400000,
      "endMs": 1737129777695,
      "startAddress": "812 Steven Roads Suite 248",
      "endAddress": "952 Jose Dale",
      "startCoords": {
        "latitude": 39.71342,
        "longitude": -104.927626
      },
      "endCoords": {
        "latitude": 39.814367,
        "longitude": -104.951826
      },
      "distanceMeters": 25927.1,
      "durationMs": 4377696,
      "drivingDurationMs": 3862500,
      "idlingDurationMs": 515196,
      "fuelConsumedMl": 3297,
      "fuelConsumedGallons": 0.871,
      "maxSpeedMph": 59.2,
      "averageSpeedMph": 13.2,
      "safetyEvents": []
    },
    {
      "id": "trip_41724318_20250118_001",
      "vehicleId": "41724318",
      "driverId": "20000019",
      "startMs": 1737219360000,
      "endMs": 1737230593667,
      "startAddress": "18923 Timothy Fort",
      "endAddress": "97298 Velasquez Pines",
      "startCoords": {
        "latitude": 39.802278,
        "longitude": -104.916034
      },
      "endCoords": {
        "latitude": 39.73535,
        "longitude": -105.034918
      },
      "distanceMeters": 76338.4,
      "durationMs": 11233668,
      "drivingDurationMs": 9316533,
      "idlingDurationMs": 1917134,
      "fuelConsumedMl": 9706,
      "fuelConsumedGallons": 2.564,
      "maxSpeedMph": 43.9,
      "averageSpeedMph": 15.2,
      "safetyEvents": []
    },
    {
      "id": "trip_41724318_20250119_001",
      "vehicleId": "41724318",
      "driverId": "20000015",
      "startMs": 1737279060000,
      "endMs": 1737294190577,
      "startAddress": "880 John Stravenue",
      "endAddress": "49288 Serrano Tunnel Suite 965",
      "startCoords": {
        "latitude": 39.81641,
        "longitude": -105.058596
      },
      "endCoords": {
        "latitude": 39.69469,
        "longitude": -105.055617
      },
      "distanceMeters": 75038.7,
      "durationMs": 15130578,
      "drivingDurationMs": 12548215,
      "idlingDurationMs": 2582363,
      "fuelConsumedMl": 9539,
      "fuelConsumedGallons": 2.52,
      "maxSpeedMph": 63.2,
      "averageSpeedMph": 11.1,
      "safetyEvents": []
    },
    {
      "id": "trip_41724318_20250119_002",
      "vehicleId": "41724318",
      "driverId": "20000015",
      "startMs": 1737287520000,
      "endMs": 1737296295586,
      "startAddress": "85375 Gregory Drive Apt. 721",
      "endAddress": "805 Smith Ferry Apt. 470",
      "startCoords": {
        "latitude": 39.691134,
        "longitude": -104.963544
      },
      "endCoords": {
        "latitude": 39.799827,
        "longitude": -104.942238
      },
      "distanceMeters": 64557.6,
      "durationMs": 8775587,
      "drivingDurationMs": 7848343,
      "idlingDurationMs": 927244,
      "fuelConsumedMl": 8207,
      "fuelConsumedGallons": 2.168,
      "maxSpeedMph": 62.9,
      "averageSpeedMph": 16.5,
      "safetyEvents": []
    },
    {
      "id": "trip_41724318_20250119_003",
      "vehicleId": "41724318",
      "driverId": "20000015",
      "startMs": 1737276840000,
      "endMs": 1737283581493,
      "startAddress": "13378 Brian Plain",
      "endAddress": "96429 Ann Vista Suite 550",
      "startCoords": {
        "latitude": 39.793391,
        "longitude": -104.900976
      },
      "endCoords": {
        "latitude": 39.730972,
        "longitude": -105.057203
      },
      "distanceMeters": 43423.6,
      "durationMs": 6741493,
      "drivingDurationMs": 5481008,
      "idlingDurationMs": 1260486,
      "fuelConsumedMl": 5519,
      "fuelConsumedGallons": 1.458,
      "maxSpeedMph": 55.3,
      "averageSpeedMph": 14.4,
      "safetyEvents": []
    },
    {
      "id": "trip_41724318_20250120_001",
      "vehicleId": "41724318",
      "driverId": "20000008",
      "startMs": 1737387600000,
      "endMs": 1737400062873,
      "startAddress": "371 Thomas Trail Apt. 856",
      "endAddress": "178 Walter Oval",
      "startCoords": {
        "latitude": 39.72956,
        "longitude": -104.979437
      },
      "endCoords": {
        "latitude": 39.755484,
        "longitude": -104.989143
      },
      "distanceMeters": 82553.3,
      "durationMs": 12462874,
      "drivingDurationMs": 11535788,
      "idlingDurationMs": 927085,
      "fuelConsumedMl": 10497,
      "fuelConsumedGallons": 2.773,
      "maxSpeedMph": 37.3,
      "averageSpeedMph": 14.8,
      "safetyEvents": []
    },
    {
      "id": "trip_41724318_20250120_002",
      "vehicleId": "41724318",
      "driverId": "20000008",
      "startMs": 1737360360000,
      "endMs": 1737364968707,
      "startAddress": "158 Allison Meadow Apt. 393",
      "endAddress": "408 Jones Lakes Suite 156",
      "startCoords": {
        "latitude": 39.720214,
        "longitude": -104.938456
      },
      "endCoords": {
        "latitude": 39.708974,
        "longitude": -104.969081
      },
      "distanceMeters": 21090.2,
      "durationMs": 4608708,
      "drivingDurationMs": 4174948,
      "idlingDurationMs": 433760,
      "fuelConsumedMl": 2680,
      "fuelConsumedGallons": 0.708,
      "maxSpeedMph": 69.0,
      "averageSpeedMph": 10.2,
      "safetyEvents": [
        {
          "type": "speeding",
          "startMs": 1737361260000,
          "maxSpeedMph": 69.0
        }
      ]
    },
    {
      "id": "trip_41724318_20250120_003",
      "vehicleId": "41724318",
      "driverId": "20000008",
      "startMs": 1737359820000,
      "endMs": 1737371754708,
      "startAddress": "00047 Kristina Throughway",
      "endAddress": "65685 Lisa Fields Suite 086",
      "startCoords": {
        "latitude": 39.685804,
        "longitude": -105.032413
      },
      "endCoords": {
        "latitude": 39.779127,
        "longitude": -105.034506
      },
      "distanceMeters": 51634.0,
      "durationMs": 11934708,
      "drivingDurationMs": 10001256,
      "idlingDurationMs": 1933452,
      "fuelConsumedMl": 6564,
      "fuelConsumedGallons": 1.734,
      "maxSpeedMph": 54.5,
      "averageSpeedMph": 9.7,
      "safetyEvents": []
    },
    {
      "id": "trip_41724318_20250120_004",
      "vehicleId": "41724318",
      "driverId": "20000008",
      "startMs": 1737361200000,
      "endMs": 1737369261299,
      "startAddress": "6391 Donald Wall",
      "endAddress": "423 Flynn Parkways Apt. 762",
      "startCoords": {
        "latitude": 39.716632,
        "longitude": -104.942475
      },
      "endCoords": {
        "latitude": 39.719317,
        "longitude": -104.985649
      },
      "distanceMeters": 50177.4,
      "durationMs": 8061299,
      "drivingDurationMs": 6765420,
      "idlingDurationMs": 1295880,
      "fuelConsumedMl": 6378,
      "fuelConsumedGallons": 1.685,
      "maxSpeedMph": 53.9,
      "averageSpeedMph": 13.9,
      "safetyEvents": []
    },
    {
      "id": "trip_41724318_20250120_005",
      "vehicleId": "41724318",
      "driverId": "20000008",
      "startMs": 1737380580000,
      "endMs": 1737387453748,
      "startAddress": "47012 Jennings Summit",
      "endAddress": "2926 Chapman Fort Suite 201",
      "startCoords": {
        "latitude": 39.803568,
        "longitude": -104.929309
      },
      "endCoords": {
        "latitude": 39.7592,
        "longitude": -104.911168
      },
      "distanceMeters": 38499.0,
      "durationMs": 6873749,
      "drivingDurationMs": 5644179,
      "idlingDurationMs": 1229569,
      "fuelConsumedMl": 4895,
      "fuelConsumedGallons": 1.293,
      "maxSpeedMph": 29.6,
      "averageSpeedMph": 12.5,
      "safetyEvents": []
    },
    {
      "id": "trip_41724318_20250120_006",
      "vehicleId": "41724318",
      "driverId": "20000008",
      "startMs": 1737359820000,
      "endMs": 1737362567754,
      "startAddress": "2148 Kim Burgs",
      "endAddress": "986 Virginia Creek",
      "startCoords": {
        "latitude": 39.801653,
        "longitude": -104.999175
      },
      "endCoords": {
        "latitude": 39.715132,
        "longitude": -105.000916
      },
      "distanceMeters": 21161.0,
      "durationMs": 2747755,
      "drivingDurationMs": 2434956,
      "idlingDurationMs": 312799,
      "fuelConsumedMl": 2691,
      "fuelConsumedGallons": 0.711,
      "maxSpeedMph": 56.5,
      "averageSpeedMph": 17.2,
      "safetyEvents": []
    },
    {
      "id": "trip_41724318_20250121_001",
      "vehicleId": "41724318",
      "driverId": "20000013",
      "startMs": 1737462720000,
      "endMs": 1737466653394,
      "startAddress": "13886 Angela Meadows",
      "endAddress": "0941 Riggs Park",
      "startCoords": {
        "latitude": 39.716868,
        "longitude": -104.965527
      },
      "endCoords": {
        "latitude": 39.813107,
        "longitude": -104.966086
      },
      "distanceMeters": 25850.7,
      "durationMs": 3933395,
      "drivingDurationMs": 3164346,
      "idlingDurationMs": 769049,
      "fuelConsumedMl": 3286,
      "fuelConsumedGallons": 0.868,
      "maxSpeedMph": 28.2,
      "averageSpeedMph": 14.7,
      "safetyEvents": []
    },
    {
      "id": "trip_41724318_20250121_002",
      "vehicleId": "41724318",
      "driverId": "20000013",
      "startMs": 1737452880000,
      "endMs": 1737456803845,
      "startAddress": "1685 Bell Underpass",
      "endAddress": "698 Connie Keys",
      "startCoords": {
        "latitude": 39.713478,
        "longitude": -105.067519
      },
      "endCoords": {
        "latitude": 39.748619,
        "longitude": -105.084929
      },
      "distanceMeters": 19938.0,
      "durationMs": 3923846,
      "drivingDurationMs": 3470931,
      "idlingDurationMs": 452915,
      "fuelConsumedMl": 2536,
      "fuelConsumedGallons": 0.67,
      "maxSpeedMph": 67.7,
      "averageSpeedMph": 11.4,
      "safetyEvents": [
        {
          "type": "speeding",
          "startMs": 1737453900000,
          "maxSpeedMph": 67.7
        }
      ]
    },
    {
      "id": "trip_41724318_20250121_003",
      "vehicleId": "41724318",
      "driverId": "20000013",
      "startMs": 1737453720000,
      "endMs": 1737466191238,
      "startAddress": "405 Kelly Ville",
      "endAddress": "230 Kayla Mountains Apt. 456",
      "startCoords": {
        "latitude": 39.729695,
        "longitude": -104.904602
      },
      "endCoords": {
        "latitude": 39.819425,
        "longitude": -104.950666
      },
      "distanceMeters": 78211.1,
      "durationMs": 12471238,
      "drivingDurationMs": 10928389,
      "idlingDurationMs": 1542850,
      "fuelConsumedMl": 9944,
      "fuelConsumedGallons": 2.627,
      "maxSpeedMph": 36.3,
      "averageSpeedMph": 14.0,
      "safetyEvents": []
    },
    {
      "id": "trip_41724318_20250122_001",
      "vehicleId": "41724318",
      "driverId": "20000018",
      "startMs": 1737537120000,
      "endMs": 1737540468410,
      "startAddress": "13936 Rebecca Knolls",
      "endAddress": "07311 Monroe Track Suite 762",
      "startCoords": {
        "latitude": 39.815762,
        "longitude": -104.968301
      },
      "endCoords": {
        "latitude": 39.739496,
        "longitude": -105.053309
      },
      "distanceMeters": 25398.2,
      "durationMs": 3348410,
      "drivingDurationMs": 2987929,
      "idlingDurationMs": 360481,
      "fuelConsumedMl": 3229,
      "fuelConsumedGallons": 0.853,
      "maxSpeedMph": 44.6,
      "averageSpeedMph": 17.0,
      "safetyEvents": []
    },
    {
      "id": "trip_41724318_20250122_002",
      "vehicleId": "41724318",
      "driverId": "20000018",
      "startMs": 1737536640000,
      "endMs": 1737545294356,
      "startAddress": "658 Richard Burg",
      "endAddress": "618 Jacob Turnpike",
      "startCoords": {
        "latitude": 39.743551,
        "longitude": -105.077155
      },
      "endCoords": {
        "latitude": 39.816614,
        "longitude": -104.973677
      },
      "distanceMeters": 58597.3,
      "durationMs": 8654357,
      "drivingDurationMs": 8417487,
      "idlingDurationMs": 236870,
      "fuelConsumedMl": 7450,
      "fuelConsumedGallons": 1.968,
      "maxSpeedMph": 58.9,
      "averageSpeedMph": 15.1,
      "safetyEvents": []
    },
    {
      "id": "trip_41724318_20250122_003",
      "vehicleId": "41724318",
      "driverId": "20000018",
      "startMs": 1737559800000,
      "endMs": 1737570343779,
      "startAddress": "794 Raymond Spring",
      "endAddress": "54755 Marvin Throughway Suite 983",
      "startCoords": {
        "latitude": 39.68497,
        "longitude": -104.955443
      },
      "endCoords": {
        "latitude": 39.747891,
        "longitude": -105.055157
      },
      "distanceMeters": 55833.1,
      "durationMs": 10543780,
      "drivingDurationMs": 9032985,
      "idlingDurationMs": 1510795,
      "fuelConsumedMl": 7098,
      "fuelConsumedGallons": 1.875,
      "maxSpeedMph": 51.4,
      "averageSpeedMph": 11.8,
      "safetyEvents": []
    },
    {
      "id": "trip_41724318_20250122_004",
      "vehicleId": "41724318",
      "driverId": "20000018",
      "startMs": 1737564540000,
      "endMs": 1737568598241,
      "startAddress": "99181 William Road",
      "endAddress": "191 Harrison Burgs",
      "startCoords": {
        "latitude": 39.810122,
        "longitude": -104.988728
      },
      "endCoords": {
        "latitude": 39.755294,
        "longitude": -105.033632
      },
      "distanceMeters": 31754.2,
      "durationMs": 4058241,
      "drivingDurationMs": 3698622,
      "idlingDurationMs": 359619,
      "fuelConsumedMl": 4039,
      "fuelConsumedGallons": 1.067,
      "maxSpeedMph": 32.7,
      "averageSpeedMph": 17.5,
      "safetyEvents": []
    },
    {
      "id": "trip_41724318_20250123_001",
      "vehicleId": "41724318",
      "driverId": null,
      "startMs": 1737645720000,
      "endMs": 1737663003229,
      "startAddress": "1362 Young Highway",
      "endAddress": "173 Cunningham Drive",
      "startCoords": {
        "latitude": 39.806535,
        "longitude": -104.958863
      },
      "endCoords": {
        "latitude": 39.767595,
        "longitude": -104.927881
      },
      "distanceMeters": 79727.0,
      "durationMs": 17283230,
      "drivingDurationMs": 15373483,
      "idlingDurationMs": 1909746,
      "fuelConsumedMl": 10137,
      "fuelConsumedGallons": 2.678,
      "maxSpeedMph": 49.8,
      "averageSpeedMph": 10.3,
      "safetyEvents": []
    },
    {
      "id": "trip_41724318_20250123_002",
      "vehicleId": "41724318",
      "driverId": "20000004",
      "startMs": 1737625680000,
      "endMs": 1737629692321,
      "startAddress": "4055 Maxwell Lights Apt. 218",
      "endAddress": "0062 Spencer Manor",
      "startCoords": {
        "latitude": 39.706655,
        "longitude": -105.014613
      },
      "endCoords": {
        "latitude": 39.687347,
        "longitude": -105.025445
      },
      "distanceMeters": 26725.3,
      "durationMs": 4012322,
      "drivingDurationMs": 3407409,
      "idlingDurationMs": 604913,
      "fuelConsumedMl": 3399,
      "fuelConsumedGallons": 0.898,
      "maxSpeedMph": 69.6,
      "averageSpeedMph": 14.9,
      "safetyEvents": [
        {
          "type": "speeding",
          "startMs": 1737627180000,
          "maxSpeedMph": 69.6
        }
      ]
    },
    {
      "id": "trip_41724318_20250123_003",
      "vehicleId": "41724318",
      "driverId": "20000004",
      "startMs": 1737657900000,
      "endMs": 1737664594497,
      "startAddress": "84476 Danielle Park",
      "endAddress": "286 Case Forge Apt. 398",
      "startCoords": {
        "latitude": 39.811744,
        "longitude": -105.030958
      },
      "endCoords": {
        "latitude": 39.755487,
        "longitude": -105.01533
      },
      "distanceMeters": 34415.3,
      "durationMs": 6694498,
      "drivingDurationMs": 5422884,
      "idlingDurationMs": 1271613,
      "fuelConsumedMl": 4376,
      "fuelConsumedGallons": 1.156,
      "maxSpeedMph": 71.7,
      "averageSpeedMph": 11.5,
      "safetyEvents": [
        {
          "type": "speeding",
          "startMs": 1737660660000,
          "maxSpeedMph": 71.7
        }
      ]
    },
    {
      "id": "trip_41724318_20250124_001",
      "vehicleId": "41724318",
      "driverId": "20000014",
      "startMs": 1737727260000,
      "endMs": 1737728945388,
      "startAddress": "3479 Wood Hill Apt. 273",
      "endAddress": "99960 Hodge Extensions",
      "startCoords": {
        "latitude": 39.714175,
        "longitude": -105.042494
      },
      "endCoords": {
        "latitude": 39.683868,
        "longitude": -105.020381
      },
      "distanceMeters": 11339.6,
      "durationMs": 1685389,
      "drivingDurationMs": 1467888,
      "idlingDurationMs": 217500,
      "fuelConsumedMl": 1442,
      "fuelConsumedGallons": 0.381,
      "maxSpeedMph": 64.1,
      "averageSpeedMph": 15.1,
      "safetyEvents": []
    },
    {
      "id": "trip_41724318_20250124_002",
      "vehicleId": "41724318",
      "driverId": "20000014",
      "startMs": 1737713520000,
      "endMs": 1737716275609,
      "startAddress": "611 David Tunnel",
      "endAddress": "043 Berry Track Suite 084",
      "startCoords": {
        "latitude": 39.766512,
        "longitude": -104.971115
      },
      "endCoords": {
        "latitude": 39.790271,
        "longitude": -104.966
      },
      "distanceMeters": 19861.2,
      "durationMs": 2755610,
      "drivingDurationMs": 2526947,
      "idlingDurationMs": 228663,
      "fuelConsumedMl": 2525,
      "fuelConsumedGallons": 0.667,
      "maxSpeedMph": 68.0,
      "averageSpeedMph": 16.1,
      "safetyEvents": [
        {
          "type": "speeding",
          "startMs": 1737714120000,
          "maxSpeedMph": 68.0
        }
      ]
    },
    {
      "id": "trip_41724318_20250124_003",
      "vehicleId": "41724318",
      "driverId": "20000014",
      "startMs": 1737731100000,
      "endMs": 1737742511062,
      "startAddress": "72417 Chapman Ridges",
      "endAddress": "276 Sarah Spur Apt. 642",
      "startCoords": {
        "latitude": 39.826602,
        "longitude": -104.921096
      },
      "endCoords": {
        "latitude": 39.798946,
        "longitude": -105.078834
      },
      "distanceMeters": 65686.2,
      "durationMs": 11411062,
      "drivingDurationMs": 9598698,
      "idlingDurationMs": 1812364,
      "fuelConsumedMl": 8351,
      "fuelConsumedGallons": 2.206,
      "maxSpeedMph": 32.7,
      "averageSpeedMph": 12.9,
      "safetyEvents": []
    },
    {
      "id": "trip_41724318_20250124_004",
      "vehicleId": "41724318",
      "driverId": "20000014",
      "startMs": 1737702900000,
      "endMs": 1737710770334,
      "startAddress": "743 Stewart Cliffs",
      "endAddress": "7842 Wilson Squares Apt. 658",
      "startCoords": {
        "latitude": 39.702298,
        "longitude": -104.916655
      },
      "endCoords": {
        "latitude": 39.80289,
        "longitude": -104.903573
      },
      "distanceMeters": 35342.0,
      "durationMs": 7870334,
      "drivingDurationMs": 6724454,
      "idlingDurationMs": 1145880,
      "fuelConsumedMl": 4493,
      "fuelConsumedGallons": 1.187,
      "maxSpeedMph": 41.9,
      "averageSpeedMph": 10.0,
      "safetyEvents": []
    },
    {
      "id": "trip_41724318_20250125_001",
      "vehicleId": "41724318",
      "driverId": "20000017",
      "startMs": 1737824100000,
      "endMs": 1737830103341,
      "startAddress": "8542 Vincent Ville Suite 813",
      "endAddress": "90477 William Square Suite 308",
      "startCoords": {
        "latitude": 39.793187,
        "longitude": -105.067578
      },
      "endCoords": {
        "latitude": 39.760116,
        "longitude": -104.985443
      },
      "distanceMeters": 39488.7,
      "durationMs": 6003342,
      "drivingDurationMs": 4863662,
      "idlingDurationMs": 1139680,
      "fuelConsumedMl": 5019,
      "fuelConsumedGallons": 1.326,
      "maxSpeedMph": 61.6,
      "averageSpeedMph": 14.7,
      "safetyEvents": []
    },
    {
      "id": "trip_41724318_20250125_002",
      "vehicleId": "41724318",
      "driverId": "20000017",
      "startMs": 1737808080000,
      "endMs": 1737815223957,
      "startAddress": "626 Jeremiah Route Apt. 415",
      "endAddress": "40174 Garcia Route",
      "startCoords": {
        "latitude": 39.805691,
        "longitude": -104.919204
      },
      "endCoords": {
        "latitude": 39.813889,
        "longitude": -104.959844
      },
      "distanceMeters": 46795.1,
      "durationMs": 7143958,
      "drivingDurationMs": 5831526,
      "idlingDurationMs": 1312432,
      "fuelConsumedMl": 5951,
      "fuelConsumedGallons": 1.572,
      "maxSpeedMph": 39.5,
      "averageSpeedMph": 14.7,
      "safetyEvents": []
    },
    {
      "id": "trip_41724318_20250125_003",
      "vehicleId": "41724318",
      "driverId": "20000017",
      "startMs": 1737795060000,
      "endMs": 1737799798071,
      "startAddress": "1254 April Junctions Apt. 816",
      "endAddress": "773 Walsh Tunnel Suite 517",
      "startCoords": {
        "latitude": 39.70597,
        "longitude": -105.024432
      },
      "endCoords": {
        "latitude": 39.714915,
        "longitude": -104.918354
      },
      "distanceMeters": 27672.3,
      "durationMs": 4738072,
      "drivingDurationMs": 4024619,
      "idlingDurationMs": 713453,
      "fuelConsumedMl": 3517,
      "fuelConsumedGallons": 0.929,
      "maxSpeedMph": 56.3,
      "averageSpeedMph": 13.1,
      "safetyEvents": []
    },
    {
      "id": "trip_41724318_20250125_004",
      "vehicleId": "41724318",
      "driverId": "20000017",
      "startMs": 1737788160000,
      "endMs": 1737789418221,
      "startAddress": "525 Erin Via",
      "endAddress": "704 Murphy Course Suite 377",
      "startCoords": {
        "latitude": 39.772007,
        "longitude": -105.015124
      },
      "endCoords": {
        "latitude": 39.72959,
        "longitude": -104.936827
      },
      "distanceMeters": 5675.5,
      "durationMs": 1258222,
      "drivingDurationMs": 1018718,
      "idlingDurationMs": 239504,
      "fuelConsumedMl": 723,
      "fuelConsumedGallons": 0.191,
      "maxSpeedMph": 70.3,
      "averageSpeedMph": 10.1,
      "safetyEvents": [
        {
          "type": "speeding",
          "startMs": 1737789180000,
          "maxSpeedMph": 70.3
        }
      ]
    },
    {
      "id": "trip_41724318_20250126_001",
      "vehicleId": "41724318",
      "driverId": "20000015",
      "startMs": 1737888960000,
      "endMs": 1737890100525,
      "startAddress": "6173 Haynes Park",
      "endAddress": "21991 Gonzalez Knolls Apt. 970",
      "startCoords": {
        "latitude": 39.806605,
        "longitude": -105.032949
      },
      "endCoords": {
        "latitude": 39.797764,
        "longitude": -104.973269
      },
      "distanceMeters": 5885.7,
      "durationMs": 1140526,
      "drivingDurationMs": 945933,
      "idlingDurationMs": 194593,
      "fuelConsumedMl": 750,
      "fuelConsumedGallons": 0.198,
      "maxSpeedMph": 58.8,
      "averageSpeedMph": 11.5,
      "safetyEvents": []
    },
    {
      "id": "trip_41724318_20250126_002",
      "vehicleId": "41724318",
      "driverId": "20000015",
      "startMs": 1737877440000,
      "endMs": 1737881086207,
      "startAddress": "02023 Lawson Lakes Apt. 961",
      "endAddress": "38628 Melissa Points",
      "startCoords": {
        "latitude": 39.793451,
        "longitude": -104.956304
      },
      "endCoords": {
        "latitude": 39.816947,
        "longitude": -104.921088
      },
      "distanceMeters": 21009.2,
      "durationMs": 3646208,
      "drivingDurationMs": 3268406,
      "idlingDurationMs": 377801,
      "fuelConsumedMl": 2672,
      "fuelConsumedGallons": 0.706,
      "maxSpeedMph": 30.2,
      "averageSpeedMph": 12.9,
      "safetyEvents": []
    },
    {
      "id": "trip_41724318_20250127_001",
      "vehicleId": "41724318",
      "driverId": "20000015",
      "startMs": 1737989520000,
      "endMs": 1737992696295,
      "startAddress": "6795 Kayla Ford Suite 792",
      "endAddress": "4057 Rose Lights Apt. 288",
      "startCoords": {
        "latitude": 39.769228,
        "longitude": -105.015588
      },
      "endCoords": {
        "latitude": 39.809502,
        "longitude": -104.928123
      },
      "distanceMeters": 17509.8,
      "durationMs": 3176296,
      "drivingDurationMs": 2684519,
      "idlingDurationMs": 491777,
      "fuelConsumedMl": 2226,
      "fuelConsumedGallons": 0.588,
      "maxSpeedMph": 59.4,
      "averageSpeedMph": 12.3,
      "safetyEvents": []
    },
    {
      "id": "trip_41724318_20250127_002",
      "vehicleId": "41724318",
      "driverId": "20000015",
      "startMs": 1737980460000,
      "endMs": 1737982960482,
      "startAddress": "2980 David Tunnel Suite 614",
      "endAddress": "25804 Hood Lake",
      "startCoords": {
        "latitude": 39.722755,
        "longitude": -105.083268
      },
      "endCoords": {
        "latitude": 39.741808,
        "longitude": -104.933353
      },
      "distanceMeters": 13324.1,
      "durationMs": 2500482,
      "drivingDurationMs": 2222723,
      "idlingDurationMs": 277759,
      "fuelConsumedMl": 1696,
      "fuelConsumedGallons": 0.448,
      "maxSpeedMph": 50.4,
      "averageSpeedMph": 11.9,
      "safetyEvents": []
    },
    {
      "id": "trip_41724318_20250127_003",
      "vehicleId": "41724318",
      "driverId": "20000015",
      "startMs": 1737981180000,
      "endMs": 1737982841863,
      "startAddress": "05596 Brandt Union",
      "endAddress": "878 Jones Pines",
      "startCoords": {
        "latitude": 39.765317,
        "longitude": -104.969837
      },
      "endCoords": {
        "latitude": 39.768428,
        "longitude": -104.955382
      },
      "distanceMeters": 10166.9,
      "durationMs": 1661863,
      "drivingDurationMs": 1332726,
      "idlingDurationMs": 329138,
      "fuelConsumedMl": 1291,
      "fuelConsumedGallons": 0.341,
      "maxSpeedMph": 52.5,
      "averageSpeedMph": 13.7,
      "safetyEvents": []
    },
    {
      "id": "trip_41724318_20250127_004",
      "vehicleId": "41724318",
      "driverId": "20000015",
      "startMs": 1737964980000,
      "endMs": 1737967781378,
      "startAddress": "7886 Grant Coves Suite 239",
      "endAddress": "5724 Scott Field",
      "startCoords": {
        "latitude": 39.758354,
        "longitude": -105.04299
      },
      "endCoords": {
        "latitude": 39.776972,
        "longitude": -104.977598
      },
      "distanceMeters": 18854.1,
      "durationMs": 2801379,
      "drivingDurationMs": 2584492,
      "idlingDurationMs": 216887,
      "fuelConsumedMl": 2396,
      "fuelConsumedGallons": 0.633,
      "maxSpeedMph": 37.2,
      "averageSpeedMph": 15.1,
      "safetyEvents": []
    },
    {
      "id": "trip_41724318_20250127_005",
      "vehicleId": "41724318",
      "driverId": "20000015",
      "startMs": 1737975420000,
      "endMs": 1737977138389,
      "startAddress": "7442 Kelly Isle",
      "endAddress": "7947 Campbell Run",
      "startCoords": {
        "latitude": 39.774967,
        "longitude": -104.976493
      },
      "endCoords": {
        "latitude": 39.719646,
        "longitude": -105.051008
      },
      "distanceMeters": 11733.5,
      "durationMs": 1718389,
      "drivingDurationMs": 1515288,
      "idlingDurationMs": 203101,
      "fuelConsumedMl": 1491,
      "fuelConsumedGallons": 0.394,
      "maxSpeedMph": 71.6,
      "averageSpeedMph": 15.3,
      "safetyEvents": [
        {
          "type": "speeding",
          "startMs": 1737976740000,
          "maxSpeedMph": 71.6
        }
      ]
    },
    {
      "id": "trip_41724318_20250128_001",
      "vehicleId": "41724318",
      "driverId": "20000001",
      "startMs": 1738063140000,
      "endMs": 1738078803454,
      "startAddress": "1352 Martinez Estates Apt. 085",
      "endAddress": "09197 Rogers Ranch",
      "startCoords": {
        "latitude": 39.816863,
        "longitude": -105.060485
      },
      "endCoords": {
        "latitude": 39.699515,
        "longitude": -105.021955
      },
      "distanceMeters": 79467.8,
      "durationMs": 15663454,
      "drivingDurationMs": 12880982,
      "idlingDurationMs": 2782473,
      "fuelConsumedMl": 10103,
      "fuelConsumedGallons": 2.669,
      "maxSpeedMph": 46.6,
      "averageSpeedMph": 11.3,
      "safetyEvents": []
    },
    {
      "id": "trip_41724318_20250128_002",
      "vehicleId": "41724318",
      "driverId": "20000001",
      "startMs": 1738076220000,
      "endMs": 1738088771867,
      "startAddress": "05031 Garner Trail Apt. 170",
      "endAddress": "223 Cook Village Suite 684",
      "startCoords": {
        "latitude": 39.767629,
        "longitude": -104.92116
      },
      "endCoords": {
        "latitude": 39.814897,
        "longitude": -105.078653
      },
      "distanceMeters": 71006.5,
      "durationMs": 12551867,
      "drivingDurationMs": 10478715,
      "idlingDurationMs": 2073152,
      "fuelConsumedMl": 9028,
      "fuelConsumedGallons": 2.385,
      "maxSpeedMph": 63.7,
      "averageSpeedMph": 12.7,
      "safetyEvents": []
    },
    {
      "id": "trip_41724318_20250128_003",
      "vehicleId": "41724318",
      "driverId": "20000001",
      "startMs": 1738067040000,
      "endMs": 1738078086866,
      "startAddress": "7506 Joshua Mountain Apt. 944",
      "endAddress": "74076 Ramirez Heights Apt. 061",
      "startCoords": {
        "latitude": 39.709924,
        "longitude": -104.905626
      },
      "endCoords": {
        "latitude": 39.71841,
        "longitude": -104.930021
      },
      "distanceMeters": 64442.8,
      "durationMs": 11046867,
      "drivingDurationMs": 9352748,
      "idlingDurationMs": 1694119,
      "fuelConsumedMl": 8192,
      "fuelConsumedGallons": 2.164,
      "maxSpeedMph": 65.3,
      "averageSpeedMph": 13.0,
      "safetyEvents": [
        {
          "type": "speeding",
          "startMs": 1738072080000,
          "maxSpeedMph": 65.3
        }
      ]
    },
    {
      "id": "trip_41724318_20250128_004",
      "vehicleId": "41724318",
      "driverId": "20000001",
      "startMs": 1738071420000,
      "endMs": 1738084261208,
      "startAddress": "84122 Benjamin Station",
      "endAddress": "876 Clark Place",
      "startCoords": {
        "latitude": 39.698498,
        "longitude": -105.063066
      },
      "endCoords": {
        "latitude": 39.736884,
        "longitude": -105.076727
      },
      "distanceMeters": 52498.1,
      "durationMs": 12841209,
      "drivingDurationMs": 10426195,
      "idlingDurationMs": 2415014,
      "fuelConsumedMl": 6674,
      "fuelConsumedGallons": 1.763,
      "maxSpeedMph": 43.3,
      "averageSpeedMph": 9.1,
      "safetyEvents": []
    },
    {
      "id": "trip_41724318_20250128_005",
      "vehicleId": "41724318",
      "driverId": "20000001",
      "startMs": 1738070880000,
      "endMs": 1738078928776,
      "startAddress": "91846 Douglas Gardens Apt. 824",
      "endAddress": "140 Duffy Trafficway Suite 340",
      "startCoords": {
        "latitude": 39.789664,
        "longitude": -105.07853
      },
      "endCoords": {
        "latitude": 39.698565,
        "longitude": -105.061543
      },
      "distanceMeters": 49053.0,
      "durationMs": 8048777,
      "drivingDurationMs": 7328077,
      "idlingDurationMs": 720700,
      "fuelConsumedMl": 6238,
      "fuelConsumedGallons": 1.648,
      "maxSpeedMph": 57.7,
      "averageSpeedMph": 13.6,
      "safetyEvents": []
    },
    {
      "id": "trip_41724318_20250128_006",
      "vehicleId": "41724318",
      "driverId": "20000001",
      "startMs": 1738052940000,
      "endMs": 1738055052177,
      "startAddress": "266 Atkinson Forge",
      "endAddress": "7850 Lopez Wells",
      "startCoords": {
        "latitude": 39.776865,
        "longitude": -105.020306
      },
      "endCoords": {
        "latitude": 39.813985,
        "longitude": -105.087487
      },
      "distanceMeters": 14581.0,
      "durationMs": 2112177,
      "drivingDurationMs": 1818204,
      "idlingDurationMs": 293974,
      "fuelConsumedMl": 1855,
      "fuelConsumedGallons": 0.49,
      "maxSpeedMph": 37.1,
      "averageSpeedMph": 15.4,
      "safetyEvents": []
    },
    {
      "id": "trip_41724318_20250129_001",
      "vehicleId": "41724318",
      "driverId": "20000018",
      "startMs": 1738147560000,
      "endMs": 1738158914852,
      "startAddress": "34555 Daniel Junction",
      "endAddress": "73002 Mary Ramp",
      "startCoords": {
        "latitude": 39.709211,
        "longitude": -105.057296
      },
      "endCoords": {
        "latitude": 39.787479,
        "longitude": -104.903353
      },
      "distanceMeters": 75735.6,
      "durationMs": 11354852,
      "drivingDurationMs": 9976108,
      "idlingDurationMs": 1378744,
      "fuelConsumedMl": 9630,
      "fuelConsumedGallons": 2.544,
      "maxSpeedMph": 42.5,
      "averageSpeedMph": 14.9,
      "safetyEvents": []
    },
    {
      "id": "trip_41724318_20250129_002",
      "vehicleId": "41724318",
      "driverId": "20000018",
      "startMs": 1738166400000,
      "endMs": 1738168747758,
      "startAddress": "77376 Brooks Camp",
      "endAddress": "6220 Ricardo Rapid Suite 753",
      "startCoords": {
        "latitude": 39.701962,
        "longitude": -105.05443
      },
      "endCoords": {
        "latitude": 39.768863,
        "longitude": -104.946325
      },
      "distanceMeters": 15370.3,
      "durationMs": 2347759,
      "drivingDurationMs": 2148342,
      "idlingDurationMs": 199417,
      "fuelConsumedMl": 1953,
      "fuelConsumedGallons": 0.516,
      "maxSpeedMph": 61.3,
      "averageSpeedMph": 14.6,
      "safetyEvents": []
    },
    {
      "id": "trip_41724318_20250129_003",
      "vehicleId": "41724318",
      "driverId": "20000018",
      "startMs": 1738173120000,
      "endMs": 1738176777595,
      "startAddress": "299 Jennifer Wall",
      "endAddress": "028 Eugene Forks",
      "startCoords": {
        "latitude": 39.768593,
        "longitude": -105.011372
      },
      "endCoords": {
        "latitude": 39.754184,
        "longitude": -104.967119
      },
      "distanceMeters": 27698.0,
      "durationMs": 3657596,
      "drivingDurationMs": 3255208,
      "idlingDurationMs": 402388,
      "fuelConsumedMl": 3520,
      "fuelConsumedGallons": 0.93,
      "maxSpeedMph": 69.3,
      "averageSpeedMph": 16.9,
      "safetyEvents": [
        {
          "type": "speeding",
          "startMs": 1738173480000,
          "maxSpeedMph": 69.3
        }
      ]
    },
    {
      "id": "trip_41724318_20250129_004",
      "vehicleId": "41724318",
      "driverId": "20000018",
      "startMs": 1738173180000,
      "endMs": 1738174065448,
      "startAddress": "640 Jessica Lock",
      "endAddress": "89279 Jenna Plains Apt. 555",
      "startCoords": {
        "latitude": 39.723611,
        "longitude": -105.050089
      },
      "endCoords": {
        "latitude": 39.78841,
        "longitude": -105.06836
      },
      "distanceMeters": 5621.4,
      "durationMs": 885449,
      "drivingDurationMs": 707226,
      "idlingDurationMs": 178222,
      "fuelConsumedMl": 715,
      "fuelConsumedGallons": 0.189,
      "maxSpeedMph": 28.7,
      "averageSpeedMph": 14.2,
      "safetyEvents": []
    },
    {
      "id": "trip_41724318_20250129_005",
      "vehicleId": "41724318",
      "driverId": "20000018",
      "startMs": 1738168920000,
      "endMs": 1738178166068,
      "startAddress": "8613 Alyssa Passage",
      "endAddress": "01769 Sarah Square Apt. 727",
      "startCoords": {
        "latitude": 39.722585,
        "longitude": -104.93501
      },
      "endCoords": {
        "latitude": 39.750063,
        "longitude": -105.042861
      },
      "distanceMeters": 46506.5,
      "durationMs": 9246068,
      "drivingDurationMs": 8231600,
      "idlingDurationMs": 1014468,
      "fuelConsumedMl": 5913,
      "fuelConsumedGallons": 1.562,
      "maxSpeedMph": 60.0,
      "averageSpeedMph": 11.3,
      "safetyEvents": []
    },
    {
      "id": "trip_41724318_20250130_001",
      "vehicleId": "41724318",
      "driverId": "20000007",
      "startMs": 1738248900000,
      "endMs": 1738250570690,
      "startAddress": "4621 Christine Prairie Suite 450",
      "endAddress": "849 Dennis River Suite 591",
      "startCoords": {
        "latitude": 39.751306,
        "longitude": -105.063052
      },
      "endCoords": {
        "latitude": 39.695319,
        "longitude": -104.9127
      },
      "distanceMeters": 10250.2,
      "durationMs": 1670691,
      "drivingDurationMs": 1373532,
      "idlingDurationMs": 297159,
      "fuelConsumedMl": 1302,
      "fuelConsumedGallons": 0.344,
      "maxSpeedMph": 53.4,
      "averageSpeedMph": 13.7,
      "safetyEvents": []
    },
    {
      "id": "trip_41724318_20250130_002",
      "vehicleId": "41724318",
      "driverId": "20000007",
      "startMs": 1738221120000,
      "endMs": 1738233579054,
      "startAddress": "1214 Bruce Turnpike Apt. 830",
      "endAddress": "686 Hannah Freeway Apt. 277",
      "startCoords": {
        "latitude": 39.753069,
        "longitude": -104.906255
      },
      "endCoords": {
        "latitude": 39.714807,
        "longitude": -104.919232
      },
      "distanceMeters": 56913.2,
      "durationMs": 12459054,
      "drivingDurationMs": 10373186,
      "idlingDurationMs": 2085868,
      "fuelConsumedMl": 7238,
      "fuelConsumedGallons": 1.912,
      "maxSpeedMph": 38.0,
      "averageSpeedMph": 10.2,
      "safetyEvents": []
    },
    {
      "id": "trip_41724318_20250130_003",
      "vehicleId": "41724318",
      "driverId": "20000007",
      "startMs": 1738241100000,
      "endMs": 1738250094500,
      "startAddress": "430 Tonya Groves Apt. 413",
      "endAddress": "987 Dominique Lake Suite 643",
      "startCoords": {
        "latitude": 39.80224,
        "longitude": -105.002854
      },
      "endCoords": {
        "latitude": 39.759177,
        "longitude": -104.959758
      },
      "distanceMeters": 55536.1,
      "durationMs": 8994500,
      "drivingDurationMs": 7495629,
      "idlingDurationMs": 1498871,
      "fuelConsumedMl": 7060,
      "fuelConsumedGallons": 1.865,
      "maxSpeedMph": 50.0,
      "averageSpeedMph": 13.8,
      "safetyEvents": []
    },
    {
      "id": "trip_41724318_20250130_004",
      "vehicleId": "41724318",
      "driverId": "20000007",
      "startMs": 1738239780000,
      "endMs": 1738249555469,
      "startAddress": "381 Burns Haven Suite 427",
      "endAddress": "551 Gibbs Station Apt. 244",
      "startCoords": {
        "latitude": 39.804975,
        "longitude": -104.960802
      },
      "endCoords": {
        "latitude": 39.753256,
        "longitude": -104.905012
      },
      "distanceMeters": 51666.2,
      "durationMs": 9775470,
      "drivingDurationMs": 7841608,
      "idlingDurationMs": 1933861,
      "fuelConsumedMl": 6568,
      "fuelConsumedGallons": 1.735,
      "maxSpeedMph": 50.0,
      "averageSpeedMph": 11.8,
      "safetyEvents": []
    },
    {
      "id": "trip_41724318_20250130_005",
      "vehicleId": "41724318",
      "driverId": "20000007",
      "startMs": 1738231320000,
      "endMs": 1738242389944,
      "startAddress": "8086 Daniel Road Apt. 352",
      "endAddress": "2591 Rocha Shore Suite 339",
      "startCoords": {
        "latitude": 39.795038,
        "longitude": -104.929945
      },
      "endCoords": {
        "latitude": 39.700084,
        "longitude": -104.936491
      },
      "distanceMeters": 51475.7,
      "durationMs": 11069945,
      "drivingDurationMs": 9499294,
      "idlingDurationMs": 1570651,
      "fuelConsumedMl": 6545,
      "fuelConsumedGallons": 1.729,
      "maxSpeedMph": 67.8,
      "averageSpeedMph": 10.4,
      "safetyEvents": [
        {
          "type": "speeding",
          "startMs": 1738236240000,
          "maxSpeedMph": 67.8
        }
      ]
    },
    {
      "id": "trip_41724318_20250131_001",
      "vehicleId": "41724318",
      "driverId": "20000006",
      "startMs": 1738328820000,
      "endMs": 1738337104438,
      "startAddress": "544 Barrett Harbors",
      "endAddress": "523 Carson Meadow Suite 683",
      "startCoords": {
        "latitude": 39.69692,
        "longitude": -105.054634
      },
      "endCoords": {
        "latitude": 39.761956,
        "longitude": -104.913289
      },
      "distanceMeters": 56130.1,
      "durationMs": 8284438,
      "drivingDurationMs": 8051041,
      "idlingDurationMs": 233397,
      "fuelConsumedMl": 7135,
      "fuelConsumedGallons": 1.885,
      "maxSpeedMph": 43.9,
      "averageSpeedMph": 15.2,
      "safetyEvents": []
    },
    {
      "id": "trip_41724318_20250131_002",
      "vehicleId": "41724318",
      "driverId": "20000006",
      "startMs": 1738336980000,
      "endMs": 1738340185898,
      "startAddress": "971 Michael Coves",
      "endAddress": "6534 Baker Cape Apt. 301",
      "startCoords": {
        "latitude": 39.792093,
        "longitude": -104.967545
      },
      "endCoords": {
        "latitude": 39.72817,
        "longitude": -105.004223
      },
      "distanceMeters": 14271.1,
      "durationMs": 3205899,
      "drivingDurationMs": 2630786,
      "idlingDurationMs": 575113,
      "fuelConsumedMl": 1813,
      "fuelConsumedGallons": 0.479,
      "maxSpeedMph": 71.6,
      "averageSpeedMph": 10.0,
      "safetyEvents": [
        {
          "type": "speeding",
          "startMs": 1738338480000,
          "maxSpeedMph": 71.6
        }
      ]
    },
    {
      "id": "trip_41724318_20250131_003",
      "vehicleId": "41724318",
      "driverId": "20000006",
      "startMs": 1738327680000,
      "endMs": 1738339421578,
      "startAddress": "70893 Megan Vista",
      "endAddress": "1424 Frank Shoals",
      "startCoords": {
        "latitude": 39.795688,
        "longitude": -105.083276
      },
      "endCoords": {
        "latitude": 39.749849,
        "longitude": -104.954236
      },
      "distanceMeters": 63082.0,
      "durationMs": 11741579,
      "drivingDurationMs": 10707879,
      "idlingDurationMs": 1033699,
      "fuelConsumedMl": 8021,
      "fuelConsumedGallons": 2.119,
      "maxSpeedMph": 65.5,
      "averageSpeedMph": 12.0,
      "safetyEvents": [
        {
          "type": "speeding",
          "startMs": 1738330740000,
          "maxSpeedMph": 65.5
        }
      ]
    },
    {
      "id": "trip_41724318_20250131_004",
      "vehicleId": "41724318",
      "driverId": "20000006",
      "startMs": 1738331280000,
      "endMs": 1738333504848,
      "startAddress": "1770 Flores Manor Suite 924",
      "endAddress": "0260 Adrian Pine Apt. 133",
      "startCoords": {
        "latitude": 39.699723,
        "longitude": -104.907679
      },
      "endCoords": {
        "latitude": 39.684793,
        "longitude": -104.912811
      },
      "distanceMeters": 14850.1,
      "durationMs": 2224848,
      "drivingDurationMs": 1934685,
      "idlingDurationMs": 290164,
      "fuelConsumedMl": 1889,
      "fuelConsumedGallons": 0.499,
      "maxSpeedMph": 44.6,
      "averageSpeedMph": 14.9,
      "safetyEvents": []
    }
  ]
}