{
  "vehicleId": "48291030",
  "vehicleName": "SAL-BOX-01",
  "month": "2025_01",
  "pagination": {
    "endCursor": "trip_48291030_20250131_001",
    "hasNextPage": false
  },
  "trips": [
    {
      "id": "trip_48291030_20250101_001",
      "vehicleId": "48291030",
      "driverId": "22831029",
      "startMs": 1735734060000,
      "endMs": 1735755807007,
      "startLocation": {
        "latitude": 40.774836,
        "longitude": -111.83947
      },
      "endLocation": {
        "latitude": 40.741806,
        "longitude": -111.905465
      },
      "startAddress": "8759 Price Falls Apt. 593",
      "endAddress": "0785 Terri Courts",
      "startCoords": {
        "latitude": 40.743077,
        "longitude": -111.831139
      },
      "endCoords": {
        "latitude": 40.725174,
        "longitude": -111.92858
      },
      "distanceMeters": 189906.5,
      "durationMs": 21747007,
      "drivingDurationMs": 17870273,
      "idlingDurationMs": 3876734,
      "fuelConsumedMl": 42540,
      "fuelConsumedGallons": 11.238,
      "maxSpeedMph": 47.4,
      "averageSpeedMph": 19.5,
      "safetyEvents": [],
      "_no_driver_login": false,
      "_fuel_note": "QUIRK 5: fuelConsumedGallons is in US gallons. Multiply by 3.785 for litres. Samsara does not link fuel to specific Onfleet tasks."
    },
    {
      "id": "trip_48291030_20250102_001",
      "vehicleId": "48291030",
      "driverId": "22831029",
      "startMs": 1735821960000,
      "endMs": 1735830583960,
      "startLocation": {
        "latitude": 40.782367,
        "longitude": -111.813892
      },
      "endLocation": {
        "latitude": 40.731176,
        "longitude": -111.877009
      },
      "startAddress": "79056 Morris Courts Suite 135",
      "endAddress": "529 Cox Mews Apt. 718",
      "startCoords": {
        "latitude": 40.775337,
        "longitude": -111.954033
      },
      "endCoords": {
        "latitude": 40.799672,
        "longitude": -111.86438
      },
      "distanceMeters": 89450.5,
      "durationMs": 8623961,
      "drivingDurationMs": 7234718,
      "idlingDurationMs": 1389242,
      "fuelConsumedMl": 20040,
      "fuelConsumedGallons": 5.294,
      "maxSpeedMph": 54.1,
      "averageSpeedMph": 23.2,
      "safetyEvents": [],
      "_no_driver_login": false,
      "_fuel_note": "QUIRK 5: fuelConsumedGallons is in US gallons. Multiply by 3.785 for litres. Samsara does not link fuel to specific Onfleet tasks."
    },
    {
      "id": "trip_48291030_20250103_001",
      "vehicleId": "48291030",
      "driverId": "22831029",
      "startMs": 1735906740000,
      "endMs": 1735925776932,
      "startLocation": {
        "latitude": 40.789061,
        "longitude": -111.854873
      },
      "endLocation": {
        "latitude": 40.692444,
        "longitude": -111.944183
      },
      "startAddress": "00389 Fleming Street",
      "endAddress": "706 Dominguez Meadows",
      "startCoords": {
        "latitude": 40.702882,
        "longitude": -111.843265
      },
      "endCoords": {
        "latitude": 40.712137,
        "longitude": -111.787984
      },
      "distanceMeters": 175833.6,
      "durationMs": 19036933,
      "drivingDurationMs": 15257242,
      "idlingDurationMs": 3779691,
      "fuelConsumedMl": 39391,
      "fuelConsumedGallons": 10.406,
      "maxSpeedMph": 59.4,
      "averageSpeedMph": 20.7,
      "safetyEvents": [],
      "_no_driver_login": false,
      "_fuel_note": "QUIRK 5: fuelConsumedGallons is in US gallons. Multiply by 3.785 for litres. Samsara does not link fuel to specific Onfleet tasks."
    },
    {
      "id": "trip_48291030_20250105_001",
      "vehicleId": "48291030",
      "driverId": "22831029",
      "startMs": 1736064120000,
      "endMs": 1736087898714,
      "startLocation": {
        "latitude": 40.788375,
        "longitude": -111.79145
      },
      "endLocation": {
        "latitude": 40.675234,
        "longitude": -111.905027
      },
      "startAddress": "38187 Blankenship Prairie",
      "endAddress": "82832 Rebecca Pass",
      "startCoords": {
        "latitude": 40.686071,
        "longitude": -111.916099
      },
      "endCoords": {
        "latitude": 40.76592,
        "longitude": -111.872176
      },
      "distanceMeters": 216081.7,
      "durationMs": 23778715,
      "drivingDurationMs": 22114590,
      "idlingDurationMs": 1664124,
      "fuelConsumedMl": 48404,
      "fuelConsumedGallons": 12.787,
      "maxSpeedMph": 60.7,
      "averageSpeedMph": 20.3,
      "safetyEvents": [],
      "_no_driver_login": false,
      "_fuel_note": "QUIRK 5: fuelConsumedGallons is in US gallons. Multiply by 3.785 for litres. Samsara does not link fuel to specific Onfleet tasks."
    },
    {
      "id": "trip_48291030_20250106_001",
      "vehicleId": "48291030",
      "driverId": "22831029",
      "startMs": 1736151180000,
      "endMs": 1736164437461,
      "startLocation": {
        "latitude": 40.726602,
        "longitude": -111.91046
      },
      "endLocation": {
        "latitude": 40.663181,
        "longitude": -111.961442
      },
      "startAddress": "8566 Bautista Locks",
      "endAddress": "196 Jeff Shoals Apt. 192",
      "startCoords": {
        "latitude": 40.722951,
        "longitude": -111.950459
      },
      "endCoords": {
        "latitude": 40.784263,
        "longitude": -111.9508
      },
      "distanceMeters": 103950.1,
      "durationMs": 13257461,
      "drivingDurationMs": 11313948,
      "idlingDurationMs": 1943514,
      "fuelConsumedMl": 23288,
      "fuelConsumedGallons": 6.152,
      "maxSpeedMph": 69.7,
      "averageSpeedMph": 17.5,
      "safetyEvents": [
        {
          "type": "speeding",
          "startMs": 1736158320000,
          "maxSpeedMph": 69.7
        }
      ],
      "_no_driver_login": false,
      "_fuel_note": "QUIRK 5: fuelConsumedGallons is in US gallons. Multiply by 3.785 for litres. Samsara does not link fuel to specific Onfleet tasks."
    },
    {
      "id": "trip_48291030_20250107_001",
      "vehicleId": "48291030",
      "driverId": "22831029",
      "startMs": 1736247300000,
      "endMs": 1736252719395,
      "startLocation": {
        "latitude": 40.679553,
        "longitude": -111.951858
      },
      "endLocation": {
        "latitude": 40.73558,
        "longitude": -111.846245
      },
      "startAddress": "497 John Island Apt. 675",
      "endAddress": "968 Wendy Field Suite 570",
      "startCoords": {
        "latitude": 40.733484,
        "longitude": -111.844319
      },
      "endCoords": {
        "latitude": 40.777019,
        "longitude": -111.91898
      },
      "distanceMeters": 40149.9,
      "durationMs": 5419395,
      "drivingDurationMs": 4724857,
      "idlingDurationMs": 694538,
      "fuelConsumedMl": 8994,
      "fuelConsumedGallons": 2.376,
      "maxSpeedMph": 35.4,
      "averageSpeedMph": 16.6,
      "safetyEvents": [],
      "_no_driver_login": false,
      "_fuel_note": "QUIRK 5: fuelConsumedGallons is in US gallons. Multiply by 3.785 for litres. Samsara does not link fuel to specific Onfleet tasks."
    },
    {
      "id": "trip_48291030_20250108_001",
      "vehicleId": "48291030",
      "driverId": "22831029",
      "startMs": 1736341980000,
      "endMs": 1736357044327,
      "startLocation": {
        "latitude": 40.757918,
        "longitude": -111.928993
      },
      "endLocation": {
        "latitude": 40.74888,
        "longitude": -111.871261
      },
      "startAddress": "483 Barton Rapid",
      "endAddress": "6680 Graham Square",
      "startCoords": {
        "latitude": 40.671467,
        "longitude": -111.947898
      },
      "endCoords": {
        "latitude": 40.723124,
        "longitude": -111.892184
      },
      "distanceMeters": 193459.5,
      "durationMs": 15064328,
      "drivingDurationMs": 14437687,
      "idlingDurationMs": 626641,
      "fuelConsumedMl": 43339,
      "fuelConsumedGallons": 11.449,
      "maxSpeedMph": 60.1,
      "averageSpeedMph": 28.7,
      "safetyEvents": [],
      "_no_driver_login": false,
      "_fuel_note": "QUIRK 5: fuelConsumedGallons is in US gallons. Multiply by 3.785 for litres. Samsara does not link fuel to specific Onfleet tasks."
    },
    {
      "id": "trip_48291030_20250109_001",
      "vehicleId": "48291030",
      "driverId": null,
      "startMs": 1736442540000,
      "endMs": 1736456400000,
      "startLocation": {
        "latitude": 40.667662,
        "longitude": -111.828476
      },
      "endLocation": {
        "latitude": 40.700498,
        "longitude": -111.826461
      },
      "startAddress": "7487 Smith Mountains",
      "endAddress": "253 Matthew Court",
      "startCoords": {
        "latitude": 40.705426,
        "longitude": -111.784644
      },
      "endCoords": {
        "latitude": 40.713543,
        "longitude": -111.941686
      },
      "distanceMeters": 109593.4,
      "durationMs": 13860000,
      "drivingDurationMs": 12064981,
      "idlingDurationMs": 1795019,
      "fuelConsumedMl": 24552,
      "fuelConsumedGallons": 6.486,
      "maxSpeedMph": 28.2,
      "averageSpeedMph": 17.7,
      "safetyEvents": [],
      "_no_driver_login": true,
      "_fuel_note": "QUIRK 5: fuelConsumedGallons is in US gallons. Multiply by 3.785 for litres. Samsara does not link fuel to specific Onfleet tasks."
    },
    {
      "id": "trip_48291030_20250110_001",
      "vehicleId": "48291030",
      "driverId": "22831029",
      "startMs": 1736515140000,
      "endMs": 1736526347526,
      "startLocation": {
        "latitude": 40.67373,
        "longitude": -111.797108
      },
      "endLocation": {
        "latitude": 40.761988,
        "longitude": -111.904746
      },
      "startAddress": "2936 Taylor Pine Suite 179",
      "endAddress": "67990 Lisa Avenue Apt. 719",
      "startCoords": {
        "latitude": 40.786917,
        "longitude": -111.817988
      },
      "endCoords": {
        "latitude": 40.677828,
        "longitude": -111.859791
      },
      "distanceMeters": 94233.7,
      "durationMs": 11207527,
      "drivingDurationMs": 9734193,
      "idlingDurationMs": 1473334,
      "fuelConsumedMl": 21111,
      "fuelConsumedGallons": 5.577,
      "maxSpeedMph": 61.9,
      "averageSpeedMph": 18.8,
      "safetyEvents": [],
      "_no_driver_login": false,
      "_fuel_note": "QUIRK 5: fuelConsumedGallons is in US gallons. Multiply by 3.785 for litres. Samsara does not link fuel to specific Onfleet tasks."
    },
    {
      "id": "trip_48291030_20250112_001",
      "vehicleId": "48291030",
      "driverId": "22831029",
      "startMs": 1736676000000,
      "endMs": 1736682261358,
      "startLocation": {
        "latitude": 40.7189,
        "longitude": -111.837308
      },
      "endLocation": {
        "latitude": 40.709173,
        "longitude": -111.947997
      },
      "startAddress": "51995 Angela Rapid Apt. 056",
      "endAddress": "52635 Miller Union Suite 352",
      "startCoords": {
        "latitude": 40.664518,
        "longitude": -111.869669
      },
      "endCoords": {
        "latitude": 40.660641,
        "longitude": -111.933854
      },
      "distanceMeters": 68201.9,
      "durationMs": 6261358,
      "drivingDurationMs": 5683778,
      "idlingDurationMs": 577580,
      "fuelConsumedMl": 15278,
      "fuelConsumedGallons": 4.036,
      "maxSpeedMph": 60.7,
      "averageSpeedMph": 24.4,
      "safetyEvents": [],
      "_no_driver_login": false,
      "_fuel_note": "QUIRK 5: fuelConsumedGallons is in US gallons. Multiply by 3.785 for litres. Samsara does not link fuel to specific Onfleet tasks."
    },
    {
      "id": "trip_48291030_20250113_001",
      "vehicleId": "48291030",
      "driverId": "22831029",
      "startMs": 1736788740000,
      "endMs": 1736801596823,
      "startLocation": {
        "latitude": 40.677596,
        "longitude": -111.880436
      },
      "endLocation": {
        "latitude": 40.76706,
        "longitude": -111.905431
      },
      "startAddress": "07248 Garcia Springs",
      "endAddress": "6230 Jimenez Burgs",
      "startCoords": {
        "latitude": 40.792664,
        "longitude": -111.868358
      },
      "endCoords": {
        "latitude": 40.75641,
        "longitude": -111.85605
      },
      "distanceMeters": 134870.8,
      "durationMs": 12856823,
      "drivingDurationMs": 12437153,
      "idlingDurationMs": 419671,
      "fuelConsumedMl": 30211,
      "fuelConsumedGallons": 7.981,
      "maxSpeedMph": 46.4,
      "averageSpeedMph": 23.5,
      "safetyEvents": [],
      "_no_driver_login": false,
      "_fuel_note": "QUIRK 5: fuelConsumedGallons is in US gallons. Multiply by 3.785 for litres. Samsara does not link fuel to specific Onfleet tasks."
    },
    {
      "id": "trip_48291030_20250114_001",
      "vehicleId": "48291030",
      "driverId": "22831029",
      "startMs": 1736854560000,
      "endMs": 1736867133396,
      "startLocation": {
        "latitude": 40.751742,
        "longitude": -111.816452
      },
      "endLocation": {
        "latitude": 40.692282,
        "longitude": -111.89743
      },
      "startAddress": "162 Gonzalez Parks Suite 744",
      "endAddress": "21242 Lisa Underpass",
      "startCoords": {
        "latitude": 40.685763,
        "longitude": -111.793167
      },
      "endCoords": {
        "latitude": 40.734173,
        "longitude": -111.802221
      },
      "distanceMeters": 121062.2,
      "durationMs": 12573396,
      "drivingDurationMs": 10849642,
      "idlingDurationMs": 1723755,
      "fuelConsumedMl": 27119,
      "fuelConsumedGallons": 7.164,
      "maxSpeedMph": 32.1,
      "averageSpeedMph": 21.5,
      "safetyEvents": [],
      "_no_driver_login": false,
      "_fuel_note": "QUIRK 5: fuelConsumedGallons is in US gallons. Multiply by 3.785 for litres. Samsara does not link fuel to specific Onfleet tasks."
    },
    {
      "id": "trip_48291030_20250115_001",
      "vehicleId": "48291030",
      "driverId": "22831029",
      "startMs": 1736956680000,
      "endMs": 1736972494269,
      "startLocation": {
        "latitude": 40.725594,
        "longitude": -111.848996
      },
      "endLocation": {
        "latitude": 40.683593,
        "longitude": -111.794736
      },
      "startAddress": "6160 Amy Prairie Suite 260",
      "endAddress": "228 Knight Station Suite 141",
      "startCoords": {
        "latitude": 40.780439,
        "longitude": -111.812052
      },
      "endCoords": {
        "latitude": 40.797558,
        "longitude": -111.868955
      },
      "distanceMeters": 199908.9,
      "durationMs": 15814270,
      "drivingDurationMs": 13612868,
      "idlingDurationMs": 2201402,
      "fuelConsumedMl": 44781,
      "fuelConsumedGallons": 11.83,
      "maxSpeedMph": 30.6,
      "averageSpeedMph": 28.3,
      "safetyEvents": [],
      "_no_driver_login": false,
      "_fuel_note": "QUIRK 5: fuelConsumedGallons is in US gallons. Multiply by 3.785 for litres. Samsara does not link fuel to specific Onfleet tasks."
    },
    {
      "id": "trip_48291030_20250116_001",
      "vehicleId": "48291030",
      "driverId": "22831029",
      "startMs": 1737044220000,
      "endMs": 1737059385618,
      "startLocation": {
        "latitude": 40.733342,
        "longitude": -111.779667
      },
      "endLocation": {
        "latitude": 40.752687,
        "longitude": -111.952269
      },
      "startAddress": "9312 Susan Extension",
      "endAddress": "4955 John Bridge Suite 958",
      "startCoords": {
        "latitude": 40.705968,
        "longitude": -111.786249
      },
      "endCoords": {
        "latitude": 40.766952,
        "longitude": -111.883398
      },
      "distanceMeters": 147503.2,
      "durationMs": 15165618,
      "drivingDurationMs": 12770607,
      "idlingDurationMs": 2395011,
      "fuelConsumedMl": 33043,
      "fuelConsumedGallons": 8.729,
      "maxSpeedMph": 28.8,
      "averageSpeedMph": 21.8,
      "safetyEvents": [],
      "_no_driver_login": false,
      "_fuel_note": "QUIRK 5: fuelConsumedGallons is in US gallons. Multiply by 3.785 for litres. Samsara does not link fuel to specific Onfleet tasks."
    },
    {
      "id": "trip_48291030_20250117_001",
      "vehicleId": "48291030",
      "driverId": "22831029",
      "startMs": 1737124200000,
      "endMs": 1737142644949,
      "startLocation": {
        "latitude": 40.784578,
        "longitude": -111.845835
      },
      "endLocation": {
        "latitude": 40.748892,
        "longitude": -111.875626
      },
      "startAddress": "9230 Neal Manors Apt. 901",
      "endAddress": "484 Tara Estates Suite 671",
      "startCoords": {
        "latitude": 40.680969,
        "longitude": -111.902844
      },
      "endCoords": {
        "latitude": 40.67146,
        "longitude": -111.840068
      },
      "distanceMeters": 205974.8,
      "durationMs": 18444949,
      "drivingDurationMs": 16088317,
      "idlingDurationMs": 2356632,
      "fuelConsumedMl": 46140,
      "fuelConsumedGallons": 12.189,
      "maxSpeedMph": 30.6,
      "averageSpeedMph": 25.0,
      "safetyEvents": [],
      "_no_driver_login": false,
      "_fuel_note": "QUIRK 5: fuelConsumedGallons is in US gallons. Multiply by 3.785 for litres. Samsara does not link fuel to specific Onfleet tasks."
    },
    {
      "id": "trip_48291030_20250118_001",
      "vehicleId": "48291030",
      "driverId": "22831029",
      "startMs": 1737213420000,
      "endMs": 1737216311332,
      "startLocation": {
        "latitude": 40.764297,
        "longitude": -111.783268
      },
      "endLocation": {
        "latitude": 40.725971,
        "longitude": -111.84548
      },
      "startAddress": "3946 Nathan Street",
      "endAddress": "868 Logan Harbors",
      "startCoords": {
        "latitude": 40.670736,
        "longitude": -111.912233
      },
      "endCoords": {
        "latitude": 40.776273,
        "longitude": -111.850759
      },
      "distanceMeters": 37562.5,
      "durationMs": 2891332,
      "drivingDurationMs": 2507527,
      "idlingDurationMs": 383806,
      "fuelConsumedMl": 8415,
      "fuelConsumedGallons": 2.223,
      "maxSpeedMph": 64.6,
      "averageSpeedMph": 29.1,
      "safetyEvents": [],
      "_no_driver_login": false,
      "_fuel_note": "QUIRK 5: fuelConsumedGallons is in US gallons. Multiply by 3.785 for litres. Samsara does not link fuel to specific Onfleet tasks."
    },
    {
      "id": "trip_48291030_20250119_001",
      "vehicleId": "48291030",
      "driverId": "22831029",
      "startMs": 1737288600000,
      "endMs": 1737305550949,
      "startLocation": {
        "latitude": 40.751165,
        "longitude": -111.82391
      },
      "endLocation": {
        "latitude": 40.792734,
        "longitude": -111.825062
      },
      "startAddress": "373 Leah Locks",
      "endAddress": "81944 Hart Circle Apt. 084",
      "startCoords": {
        "latitude": 40.794769,
        "longitude": -111.84121
      },
      "endCoords": {
        "latitude": 40.681736,
        "longitude": -111.955418
      },
      "distanceMeters": 190557.8,
      "durationMs": 16950949,
      "drivingDurationMs": 14141468,
      "idlingDurationMs": 2809481,
      "fuelConsumedMl": 42688,
      "fuelConsumedGallons": 11.277,
      "maxSpeedMph": 48.6,
      "averageSpeedMph": 25.1,
      "safetyEvents": [],
      "_no_driver_login": false,
      "_fuel_note": "QUIRK 5: fuelConsumedGallons is in US gallons. Multiply by 3.785 for litres. Samsara does not link fuel to specific Onfleet tasks."
    },
    {
      "id": "trip_48291030_20250120_001",
      "vehicleId": "48291030",
      "driverId": "22831029",
      "startMs": 1737363300000,
      "endMs": 1737369983141,
      "startLocation": {
        "latitude": 40.708171,
        "longitude": -111.809756
      },
      "endLocation": {
        "latitude": 40.659351,
        "longitude": -111.869208
      },
      "startAddress": "30745 Thomas Rapid Apt. 035",
      "endAddress": "057 Melissa Flat",
      "startCoords": {
        "latitude": 40.688303,
        "longitude": -111.92471
      },
      "endCoords": {
        "latitude": 40.710531,
        "longitude": -111.940769
      },
      "distanceMeters": 46521.2,
      "durationMs": 6683141,
      "drivingDurationMs": 5882581,
      "idlingDurationMs": 800561,
      "fuelConsumedMl": 10421,
      "fuelConsumedGallons": 2.753,
      "maxSpeedMph": 50.1,
      "averageSpeedMph": 15.6,
      "safetyEvents": [],
      "_no_driver_login": false,
      "_fuel_note": "QUIRK 5: fuelConsumedGallons is in US gallons. Multiply by 3.785 for litres. Samsara does not link fuel to specific Onfleet tasks."
    },
    {
      "id": "trip_48291030_20250121_001",
      "vehicleId": "48291030",
      "driverId": "22831029",
      "startMs": 1737453060000,
      "endMs": 1737456037692,
      "startLocation": {
        "latitude": 40.77482,
        "longitude": -111.950454
      },
      "endLocation": {
        "latitude": 40.715186,
        "longitude": -111.914719
      },
      "startAddress": "66103 Daniel Pine",
      "endAddress": "05025 Jones Causeway Suite 294",
      "startCoords": {
        "latitude": 40.771401,
        "longitude": -111.774915
      },
      "endCoords": {
        "latitude": 40.782294,
        "longitude": -111.878656
      },
      "distanceMeters": 36789.4,
      "durationMs": 2977693,
      "drivingDurationMs": 2429825,
      "idlingDurationMs": 547868,
      "fuelConsumedMl": 8241,
      "fuelConsumedGallons": 2.177,
      "maxSpeedMph": 50.4,
      "averageSpeedMph": 27.6,
      "safetyEvents": [],
      "_no_driver_login": false,
      "_fuel_note": "QUIRK 5: fuelConsumedGallons is in US gallons. Multiply by 3.785 for litres. Samsara does not link fuel to specific Onfleet tasks."
    },
    {
      "id": "trip_48291030_20250122_001",
      "vehicleId": "48291030",
      "driverId": "22831029",
      "startMs": 1737537660000,
      "endMs": 1737549299478,
      "startLocation": {
        "latitude": 40.703612,
        "longitude": -111.848612
      },
      "endLocation": {
        "latitude": 40.785607,
        "longitude": -111.806665
      },
      "startAddress": "7157 Hall Crossing",
      "endAddress": "3639 Ryan Light Apt. 361",
      "startCoords": {
        "latitude": 40.708209,
        "longitude": -111.785731
      },
      "endCoords": {
        "latitude": 40.796277,
        "longitude": -111.917647
      },
      "distanceMeters": 131359.6,
      "durationMs": 11639479,
      "drivingDurationMs": 10938874,
      "idlingDurationMs": 700604,
      "fuelConsumedMl": 29428,
      "fuelConsumedGallons": 7.774,
      "maxSpeedMph": 59.9,
      "averageSpeedMph": 25.2,
      "safetyEvents": [],
      "_no_driver_login": false,
      "_fuel_note": "QUIRK 5: fuelConsumedGallons is in US gallons. Multiply by 3.785 for litres. Samsara does not link fuel to specific Onfleet tasks."
    },
    {
      "id": "trip_48291030_20250123_001",
      "vehicleId": "48291030",
      "driverId": "22831029",
      "startMs": 1737651000000,
      "endMs": 1737666000000,
      "startLocation": {
        "latitude": 40.729897,
        "longitude": -111.902206
      },
      "endLocation": {
        "latitude": 40.772791,
        "longitude": -111.951714
      },
      "startAddress": "432 Michael Burgs Apt. 943",
      "endAddress": "9607 Ramirez Viaduct Suite 422",
      "startCoords": {
        "latitude": 40.673597,
        "longitude": -111.926555
      },
      "endCoords": {
        "latitude": 40.692833,
        "longitude": -111.80959
      },
      "distanceMeters": 127150.1,
      "durationMs": 15000000,
      "drivingDurationMs": 14637737,
      "idlingDurationMs": 362263,
      "fuelConsumedMl": 28485,
      "fuelConsumedGallons": 7.525,
      "maxSpeedMph": 44.9,
      "averageSpeedMph": 19.0,
      "safetyEvents": [],
      "_no_driver_login": false,
      "_fuel_note": "QUIRK 5: fuelConsumedGallons is in US gallons. Multiply by 3.785 for litres. Samsara does not link fuel to specific Onfleet tasks."
    },
    {
      "id": "trip_48291030_20250124_001",
      "vehicleId": "48291030",
      "driverId": "22831029",
      "startMs": 1737698700000,
      "endMs": 1737714001604,
      "startLocation": {
        "latitude": 40.680889,
        "longitude": -111.864407
      },
      "endLocation": {
        "latitude": 40.773623,
        "longitude": -111.874725
      },
      "startAddress": "81810 Sierra Roads",
      "endAddress": "0253 Frederick Square",
      "startCoords": {
        "latitude": 40.708999,
        "longitude": -111.840482
      },
      "endCoords": {
        "latitude": 40.760036,
        "longitude": -111.876442
      },
      "distanceMeters": 177477.6,
      "durationMs": 15301604,
      "drivingDurationMs": 14998673,
      "idlingDurationMs": 302931,
      "fuelConsumedMl": 39758,
      "fuelConsumedGallons": 10.503,
      "maxSpeedMph": 66.8,
      "averageSpeedMph": 25.9,
      "safetyEvents": [
        {
          "type": "speeding",
          "startMs": 1737701100000,
          "maxSpeedMph": 66.8
        }
      ],
      "_no_driver_login": false,
      "_fuel_note": "QUIRK 5: fuelConsumedGallons is in US gallons. Multiply by 3.785 for litres. Samsara does not link fuel to specific Onfleet tasks."
    },
    {
      "id": "trip_48291030_20250125_001",
      "vehicleId": "48291030",
      "driverId": "22831029",
      "startMs": 1737828960000,
      "endMs": 1737836569236,
      "startLocation": {
        "latitude": 40.756346,
        "longitude": -111.868457
      },
      "endLocation": {
        "latitude": 40.725845,
        "longitude": -111.911628
      },
      "startAddress": "087 Matthews Plaza",
      "endAddress": "745 Sanchez Mountains",
      "startCoords": {
        "latitude": 40.698056,
        "longitude": -111.79587
      },
      "endCoords": {
        "latitude": 40.65934,
        "longitude": -111.804709
      },
      "distanceMeters": 84430.1,
      "durationMs": 7609236,
      "drivingDurationMs": 7391133,
      "idlingDurationMs": 218103,
      "fuelConsumedMl": 18912,
      "fuelConsumedGallons": 4.996,
      "maxSpeedMph": 37.7,
      "averageSpeedMph": 24.8,
      "safetyEvents": [],
      "_no_driver_login": false,
      "_fuel_note": "QUIRK 5: fuelConsumedGallons is in US gallons. Multiply by 3.785 for litres. Samsara does not link fuel to specific Onfleet tasks."
    },
    {
      "id": "trip_48291030_20250126_001",
      "vehicleId": "48291030",
      "driverId": "22831029",
      "startMs": 1737898140000,
      "endMs": 1737923075140,
      "startLocation": {
        "latitude": 40.788573,
        "longitude": -111.914575
      },
      "endLocation": {
        "latitude": 40.660288,
        "longitude": -111.8021
      },
      "startAddress": "513 Francis Dale",
      "endAddress": "5098 David Roads Apt. 569",
      "startCoords": {
        "latitude": 40.691732,
        "longitude": -111.893873
      },
      "endCoords": {
        "latitude": 40.79732,
        "longitude": -111.920412
      },
      "distanceMeters": 185390.9,
      "durationMs": 24935141,
      "drivingDurationMs": 22045427,
      "idlingDurationMs": 2889714,
      "fuelConsumedMl": 41530,
      "fuelConsumedGallons": 10.971,
      "maxSpeedMph": 32.5,
      "averageSpeedMph": 16.6,
      "safetyEvents": [],
      "_no_driver_login": false,
      "_fuel_note": "QUIRK 5: fuelConsumedGallons is in US gallons. Multiply by 3.785 for litres. Samsara does not link fuel to specific Onfleet tasks."
    },
    {
      "id": "trip_48291030_20250127_001",
      "vehicleId": "48291030",
      "driverId": "22831029",
      "startMs": 1737958140000,
      "endMs": 1737964215178,
      "startLocation": {
        "latitude": 40.776463,
        "longitude": -111.81454
      },
      "endLocation": {
        "latitude": 40.700326,
        "longitude": -111.887397
      },
      "startAddress": "85938 Johnson Meadow",
      "endAddress": "8020 Jonathan Spring Apt. 331",
      "startCoords": {
        "latitude": 40.788166,
        "longitude": -111.784291
      },
      "endCoords": {
        "latitude": 40.725321,
        "longitude": -111.855157
      },
      "distanceMeters": 71260.6,
      "durationMs": 6075179,
      "drivingDurationMs": 5686585,
      "idlingDurationMs": 388593,
      "fuelConsumedMl": 15963,
      "fuelConsumedGallons": 4.217,
      "maxSpeedMph": 66.8,
      "averageSpeedMph": 26.2,
      "safetyEvents": [
        {
          "type": "speeding",
          "startMs": 1737962040000,
          "maxSpeedMph": 66.8
        }
      ],
      "_no_driver_login": false,
      "_fuel_note": "QUIRK 5: fuelConsumedGallons is in US gallons. Multiply by 3.785 for litres. Samsara does not link fuel to specific Onfleet tasks."
    },
    {
      "id": "trip_48291030_20250128_001",
      "vehicleId": "48291030",
      "driverId": "22831029",
      "startMs": 1738089420000,
      "endMs": 1738095029178,
      "startLocation": {
        "latitude": 40.790627,
        "longitude": -111.907494
      },
      "endLocation": {
        "latitude": 40.740728,
        "longitude": -111.950923
      },
      "startAddress": "74546 Powell Manors",
      "endAddress": "973 Daniel Fords Apt. 995",
      "startCoords": {
        "latitude": 40.711991,
        "longitude": -111.887749
      },
      "endCoords": {
        "latitude": 40.658011,
        "longitude": -111.863115
      },
      "distanceMeters": 68059.8,
      "durationMs": 5609179,
      "drivingDurationMs": 5239558,
      "idlingDurationMs": 369621,
      "fuelConsumedMl": 15248,
      "fuelConsumedGallons": 4.028,
      "maxSpeedMph": 33.2,
      "averageSpeedMph": 27.1,
      "safetyEvents": [],
      "_no_driver_login": false,
      "_fuel_note": "QUIRK 5: fuelConsumedGallons is in US gallons. Multiply by 3.785 for litres. Samsara does not link fuel to specific Onfleet tasks."
    },
    {
      "id": "trip_48291030_20250129_001",
      "vehicleId": "48291030",
      "driverId": "22831029",
      "startMs": 1738133880000,
      "endMs": 1738137964714,
      "startLocation": {
        "latitude": 40.799046,
        "longitude": -111.937822
      },
      "endLocation": {
        "latitude": 40.660659,
        "longitude": -111.886855
      },
      "startAddress": "974 Pamela Haven",
      "endAddress": "3055 Tina Ridges",
      "startCoords": {
        "latitude": 40.737236,
        "longitude": -111.956542
      },
      "endCoords": {
        "latitude": 40.68881,
        "longitude": -111.910082
      },
      "distanceMeters": 39360.2,
      "durationMs": 4084715,
      "drivingDurationMs": 3354572,
      "idlingDurationMs": 730143,
      "fuelConsumedMl": 8816,
      "fuelConsumedGallons": 2.329,
      "maxSpeedMph": 54.9,
      "averageSpeedMph": 21.6,
      "safetyEvents": [],
      "_no_driver_login": false,
      "_fuel_note": "QUIRK 5: fuelConsumedGallons is in US gallons. Multiply by 3.785 for litres. Samsara does not link fuel to specific Onfleet tasks."
    },
    {
      "id": "trip_48291030_20250130_001",
      "vehicleId": "48291030",
      "driverId": "22831029",
      "startMs": 1738235340000,
      "endMs": 1738245594443,
      "startLocation": {
        "latitude": 40.72969,
        "longitude": -111.794055
      },
      "endLocation": {
        "latitude": 40.786973,
        "longitude": -111.838295
      },
      "startAddress": "2159 Bennett Light",
      "endAddress": "923 Bell Fields",
      "startCoords": {
        "latitude": 40.664699,
        "longitude": -111.804909
      },
      "endCoords": {
        "latitude": 40.728359,
        "longitude": -111.914926
      },
      "distanceMeters": 101021.0,
      "durationMs": 10254444,
      "drivingDurationMs": 8708711,
      "idlingDurationMs": 1545733,
      "fuelConsumedMl": 22629,
      "fuelConsumedGallons": 5.978,
      "maxSpeedMph": 50.6,
      "averageSpeedMph": 22.0,
      "safetyEvents": [],
      "_no_driver_login": false,
      "_fuel_note": "QUIRK 5: fuelConsumedGallons is in US gallons. Multiply by 3.785 for litres. Samsara does not link fuel to specific Onfleet tasks."
    },
    {
      "id": "trip_48291030_20250131_001",
      "vehicleId": "48291030",
      "driverId": "22831029",
      "startMs": 1738306740000,
      "endMs": 1738323140920,
      "startLocation": {
        "latitude": 40.707293,
        "longitude": -111.82431
      },
      "endLocation": {
        "latitude": 40.788705,
        "longitude": -111.854122
      },
      "startAddress": "7892 Anna Courts Apt. 985",
      "endAddress": "31165 Massey Land Apt. 226",
      "startCoords": {
        "latitude": 40.747908,
        "longitude": -111.844197
      },
      "endCoords": {
        "latitude": 40.694558,
        "longitude": -111.853563
      },
      "distanceMeters": 198172.1,
      "durationMs": 16400920,
      "drivingDurationMs": 13766817,
      "idlingDurationMs": 2634103,
      "fuelConsumedMl": 44392,
      "fuelConsumedGallons": 11.727,
      "maxSpeedMph": 71.7,
      "averageSpeedMph": 27.0,
      "safetyEvents": [
        {
          "type": "speeding",
          "startMs": 1738308960000,
          "maxSpeedMph": 71.7
        }
      ],
      "_no_driver_login": false,
      "_fuel_note": "QUIRK 5: fuelConsumedGallons is in US gallons. Multiply by 3.785 for litres. Samsara does not link fuel to specific Onfleet tasks."
    }
  ]
}