{
  "vehicleId": "48271925",
  "vehicleName": "SLC-VAN-03",
  "month": "2025_01",
  "pagination": {
    "endCursor": "trip_48271925_20250131_005",
    "hasNextPage": false
  },
  "trips": [
    {
      "id": "trip_48271925_20250101_001",
      "vehicleId": "48271925",
      "driverId": "20000034",
      "startMs": 1735712400000,
      "endMs": 1735723642160,
      "startAddress": "251 Kevin Falls",
      "endAddress": "286 Carlson Ports Suite 627",
      "startCoords": {
        "latitude": 40.69748,
        "longitude": -111.805827
      },
      "endCoords": {
        "latitude": 40.756463,
        "longitude": -111.935892
      },
      "distanceMeters": 79466.1,
      "durationMs": 11242161,
      "drivingDurationMs": 9616558,
      "idlingDurationMs": 1625603,
      "fuelConsumedMl": 10103,
      "fuelConsumedGallons": 2.669,
      "maxSpeedMph": 62.8,
      "averageSpeedMph": 15.8,
      "safetyEvents": []
    },
    {
      "id": "trip_48271925_20250101_002",
      "vehicleId": "48271925",
      "driverId": "20000034",
      "startMs": 1735752600000,
      "endMs": 1735761071410,
      "startAddress": "274 Jacob Ville",
      "endAddress": "050 Taylor Via Suite 887",
      "startCoords": {
        "latitude": 40.735235,
        "longitude": -111.825126
      },
      "endCoords": {
        "latitude": 40.732203,
        "longitude": -111.941088
      },
      "distanceMeters": 40888.1,
      "durationMs": 8471410,
      "drivingDurationMs": 8144360,
      "idlingDurationMs": 327050,
      "fuelConsumedMl": 5197,
      "fuelConsumedGallons": 1.373,
      "maxSpeedMph": 39.3,
      "averageSpeedMph": 10.8,
      "safetyEvents": []
    },
    {
      "id": "trip_48271925_20250101_003",
      "vehicleId": "48271925",
      "driverId": "20000034",
      "startMs": 1735726500000,
      "endMs": 1735732803313,
      "startAddress": "767 Jackson Port Apt. 340",
      "endAddress": "84279 Dunn Creek Apt. 485",
      "startCoords": {
        "latitude": 40.672107,
        "longitude": -111.791637
      },
      "endCoords": {
        "latitude": 40.742144,
        "longitude": -111.958924
      },
      "distanceMeters": 29092.1,
      "durationMs": 6303314,
      "drivingDurationMs": 5610070,
      "idlingDurationMs": 693244,
      "fuelConsumedMl": 3698,
      "fuelConsumedGallons": 0.977,
      "maxSpeedMph": 62.9,
      "averageSpeedMph": 10.3,
      "safetyEvents": []
    },
    {
      "id": "trip_48271925_20250101_004",
      "vehicleId": "48271925",
      "driverId": "20000034",
      "startMs": 1735742160000,
      "endMs": 1735747114637,
      "startAddress": "783 Garcia Village",
      "endAddress": "0745 Scott Crest",
      "startCoords": {
        "latitude": 40.716174,
        "longitude": -111.83696
      },
      "endCoords": {
        "latitude": 40.668469,
        "longitude": -111.778553
      },
      "distanceMeters": 24355.1,
      "durationMs": 4954638,
      "drivingDurationMs": 4381702,
      "idlingDurationMs": 572936,
      "fuelConsumedMl": 3096,
      "fuelConsumedGallons": 0.818,
      "maxSpeedMph": 55.1,
      "averageSpeedMph": 11.0,
      "safetyEvents": []
    },
    {
      "id": "trip_48271925_20250102_001",
      "vehicleId": "48271925",
      "driverId": "20000038",
      "startMs": 1735802580000,
      "endMs": 1735816210597,
      "startAddress": "79852 Johnson Via Apt. 322",
      "endAddress": "2321 Vazquez Tunnel",
      "startCoords": {
        "latitude": 40.711727,
        "longitude": -111.801891
      },
      "endCoords": {
        "latitude": 40.771429,
        "longitude": -111.839882
      },
      "distanceMeters": 70197.1,
      "durationMs": 13630598,
      "drivingDurationMs": 12291226,
      "idlingDurationMs": 1339372,
      "fuelConsumedMl": 8926,
      "fuelConsumedGallons": 2.358,
      "maxSpeedMph": 70.3,
      "averageSpeedMph": 11.5,
      "safetyEvents": [
        {
          "type": "speeding",
          "startMs": 1735814940000,
          "maxSpeedMph": 70.3
        }
      ]
    },
    {
      "id": "trip_48271925_20250102_002",
      "vehicleId": "48271925",
      "driverId": "20000038",
      "startMs": 1735805220000,
      "endMs": 1735807706313,
      "startAddress": "07603 Antonio Shoals",
      "endAddress": "1401 Contreras Throughway",
      "startCoords": {
        "latitude": 40.787476,
        "longitude": -111.871161
      },
      "endCoords": {
        "latitude": 40.738138,
        "longitude": -111.87954
      },
      "distanceMeters": 15600.9,
      "durationMs": 2486313,
      "drivingDurationMs": 1993746,
      "idlingDurationMs": 492567,
      "fuelConsumedMl": 1984,
      "fuelConsumedGallons": 0.524,
      "maxSpeedMph": 65.2,
      "averageSpeedMph": 14.0,
      "safetyEvents": [
        {
          "type": "speeding",
          "startMs": 1735806780000,
          "maxSpeedMph": 65.2
        }
      ]
    },
    {
      "id": "trip_48271925_20250102_003",
      "vehicleId": "48271925",
      "driverId": "20000038",
      "startMs": 1735842120000,
      "endMs": 1735850013799,
      "startAddress": "93932 Johnson Drive",
      "endAddress": "552 William Cliff Apt. 908",
      "startCoords": {
        "latitude": 40.725761,
        "longitude": -111.870136
      },
      "endCoords": {
        "latitude": 40.784069,
        "longitude": -111.879065
      },
      "distanceMeters": 53908.7,
      "durationMs": 7893799,
      "drivingDurationMs": 6452681,
      "idlingDurationMs": 1441119,
      "fuelConsumedMl": 6855,
      "fuelConsumedGallons": 1.811,
      "maxSpeedMph": 60.0,
      "averageSpeedMph": 15.3,
      "safetyEvents": []
    },
    {
      "id": "trip_48271925_20250102_004",
      "vehicleId": "48271925",
      "driverId": "20000038",
      "startMs": 1735802160000,
      "endMs": 1735816022262,
      "startAddress": "342 Teresa Courts",
      "endAddress": "759 Scott Coves",
      "startCoords": {
        "latitude": 40.760456,
        "longitude": -111.919856
      },
      "endCoords": {
        "latitude": 40.793895,
        "longitude": -111.797661
      },
      "distanceMeters": 57397.9,
      "durationMs": 13862262,
      "drivingDurationMs": 11370269,
      "idlingDurationMs": 2491993,
      "fuelConsumedMl": 7298,
      "fuelConsumedGallons": 1.928,
      "maxSpeedMph": 51.1,
      "averageSpeedMph": 9.3,
      "safetyEvents": []
    },
    {
      "id": "trip_48271925_20250103_001",
      "vehicleId": "48271925",
      "driverId": "20000038",
      "startMs": 1735910520000,
      "endMs": 1735914539888,
      "startAddress": "71130 Lopez Burgs",
      "endAddress": "875 Wilson Plaza Apt. 563",
      "startCoords": {
        "latitude": 40.791408,
        "longitude": -111.838421
      },
      "endCoords": {
        "latitude": 40.776554,
        "longitude": -111.783102
      },
      "distanceMeters": 22553.3,
      "durationMs": 4019889,
      "drivingDurationMs": 3696227,
      "idlingDurationMs": 323662,
      "fuelConsumedMl": 2869,
      "fuelConsumedGallons": 0.758,
      "maxSpeedMph": 29.0,
      "averageSpeedMph": 12.6,
      "safetyEvents": []
    },
    {
      "id": "trip_48271925_20250103_002",
      "vehicleId": "48271925",
      "driverId": "20000038",
      "startMs": 1735920420000,
      "endMs": 1735934137230,
      "startAddress": "8685 Scott Land",
      "endAddress": "66343 Thompson Harbor",
      "startCoords": {
        "latitude": 40.785843,
        "longitude": -111.855464
      },
      "endCoords": {
        "latitude": 40.795539,
        "longitude": -111.793359
      },
      "distanceMeters": 61646.0,
      "durationMs": 13717231,
      "drivingDurationMs": 11276892,
      "idlingDurationMs": 2440338,
      "fuelConsumedMl": 7840,
      "fuelConsumedGallons": 2.071,
      "maxSpeedMph": 33.7,
      "averageSpeedMph": 10.1,
      "safetyEvents": []
    },
    {
      "id": "trip_48271925_20250104_001",
      "vehicleId": "48271925",
      "driverId": "20000034",
      "startMs": 1735983600000,
      "endMs": 1735994187233,
      "startAddress": "459 Nicole Centers",
      "endAddress": "1122 Alexandra Station",
      "startCoords": {
        "latitude": 40.797666,
        "longitude": -111.849121
      },
      "endCoords": {
        "latitude": 40.703861,
        "longitude": -111.85314
      },
      "distanceMeters": 77680.0,
      "durationMs": 10587233,
      "drivingDurationMs": 9645134,
      "idlingDurationMs": 942099,
      "fuelConsumedMl": 9876,
      "fuelConsumedGallons": 2.609,
      "maxSpeedMph": 57.4,
      "averageSpeedMph": 16.4,
      "safetyEvents": []
    },
    {
      "id": "trip_48271925_20250104_002",
      "vehicleId": "48271925",
      "driverId": "20000034",
      "startMs": 1735990740000,
      "endMs": 1735995636724,
      "startAddress": "55516 Potter Park",
      "endAddress": "086 Neal Plaza Apt. 372",
      "startCoords": {
        "latitude": 40.727613,
        "longitude": -111.78885
      },
      "endCoords": {
        "latitude": 40.748202,
        "longitude": -111.831529
      },
      "distanceMeters": 28970.5,
      "durationMs": 4896724,
      "drivingDurationMs": 4614638,
      "idlingDurationMs": 282086,
      "fuelConsumedMl": 3683,
      "fuelConsumedGallons": 0.973,
      "maxSpeedMph": 66.5,
      "averageSpeedMph": 13.2,
      "safetyEvents": [
        {
          "type": "speeding",
          "startMs": 1735994400000,
          "maxSpeedMph": 66.5
        }
      ]
    },
    {
      "id": "trip_48271925_20250104_003",
      "vehicleId": "48271925",
      "driverId": "20000034",
      "startMs": 1736003580000,
      "endMs": 1736007389863,
      "startAddress": "3308 Brian Ville",
      "endAddress": "0033 Stephanie Dam",
      "startCoords": {
        "latitude": 40.685723,
        "longitude": -111.927336
      },
      "endCoords": {
        "latitude": 40.798813,
        "longitude": -111.893723
      },
      "distanceMeters": 24121.5,
      "durationMs": 3809863,
      "drivingDurationMs": 3070176,
      "idlingDurationMs": 739687,
      "fuelConsumedMl": 3066,
      "fuelConsumedGallons": 0.81,
      "maxSpeedMph": 42.6,
      "averageSpeedMph": 14.2,
      "safetyEvents": []
    },
    {
      "id": "trip_48271925_20250105_001",
      "vehicleId": "48271925",
      "driverId": "20000036",
      "startMs": 1736065200000,
      "endMs": 1736078079258,
      "startAddress": "2989 Stephanie Manors Apt. 974",
      "endAddress": "9303 Phillips Trail Suite 191",
      "startCoords": {
        "latitude": 40.674091,
        "longitude": -111.941314
      },
      "endCoords": {
        "latitude": 40.735172,
        "longitude": -111.949602
      },
      "distanceMeters": 84395.9,
      "durationMs": 12879259,
      "drivingDurationMs": 12622163,
      "idlingDurationMs": 257096,
      "fuelConsumedMl": 10732,
      "fuelConsumedGallons": 2.835,
      "maxSpeedMph": 54.6,
      "averageSpeedMph": 14.7,
      "safetyEvents": []
    },
    {
      "id": "trip_48271925_20250105_002",
      "vehicleId": "48271925",
      "driverId": "20000036",
      "startMs": 1736093100000,
      "endMs": 1736099003386,
      "startAddress": "38187 Blankenship Prairie",
      "endAddress": "82832 Rebecca Pass",
      "startCoords": {
        "latitude": 40.65755,
        "longitude": -111.891024
      },
      "endCoords": {
        "latitude": 40.795771,
        "longitude": -111.890746
      },
      "distanceMeters": 34025.6,
      "durationMs": 5903387,
      "drivingDurationMs": 5403445,
      "idlingDurationMs": 499941,
      "fuelConsumedMl": 4327,
      "fuelConsumedGallons": 1.143,
      "maxSpeedMph": 66.2,
      "averageSpeedMph": 12.9,
      "safetyEvents": [
        {
          "type": "speeding",
          "startMs": 1736094000000,
          "maxSpeedMph": 66.2
        }
      ]
    },
    {
      "id": "trip_48271925_20250106_001",
      "vehicleId": "48271925",
      "driverId": "20000034",
      "startMs": 1736146260000,
      "endMs": 1736150162877,
      "startAddress": "161 Evans Way",
      "endAddress": "98310 Wright Streets",
      "startCoords": {
        "latitude": 40.705239,
        "longitude": -111.833573
      },
      "endCoords": {
        "latitude": 40.794181,
        "longitude": -111.824929
      },
      "distanceMeters": 16245.0,
      "durationMs": 3902877,
      "drivingDurationMs": 3235823,
      "idlingDurationMs": 667054,
      "fuelConsumedMl": 2067,
      "fuelConsumedGallons": 0.546,
      "maxSpeedMph": 53.0,
      "averageSpeedMph": 9.3,
      "safetyEvents": []
    },
    {
      "id": "trip_48271925_20250106_002",
      "vehicleId": "48271925",
      "driverId": "20000034",
      "startMs": 1736173860000,
      "endMs": 1736178091677,
      "startAddress": "96622 Laurie Flats Apt. 670",
      "endAddress": "6856 Stevens Terrace",
      "startCoords": {
        "latitude": 40.785822,
        "longitude": -111.801374
      },
      "endCoords": {
        "latitude": 40.771673,
        "longitude": -111.879405
      },
      "distanceMeters": 20211.0,
      "durationMs": 4231677,
      "drivingDurationMs": 3480538,
      "idlingDurationMs": 751139,
      "fuelConsumedMl": 2570,
      "fuelConsumedGallons": 0.679,
      "maxSpeedMph": 50.0,
      "averageSpeedMph": 10.7,
      "safetyEvents": []
    },
    {
      "id": "trip_48271925_20250107_001",
      "vehicleId": "48271925",
      "driverId": "20000036",
      "startMs": 1736252640000,
      "endMs": 1736255136610,
      "startAddress": "4028 Marco Track Apt. 676",
      "endAddress": "2773 Jeffrey Place",
      "startCoords": {
        "latitude": 40.700221,
        "longitude": -111.775234
      },
      "endCoords": {
        "latitude": 40.767226,
        "longitude": -111.816918
      },
      "distanceMeters": 11591.1,
      "durationMs": 2496611,
      "drivingDurationMs": 2276030,
      "idlingDurationMs": 220581,
      "fuelConsumedMl": 1473,
      "fuelConsumedGallons": 0.389,
      "maxSpeedMph": 52.7,
      "averageSpeedMph": 10.4,
      "safetyEvents": []
    },
    {
      "id": "trip_48271925_20250107_002",
      "vehicleId": "48271925",
      "driverId": "20000036",
      "startMs": 1736269380000,
      "endMs": 1736280698770,
      "startAddress": "202 Gina Brooks Apt. 401",
      "endAddress": "332 Carter Forest Suite 719",
      "startCoords": {
        "latitude": 40.785897,
        "longitude": -111.859846
      },
      "endCoords": {
        "latitude": 40.748515,
        "longitude": -111.822863
      },
      "distanceMeters": 47204.0,
      "durationMs": 11318771,
      "drivingDurationMs": 9144689,
      "idlingDurationMs": 2174081,
      "fuelConsumedMl": 6000,
      "fuelConsumedGallons": 1.585,
      "maxSpeedMph": 41.5,
      "averageSpeedMph": 9.3,
      "safetyEvents": []
    },
    {
      "id": "trip_48271925_20250107_003",
      "vehicleId": "48271925",
      "driverId": "20000036",
      "startMs": 1736258460000,
      "endMs": 1736260093563,
      "startAddress": "075 Atkins Isle",
      "endAddress": "526 Robin Mills Suite 699",
      "startCoords": {
        "latitude": 40.775104,
        "longitude": -111.797555
      },
      "endCoords": {
        "latitude": 40.762584,
        "longitude": -111.863385
      },
      "distanceMeters": 8776.6,
      "durationMs": 1633564,
      "drivingDurationMs": 1420594,
      "idlingDurationMs": 212970,
      "fuelConsumedMl": 1117,
      "fuelConsumedGallons": 0.295,
      "maxSpeedMph": 70.4,
      "averageSpeedMph": 12.0,
      "safetyEvents": [
        {
          "type": "speeding",
          "startMs": 1736258880000,
          "maxSpeedMph": 70.4
        }
      ]
    },
    {
      "id": "trip_48271925_20250107_004",
      "vehicleId": "48271925",
      "driverId": "20000036",
      "startMs": 1736259780000,
      "endMs": 1736272036157,
      "startAddress": "83100 Kramer Gardens",
      "endAddress": "226 Robin Park",
      "startCoords": {
        "latitude": 40.688066,
        "longitude": -111.901724
      },
      "endCoords": {
        "latitude": 40.759052,
        "longitude": -111.868789
      },
      "distanceMeters": 59490.7,
      "durationMs": 12256157,
      "drivingDurationMs": 11498195,
      "idlingDurationMs": 757962,
      "fuelConsumedMl": 7563,
      "fuelConsumedGallons": 1.998,
      "maxSpeedMph": 48.1,
      "averageSpeedMph": 10.9,
      "safetyEvents": []
    },
    {
      "id": "trip_48271925_20250107_005",
      "vehicleId": "48271925",
      "driverId": "20000036",
      "startMs": 1736264400000,
      "endMs": 1736275948047,
      "startAddress": "7331 Tanner Parkways Apt. 664",
      "endAddress": "70385 John Union Apt. 595",
      "startCoords": {
        "latitude": 40.697993,
        "longitude": -111.791778
      },
      "endCoords": {
        "latitude": 40.751205,
        "longitude": -111.789736
      },
      "distanceMeters": 54041.4,
      "durationMs": 11548048,
      "drivingDurationMs": 10440941,
      "idlingDurationMs": 1107107,
      "fuelConsumedMl": 6871,
      "fuelConsumedGallons": 1.815,
      "maxSpeedMph": 67.6,
      "averageSpeedMph": 10.5,
      "safetyEvents": [
        {
          "type": "speeding",
          "startMs": 1736269560000,
          "maxSpeedMph": 67.6
        }
      ]
    },
    {
      "id": "trip_48271925_20250108_001",
      "vehicleId": "48271925",
      "driverId": "20000036",
      "startMs": 1736328900000,
      "endMs": 1736334508787,
      "startAddress": "4776 William Track",
      "endAddress": "704 Quinn Loop Suite 682",
      "startCoords": {
        "latitude": 40.755574,
        "longitude": -111.910853
      },
      "endCoords": {
        "latitude": 40.751017,
        "longitude": -111.811531
      },
      "distanceMeters": 45775.8,
      "durationMs": 5608788,
      "drivingDurationMs": 5302957,
      "idlingDurationMs": 305830,
      "fuelConsumedMl": 5822,
      "fuelConsumedGallons": 1.538,
      "maxSpeedMph": 59.7,
      "averageSpeedMph": 18.3,
      "safetyEvents": []
    },
    {
      "id": "trip_48271925_20250108_002",
      "vehicleId": "48271925",
      "driverId": "20000036",
      "startMs": 1736357100000,
      "endMs": 1736358243360,
      "startAddress": "525 Cooper Rapid",
      "endAddress": "89142 Heather Alley Apt. 927",
      "startCoords": {
        "latitude": 40.772843,
        "longitude": -111.819385
      },
      "endCoords": {
        "latitude": 40.752481,
        "longitude": -111.857367
      },
      "distanceMeters": 6624.0,
      "durationMs": 1143360,
      "drivingDurationMs": 919279,
      "idlingDurationMs": 224081,
      "fuelConsumedMl": 840,
      "fuelConsumedGallons": 0.222,
      "maxSpeedMph": 38.6,
      "averageSpeedMph": 13.0,
      "safetyEvents": []
    },
    {
      "id": "trip_48271925_20250108_003",
      "vehicleId": "48271925",
      "driverId": "20000036",
      "startMs": 1736350560000,
      "endMs": 1736360914377,
      "startAddress": "0547 Cindy Manors Apt. 214",
      "endAddress": "1318 Bennett Inlet",
      "startCoords": {
        "latitude": 40.677619,
        "longitude": -111.958334
      },
      "endCoords": {
        "latitude": 40.766902,
        "longitude": -111.817135
      },
      "distanceMeters": 68919.6,
      "durationMs": 10354378,
      "drivingDurationMs": 9760877,
      "idlingDurationMs": 593501,
      "fuelConsumedMl": 8763,
      "fuelConsumedGallons": 2.315,
      "maxSpeedMph": 49.9,
      "averageSpeedMph": 14.9,
      "safetyEvents": []
    },
    {
      "id": "trip_48271925_20250108_004",
      "vehicleId": "48271925",
      "driverId": "20000036",
      "startMs": 1736339760000,
      "endMs": 1736344828223,
      "startAddress": "7338 Jon Street Suite 247",
      "endAddress": "2035 Campbell Brook Apt. 387",
      "startCoords": {
        "latitude": 40.717367,
        "longitude": -111.831001
      },
      "endCoords": {
        "latitude": 40.695327,
        "longitude": -111.924471
      },
      "distanceMeters": 32303.7,
      "durationMs": 5068223,
      "drivingDurationMs": 4701708,
      "idlingDurationMs": 366515,
      "fuelConsumedMl": 4107,
      "fuelConsumedGallons": 1.085,
      "maxSpeedMph": 60.2,
      "averageSpeedMph": 14.3,
      "safetyEvents": []
    },
    {
      "id": "trip_48271925_20250108_005",
      "vehicleId": "48271925",
      "driverId": "20000036",
      "startMs": 1736340120000,
      "endMs": 1736351446589,
      "startAddress": "1866 Frost Way",
      "endAddress": "4131 Samantha Club Apt. 025",
      "startCoords": {
        "latitude": 40.684419,
        "longitude": -111.915922
      },
      "endCoords": {
        "latitude": 40.66273,
        "longitude": -111.898743
      },
      "distanceMeters": 72352.8,
      "durationMs": 11326590,
      "drivingDurationMs": 9858071,
      "idlingDurationMs": 1468518,
      "fuelConsumedMl": 9199,
      "fuelConsumedGallons": 2.43,
      "maxSpeedMph": 32.2,
      "averageSpeedMph": 14.3,
      "safetyEvents": []
    },
    {
      "id": "trip_48271925_20250109_001",
      "vehicleId": "48271925",
      "driverId": "20000033",
      "startMs": 1736442900000,
      "endMs": 1736456400000,
      "startAddress": "196 Tamara Inlet",
      "endAddress": "67883 Gonzalez Wells",
      "startCoords": {
        "latitude": 40.74112,
        "longitude": -111.819878
      },
      "endCoords": {
        "latitude": 40.76945,
        "longitude": -111.909996
      },
      "distanceMeters": 75808.5,
      "durationMs": 13500000,
      "drivingDurationMs": 12376291,
      "idlingDurationMs": 1123709,
      "fuelConsumedMl": 9638,
      "fuelConsumedGallons": 2.546,
      "maxSpeedMph": 38.7,
      "averageSpeedMph": 12.6,
      "safetyEvents": []
    },
    {
      "id": "trip_48271925_20250109_002",
      "vehicleId": "48271925",
      "driverId": "20000033",
      "startMs": 1736448480000,
      "endMs": 1736456400000,
      "startAddress": "38004 Robert Mill",
      "endAddress": "466 Holmes Street Suite 416",
      "startCoords": {
        "latitude": 40.797741,
        "longitude": -111.902461
      },
      "endCoords": {
        "latitude": 40.75361,
        "longitude": -111.943635
      },
      "distanceMeters": 53150.6,
      "durationMs": 7920000,
      "drivingDurationMs": 7443878,
      "idlingDurationMs": 476122,
      "fuelConsumedMl": 6757,
      "fuelConsumedGallons": 1.785,
      "maxSpeedMph": 41.9,
      "averageSpeedMph": 15.0,
      "safetyEvents": []
    },
    {
      "id": "trip_48271925_20250109_003",
      "vehicleId": "48271925",
      "driverId": "20000033",
      "startMs": 1736403120000,
      "endMs": 1736411217597,
      "startAddress": "1206 Daniel Isle",
      "endAddress": "97760 Jorge Passage Suite 081",
      "startCoords": {
        "latitude": 40.656634,
        "longitude": -111.80816
      },
      "endCoords": {
        "latitude": 40.696337,
        "longitude": -111.900008
      },
      "distanceMeters": 63666.8,
      "durationMs": 8097597,
      "drivingDurationMs": 7179526,
      "idlingDurationMs": 918072,
      "fuelConsumedMl": 8093,
      "fuelConsumedGallons": 2.138,
      "maxSpeedMph": 61.1,
      "averageSpeedMph": 17.6,
      "safetyEvents": []
    },
    {
      "id": "trip_48271925_20250109_004",
      "vehicleId": "48271925",
      "driverId": null,
      "startMs": 1736444220000,
      "endMs": 1736448981805,
      "startAddress": "441 Gonzales Plains",
      "endAddress": "436 Charles Plain",
      "startCoords": {
        "latitude": 40.718521,
        "longitude": -111.793192
      },
      "endCoords": {
        "latitude": 40.712335,
        "longitude": -111.911444
      },
      "distanceMeters": 35335.2,
      "durationMs": 4761805,
      "drivingDurationMs": 4286328,
      "idlingDurationMs": 475477,
      "fuelConsumedMl": 4493,
      "fuelConsumedGallons": 1.187,
      "maxSpeedMph": 67.7,
      "averageSpeedMph": 16.6,
      "safetyEvents": [
        {
          "type": "speeding",
          "startMs": 1736444880000,
          "maxSpeedMph": 67.7
        }
      ]
    },
    {
      "id": "trip_48271925_20250110_001",
      "vehicleId": "48271925",
      "driverId": "20000039",
      "startMs": 1736532240000,
      "endMs": 1736542800000,
      "startAddress": "24023 Phillip Shores",
      "endAddress": "6176 Page Trafficway",
      "startCoords": {
        "latitude": 40.717695,
        "longitude": -111.954971
      },
      "endCoords": {
        "latitude": 40.724515,
        "longitude": -111.861322
      },
      "distanceMeters": 52585.7,
      "durationMs": 10560000,
      "drivingDurationMs": 8864811,
      "idlingDurationMs": 1695189,
      "fuelConsumedMl": 6685,
      "fuelConsumedGallons": 1.766,
      "maxSpeedMph": 68.4,
      "averageSpeedMph": 11.1,
      "safetyEvents": [
        {
          "type": "speeding",
          "startMs": 1736535000000,
          "maxSpeedMph": 68.4
        }
      ]
    },
    {
      "id": "trip_48271925_20250110_002",
      "vehicleId": "48271925",
      "driverId": "20000039",
      "startMs": 1736535480000,
      "endMs": 1736542800000,
      "startAddress": "46551 Frank Lane Apt. 811",
      "endAddress": "0228 Benjamin Trail",
      "startCoords": {
        "latitude": 40.697244,
        "longitude": -111.857575
      },
      "endCoords": {
        "latitude": 40.682644,
        "longitude": -111.833214
      },
      "distanceMeters": 43534.6,
      "durationMs": 7320000,
      "drivingDurationMs": 6832895,
      "idlingDurationMs": 487105,
      "fuelConsumedMl": 5534,
      "fuelConsumedGallons": 1.462,
      "maxSpeedMph": 51.9,
      "averageSpeedMph": 13.3,
      "safetyEvents": []
    },
    {
      "id": "trip_48271925_20250111_001",
      "vehicleId": "48271925",
      "driverId": "20000034",
      "startMs": 1736607480000,
      "endMs": 1736614225692,
      "startAddress": "74812 Robertson Oval Apt. 008",
      "endAddress": "8899 Mark Shoal",
      "startCoords": {
        "latitude": 40.677274,
        "longitude": -111.797958
      },
      "endCoords": {
        "latitude": 40.7539,
        "longitude": -111.822652
      },
      "distanceMeters": 46010.4,
      "durationMs": 6745693,
      "drivingDurationMs": 5739174,
      "idlingDurationMs": 1006519,
      "fuelConsumedMl": 5848,
      "fuelConsumedGallons": 1.545,
      "maxSpeedMph": 38.8,
      "averageSpeedMph": 15.3,
      "safetyEvents": []
    },
    {
      "id": "trip_48271925_20250111_002",
      "vehicleId": "48271925",
      "driverId": "20000034",
      "startMs": 1736603160000,
      "endMs": 1736611438730,
      "startAddress": "140 Jay Station",
      "endAddress": "0810 Bennett Station",
      "startCoords": {
        "latitude": 40.710457,
        "longitude": -111.841379
      },
      "endCoords": {
        "latitude": 40.751742,
        "longitude": -111.834432
      },
      "distanceMeters": 48102.2,
      "durationMs": 8278731,
      "drivingDurationMs": 7275961,
      "idlingDurationMs": 1002770,
      "fuelConsumedMl": 6117,
      "fuelConsumedGallons": 1.616,
      "maxSpeedMph": 68.8,
      "averageSpeedMph": 13.0,
      "safetyEvents": [
        {
          "type": "speeding",
          "startMs": 1736608500000,
          "maxSpeedMph": 68.8
        }
      ]
    },
    {
      "id": "trip_48271925_20250111_003",
      "vehicleId": "48271925",
      "driverId": "20000034",
      "startMs": 1736613180000,
      "endMs": 1736621132597,
      "startAddress": "8699 Cynthia Coves",
      "endAddress": "16694 Johnson Dam",
      "startCoords": {
        "latitude": 40.778782,
        "longitude": -111.795903
      },
      "endCoords": {
        "latitude": 40.739864,
        "longitude": -111.825978
      },
      "distanceMeters": 51391.9,
      "durationMs": 7952598,
      "drivingDurationMs": 6473779,
      "idlingDurationMs": 1478818,
      "fuelConsumedMl": 6534,
      "fuelConsumedGallons": 1.726,
      "maxSpeedMph": 30.3,
      "averageSpeedMph": 14.5,
      "safetyEvents": []
    },
    {
      "id": "trip_48271925_20250112_001",
      "vehicleId": "48271925",
      "driverId": "20000033",
      "startMs": 1736673960000,
      "endMs": 1736676701977,
      "startAddress": "42411 Johns Mountains Suite 466",
      "endAddress": "8223 Dawn Hill",
      "startCoords": {
        "latitude": 40.68671,
        "longitude": -111.840985
      },
      "endCoords": {
        "latitude": 40.664887,
        "longitude": -111.953505
      },
      "distanceMeters": 20518.9,
      "durationMs": 2741977,
      "drivingDurationMs": 2434145,
      "idlingDurationMs": 307832,
      "fuelConsumedMl": 2608,
      "fuelConsumedGallons": 0.689,
      "maxSpeedMph": 69.2,
      "averageSpeedMph": 16.7,
      "safetyEvents": [
        {
          "type": "speeding",
          "startMs": 1736675340000,
          "maxSpeedMph": 69.2
        }
      ]
    },
    {
      "id": "trip_48271925_20250112_002",
      "vehicleId": "48271925",
      "driverId": "20000033",
      "startMs": 1736701380000,
      "endMs": 1736707999038,
      "startAddress": "116 Ross Fork",
      "endAddress": "59234 Myers Drive Apt. 746",
      "startCoords": {
        "latitude": 40.696197,
        "longitude": -111.948999
      },
      "endCoords": {
        "latitude": 40.694919,
        "longitude": -111.853145
      },
      "distanceMeters": 48244.6,
      "durationMs": 6619039,
      "drivingDurationMs": 6136604,
      "idlingDurationMs": 482435,
      "fuelConsumedMl": 6132,
      "fuelConsumedGallons": 1.62,
      "maxSpeedMph": 71.3,
      "averageSpeedMph": 16.3,
      "safetyEvents": [
        {
          "type": "speeding",
          "startMs": 1736705940000,
          "maxSpeedMph": 71.3
        }
      ]
    },
    {
      "id": "trip_48271925_20250112_003",
      "vehicleId": "48271925",
      "driverId": "20000033",
      "startMs": 1736706420000,
      "endMs": 1736714157882,
      "startAddress": "3316 Carpenter Island Apt. 605",
      "endAddress": "13713 Davidson Summit Apt. 107",
      "startCoords": {
        "latitude": 40.774509,
        "longitude": -111.853621
      },
      "endCoords": {
        "latitude": 40.726323,
        "longitude": -111.803768
      },
      "distanceMeters": 56037.6,
      "durationMs": 7737882,
      "drivingDurationMs": 6831213,
      "idlingDurationMs": 906670,
      "fuelConsumedMl": 7124,
      "fuelConsumedGallons": 1.882,
      "maxSpeedMph": 49.3,
      "averageSpeedMph": 16.2,
      "safetyEvents": []
    },
    {
      "id": "trip_48271925_20250112_004",
      "vehicleId": "48271925",
      "driverId": "20000033",
      "startMs": 1736680140000,
      "endMs": 1736690188335,
      "startAddress": "786 Chavez Lane",
      "endAddress": "88304 Heather Islands",
      "startCoords": {
        "latitude": 40.699202,
        "longitude": -111.7899
      },
      "endCoords": {
        "latitude": 40.723016,
        "longitude": -111.895394
      },
      "distanceMeters": 49419.1,
      "durationMs": 10048336,
      "drivingDurationMs": 9108008,
      "idlingDurationMs": 940328,
      "fuelConsumedMl": 6284,
      "fuelConsumedGallons": 1.66,
      "maxSpeedMph": 54.8,
      "averageSpeedMph": 11.0,
      "safetyEvents": []
    },
    {
      "id": "trip_48271925_20250113_001",
      "vehicleId": "48271925",
      "driverId": "20000035",
      "startMs": 1736756640000,
      "endMs": 1736767362567,
      "startAddress": "85920 Robinson Walks",
      "endAddress": "65272 Davis Port Apt. 095",
      "startCoords": {
        "latitude": 40.686761,
        "longitude": -111.802184
      },
      "endCoords": {
        "latitude": 40.753525,
        "longitude": -111.890295
      },
      "distanceMeters": 70368.5,
      "durationMs": 10722568,
      "drivingDurationMs": 8788351,
      "idlingDurationMs": 1934217,
      "fuelConsumedMl": 8949,
      "fuelConsumedGallons": 2.364,
      "maxSpeedMph": 37.0,
      "averageSpeedMph": 14.7,
      "safetyEvents": []
    },
    {
      "id": "trip_48271925_20250113_002",
      "vehicleId": "48271925",
      "driverId": "20000035",
      "startMs": 1736793120000,
      "endMs": 1736795564393,
      "startAddress": "00179 Katherine Circles",
      "endAddress": "2238 Charles Shore",
      "startCoords": {
        "latitude": 40.748112,
        "longitude": -111.830759
      },
      "endCoords": {
        "latitude": 40.711074,
        "longitude": -111.801675
      },
      "distanceMeters": 18310.8,
      "durationMs": 2444393,
      "drivingDurationMs": 2080622,
      "idlingDurationMs": 363771,
      "fuelConsumedMl": 2328,
      "fuelConsumedGallons": 0.615,
      "maxSpeedMph": 45.8,
      "averageSpeedMph": 16.8,
      "safetyEvents": []
    },
    {
      "id": "trip_48271925_20250113_003",
      "vehicleId": "48271925",
      "driverId": "20000035",
      "startMs": 1736786580000,
      "endMs": 1736790203894,
      "startAddress": "20981 Smith Way Suite 696",
      "endAddress": "360 Simpson Overpass",
      "startCoords": {
        "latitude": 40.659591,
        "longitude": -111.776536
      },
      "endCoords": {
        "latitude": 40.788341,
        "longitude": -111.909325
      },
      "distanceMeters": 25255.6,
      "durationMs": 3623895,
      "drivingDurationMs": 2947837,
      "idlingDurationMs": 676057,
      "fuelConsumedMl": 3210,
      "fuelConsumedGallons": 0.848,
      "maxSpeedMph": 66.6,
      "averageSpeedMph": 15.6,
      "safetyEvents": [
        {
          "type": "speeding",
          "startMs": 1736789400000,
          "maxSpeedMph": 66.6
        }
      ]
    },
    {
      "id": "trip_48271925_20250113_004",
      "vehicleId": "48271925",
      "driverId": "20000035",
      "startMs": 1736748420000,
      "endMs": 1736763925127,
      "startAddress": "45098 Ryan Ville",
      "endAddress": "533 Michael Creek",
      "startCoords": {
        "latitude": 40.737414,
        "longitude": -111.921519
      },
      "endCoords": {
        "latitude": 40.663323,
        "longitude": -111.839084
      },
      "distanceMeters": 74367.0,
      "durationMs": 15505127,
      "drivingDurationMs": 13360668,
      "idlingDurationMs": 2144460,
      "fuelConsumedMl": 9456,
      "fuelConsumedGallons": 2.498,
      "maxSpeedMph": 61.6,
      "averageSpeedMph": 10.7,
      "safetyEvents": []
    },
    {
      "id": "trip_48271925_20250113_005",
      "vehicleId": "48271925",
      "driverId": "20000035",
      "startMs": 1736748240000,
      "endMs": 1736750734093,
      "startAddress": "262 Mccann Camp Suite 946",
      "endAddress": "3051 Garcia Forges",
      "startCoords": {
        "latitude": 40.73261,
        "longitude": -111.831962
      },
      "endCoords": {
        "latitude": 40.758251,
        "longitude": -111.950721
      },
      "distanceMeters": 13662.5,
      "durationMs": 2494094,
      "drivingDurationMs": 2171980,
      "idlingDurationMs": 322114,
      "fuelConsumedMl": 1738,
      "fuelConsumedGallons": 0.459,
      "maxSpeedMph": 48.9,
      "averageSpeedMph": 12.3,
      "safetyEvents": []
    },
    {
      "id": "trip_48271925_20250113_006",
      "vehicleId": "48271925",
      "driverId": "20000035",
      "startMs": 1736748780000,
      "endMs": 1736760677358,
      "startAddress": "96730 Kelly Alley",
      "endAddress": "1359 Perry Garden Apt. 903",
      "startCoords": {
        "latitude": 40.69733,
        "longitude": -111.841913
      },
      "endCoords": {
        "latitude": 40.664957,
        "longitude": -111.950453
      },
      "distanceMeters": 81132.7,
      "durationMs": 11897358,
      "drivingDurationMs": 10330813,
      "idlingDurationMs": 1566545,
      "fuelConsumedMl": 10315,
      "fuelConsumedGallons": 2.725,
      "maxSpeedMph": 61.3,
      "averageSpeedMph": 15.3,
      "safetyEvents": []
    },
    {
      "id": "trip_48271925_20250114_001",
      "vehicleId": "48271925",
      "driverId": "20000034",
      "startMs": 1736854320000,
      "endMs": 1736861474490,
      "startAddress": "3946 Ryan Rue",
      "endAddress": "27726 Andrew Grove",
      "startCoords": {
        "latitude": 40.773564,
        "longitude": -111.896274
      },
      "endCoords": {
        "latitude": 40.79319,
        "longitude": -111.785892
      },
      "distanceMeters": 34911.0,
      "durationMs": 7154491,
      "drivingDurationMs": 5779575,
      "idlingDurationMs": 1374915,
      "fuelConsumedMl": 4440,
      "fuelConsumedGallons": 1.173,
      "maxSpeedMph": 46.4,
      "averageSpeedMph": 10.9,
      "safetyEvents": []
    },
    {
      "id": "trip_48271925_20250114_002",
      "vehicleId": "48271925",
      "driverId": "20000034",
      "startMs": 1736879640000,
      "endMs": 1736886024230,
      "startAddress": "60284 Kelly Isle",
      "endAddress": "89568 Leach Well",
      "startCoords": {
        "latitude": 40.782517,
        "longitude": -111.810162
      },
      "endCoords": {
        "latitude": 40.664472,
        "longitude": -111.853343
      },
      "distanceMeters": 34174.4,
      "durationMs": 6384231,
      "drivingDurationMs": 6045882,
      "idlingDurationMs": 338348,
      "fuelConsumedMl": 4346,
      "fuelConsumedGallons": 1.148,
      "maxSpeedMph": 52.2,
      "averageSpeedMph": 12.0,
      "safetyEvents": []
    },
    {
      "id": "trip_48271925_20250115_001",
      "vehicleId": "48271925",
      "driverId": "20000039",
      "startMs": 1736963460000,
      "endMs": 1736972411406,
      "startAddress": "975 Margaret Lane",
      "endAddress": "285 Holmes Port",
      "startCoords": {
        "latitude": 40.691242,
        "longitude": -111.844985
      },
      "endCoords": {
        "latitude": 40.780922,
        "longitude": -111.837998
      },
      "distanceMeters": 49812.6,
      "durationMs": 8951407,
      "drivingDurationMs": 7835611,
      "idlingDurationMs": 1115796,
      "fuelConsumedMl": 6333,
      "fuelConsumedGallons": 1.673,
      "maxSpeedMph": 65.7,
      "averageSpeedMph": 12.4,
      "safetyEvents": [
        {
          "type": "speeding",
          "startMs": 1736969520000,
          "maxSpeedMph": 65.7
        }
      ]
    },
    {
      "id": "trip_48271925_20250115_002",
      "vehicleId": "48271925",
      "driverId": "20000039",
      "startMs": 1736951340000,
      "endMs": 1736961355900,
      "startAddress": "1649 Jamie Trafficway Apt. 156",
      "endAddress": "0262 April Lock Apt. 363",
      "startCoords": {
        "latitude": 40.739228,
        "longitude": -111.813118
      },
      "endCoords": {
        "latitude": 40.785072,
        "longitude": -111.871363
      },
      "distanceMeters": 58102.5,
      "durationMs": 10015900,
      "drivingDurationMs": 9661012,
      "idlingDurationMs": 354888,
      "fuelConsumedMl": 7389,
      "fuelConsumedGallons": 1.952,
      "maxSpeedMph": 68.7,
      "averageSpeedMph": 13.0,
      "safetyEvents": [
        {
          "type": "speeding",
          "startMs": 1736960760000,
          "maxSpeedMph": 68.7
        }
      ]
    },
    {
      "id": "trip_48271925_20250115_003",
      "vehicleId": "48271925",
      "driverId": "20000039",
      "startMs": 1736944080000,
      "endMs": 1736957272416,
      "startAddress": "51852 Brooke Corners",
      "endAddress": "6130 Navarro Garden Suite 148",
      "startCoords": {
        "latitude": 40.781924,
        "longitude": -111.806769
      },
      "endCoords": {
        "latitude": 40.722796,
        "longitude": -111.938433
      },
      "distanceMeters": 79978.0,
      "durationMs": 13192417,
      "drivingDurationMs": 11983777,
      "idlingDurationMs": 1208640,
      "fuelConsumedMl": 10168,
      "fuelConsumedGallons": 2.686,
      "maxSpeedMph": 52.6,
      "averageSpeedMph": 13.6,
      "safetyEvents": []
    },
    {
      "id": "trip_48271925_20250116_001",
      "vehicleId": "48271925",
      "driverId": "20000034",
      "startMs": 1737025500000,
      "endMs": 1737032830716,
      "startAddress": "2448 Hill Prairie Apt. 535",
      "endAddress": "043 Navarro Club",
      "startCoords": {
        "latitude": 40.72512,
        "longitude": -111.939021
      },
      "endCoords": {
        "latitude": 40.705511,
        "longitude": -111.856986
      },
      "distanceMeters": 39614.4,
      "durationMs": 7330717,
      "drivingDurationMs": 6255018,
      "idlingDurationMs": 1075699,
      "fuelConsumedMl": 5038,
      "fuelConsumedGallons": 1.331,
      "maxSpeedMph": 40.0,
      "averageSpeedMph": 12.1,
      "safetyEvents": []
    },
    {
      "id": "trip_48271925_20250116_002",
      "vehicleId": "48271925",
      "driverId": "20000034",
      "startMs": 1737035280000,
      "endMs": 1737043114545,
      "startAddress": "63929 Walsh Lodge Suite 132",
      "endAddress": "00499 Michelle Meadow Suite 384",
      "startCoords": {
        "latitude": 40.776962,
        "longitude": -111.922499
      },
      "endCoords": {
        "latitude": 40.760392,
        "longitude": -111.817628
      },
      "distanceMeters": 55630.2,
      "durationMs": 7834545,
      "drivingDurationMs": 7611948,
      "idlingDurationMs": 222598,
      "fuelConsumedMl": 7071,
      "fuelConsumedGallons": 1.868,
      "maxSpeedMph": 59.7,
      "averageSpeedMph": 15.9,
      "safetyEvents": []
    },
    {
      "id": "trip_48271925_20250116_003",
      "vehicleId": "48271925",
      "driverId": "20000034",
      "startMs": 1737043140000,
      "endMs": 1737047594797,
      "startAddress": "098 Barbara Estate Apt. 509",
      "endAddress": "3392 Loretta Union",
      "startCoords": {
        "latitude": 40.67767,
        "longitude": -111.784384
      },
      "endCoords": {
        "latitude": 40.756618,
        "longitude": -111.932024
      },
      "distanceMeters": 21709.3,
      "durationMs": 4454797,
      "drivingDurationMs": 3926510,
      "idlingDurationMs": 528287,
      "fuelConsumedMl": 2760,
      "fuelConsumedGallons": 0.729,
      "maxSpeedMph": 37.6,
      "averageSpeedMph": 10.9,
      "safetyEvents": []
    },
    {
      "id": "trip_48271925_20250116_004",
      "vehicleId": "48271925",
      "driverId": "20000034",
      "startMs": 1737052380000,
      "endMs": 1737057484556,
      "startAddress": "59328 Ward Summit Apt. 192",
      "endAddress": "128 Aaron Burg Suite 238",
      "startCoords": {
        "latitude": 40.753306,
        "longitude": -111.926961
      },
      "endCoords": {
        "latitude": 40.764368,
        "longitude": -111.922884
      },
      "distanceMeters": 23470.2,
      "durationMs": 5104557,
      "drivingDurationMs": 4233663,
      "idlingDurationMs": 870894,
      "fuelConsumedMl": 2983,
      "fuelConsumedGallons": 0.788,
      "maxSpeedMph": 65.6,
      "averageSpeedMph": 10.3,
      "safetyEvents": [
        {
          "type": "speeding",
          "startMs": 1737052740000,
          "maxSpeedMph": 65.6
        }
      ]
    },
    {
      "id": "trip_48271925_20250116_005",
      "vehicleId": "48271925",
      "driverId": "20000034",
      "startMs": 1737021060000,
      "endMs": 1737025174607,
      "startAddress": "392 Cox Mall",
      "endAddress": "177 Martinez Stravenue Suite 079",
      "startCoords": {
        "latitude": 40.657123,
        "longitude": -111.831584
      },
      "endCoords": {
        "latitude": 40.701129,
        "longitude": -111.838727
      },
      "distanceMeters": 23354.2,
      "durationMs": 4114607,
      "drivingDurationMs": 3417484,
      "idlingDurationMs": 697123,
      "fuelConsumedMl": 2968,
      "fuelConsumedGallons": 0.784,
      "maxSpeedMph": 58.8,
      "averageSpeedMph": 12.7,
      "safetyEvents": []
    },
    {
      "id": "trip_48271925_20250117_001",
      "vehicleId": "48271925",
      "driverId": "20000035",
      "startMs": 1737131820000,
      "endMs": 1737138062857,
      "startAddress": "687 Carter Garden",
      "endAddress": "14029 Jeremy Brooks Apt. 810",
      "startCoords": {
        "latitude": 40.737305,
        "longitude": -111.881678
      },
      "endCoords": {
        "latitude": 40.750692,
        "longitude": -111.823618
      },
      "distanceMeters": 42131.7,
      "durationMs": 6242857,
      "drivingDurationMs": 5462335,
      "idlingDurationMs": 780522,
      "fuelConsumedMl": 5356,
      "fuelConsumedGallons": 1.415,
      "maxSpeedMph": 66.8,
      "averageSpeedMph": 15.1,
      "safetyEvents": [
        {
          "type": "speeding",
          "startMs": 1737135000000,
          "maxSpeedMph": 66.8
        }
      ]
    },
    {
      "id": "trip_48271925_20250117_002",
      "vehicleId": "48271925",
      "driverId": "20000035",
      "startMs": 1737109620000,
      "endMs": 1737110866593,
      "startAddress": "111 Smith Key",
      "endAddress": "786 Charles Mall Apt. 484",
      "startCoords": {
        "latitude": 40.712394,
        "longitude": -111.811776
      },
      "endCoords": {
        "latitude": 40.754989,
        "longitude": -111.775573
      },
      "distanceMeters": 7253.7,
      "durationMs": 1246594,
      "drivingDurationMs": 1049910,
      "idlingDurationMs": 196684,
      "fuelConsumedMl": 924,
      "fuelConsumedGallons": 0.244,
      "maxSpeedMph": 42.0,
      "averageSpeedMph": 13.0,
      "safetyEvents": []
    },
    {
      "id": "trip_48271925_20250118_001",
      "vehicleId": "48271925",
      "driverId": "20000033",
      "startMs": 1737203820000,
      "endMs": 1737215686008,
      "startAddress": "30366 Stephanie Path Suite 026",
      "endAddress": "75840 Perez Track Apt. 886",
      "startCoords": {
        "latitude": 40.776139,
        "longitude": -111.789136
      },
      "endCoords": {
        "latitude": 40.727329,
        "longitude": -111.869061
      },
      "distanceMeters": 64296.1,
      "durationMs": 11866009,
      "drivingDurationMs": 10642131,
      "idlingDurationMs": 1223878,
      "fuelConsumedMl": 8176,
      "fuelConsumedGallons": 2.16,
      "maxSpeedMph": 31.0,
      "averageSpeedMph": 12.1,
      "safetyEvents": []
    },
    {
      "id": "trip_48271925_20250119_001",
      "vehicleId": "48271925",
      "driverId": "20000038",
      "startMs": 1737292740000,
      "endMs": 1737301711434,
      "startAddress": "3357 Kim Extensions",
      "endAddress": "7492 Jeffrey Place",
      "startCoords": {
        "latitude": 40.760579,
        "longitude": -111.813868
      },
      "endCoords": {
        "latitude": 40.777072,
        "longitude": -111.946796
      },
      "distanceMeters": 74189.9,
      "durationMs": 8971434,
      "drivingDurationMs": 8394256,
      "idlingDurationMs": 577179,
      "fuelConsumedMl": 9433,
      "fuelConsumedGallons": 2.492,
      "maxSpeedMph": 62.9,
      "averageSpeedMph": 18.5,
      "safetyEvents": []
    },
    {
      "id": "trip_48271925_20250119_002",
      "vehicleId": "48271925",
      "driverId": "20000038",
      "startMs": 1737297120000,
      "endMs": 1737310507733,
      "startAddress": "68289 Miranda Turnpike Suite 024",
      "endAddress": "4531 Thomas Route Apt. 700",
      "startCoords": {
        "latitude": 40.755116,
        "longitude": -111.881214
      },
      "endCoords": {
        "latitude": 40.774943,
        "longitude": -111.829581
      },
      "distanceMeters": 60240.2,
      "durationMs": 13387733,
      "drivingDurationMs": 10779919,
      "idlingDurationMs": 2607815,
      "fuelConsumedMl": 7658,
      "fuelConsumedGallons": 2.023,
      "maxSpeedMph": 64.7,
      "averageSpeedMph": 10.1,
      "safetyEvents": []
    },
    {
      "id": "trip_48271925_20250120_001",
      "vehicleId": "48271925",
      "driverId": "20000033",
      "startMs": 1737381180000,
      "endMs": 1737386088041,
      "startAddress": "587 Laura Forest Apt. 710",
      "endAddress": "4006 David Coves Suite 867",
      "startCoords": {
        "latitude": 40.727845,
        "longitude": -111.836181
      },
      "endCoords": {
        "latitude": 40.724534,
        "longitude": -111.812624
      },
      "distanceMeters": 26136.0,
      "durationMs": 4908042,
      "drivingDurationMs": 4000313,
      "idlingDurationMs": 907729,
      "fuelConsumedMl": 3324,
      "fuelConsumedGallons": 0.878,
      "maxSpeedMph": 71.1,
      "averageSpeedMph": 11.9,
      "safetyEvents": [
        {
          "type": "speeding",
          "startMs": 1737381960000,
          "maxSpeedMph": 71.1
        }
      ]
    },
    {
      "id": "trip_48271925_20250120_002",
      "vehicleId": "48271925",
      "driverId": "20000033",
      "startMs": 1737378420000,
      "endMs": 1737392157395,
      "startAddress": "240 Miles Villages Apt. 550",
      "endAddress": "7644 Garrett Way Apt. 148",
      "startCoords": {
        "latitude": 40.750749,
        "longitude": -111.915904
      },
      "endCoords": {
        "latitude": 40.798769,
        "longitude": -111.952527
      },
      "distanceMeters": 65055.9,
      "durationMs": 13737395,
      "drivingDurationMs": 11489522,
      "idlingDurationMs": 2247873,
      "fuelConsumedMl": 8271,
      "fuelConsumedGallons": 2.185,
      "maxSpeedMph": 44.2,
      "averageSpeedMph": 10.6,
      "safetyEvents": []
    },
    {
      "id": "trip_48271925_20250120_003",
      "vehicleId": "48271925",
      "driverId": "20000033",
      "startMs": 1737361320000,
      "endMs": 1737373895738,
      "startAddress": "642 Baldwin Circle",
      "endAddress": "65451 Jennifer Vista Suite 002",
      "startCoords": {
        "latitude": 40.676943,
        "longitude": -111.8938
      },
      "endCoords": {
        "latitude": 40.732815,
        "longitude": -111.825049
      },
      "distanceMeters": 65573.5,
      "durationMs": 12575739,
      "drivingDurationMs": 10081332,
      "idlingDurationMs": 2494406,
      "fuelConsumedMl": 8335,
      "fuelConsumedGallons": 2.202,
      "maxSpeedMph": 68.4,
      "averageSpeedMph": 11.7,
      "safetyEvents": [
        {
          "type": "speeding",
          "startMs": 1737367260000,
          "maxSpeedMph": 68.4
        }
      ]
    },
    {
      "id": "trip_48271925_20250120_004",
      "vehicleId": "48271925",
      "driverId": "20000033",
      "startMs": 1737378780000,
      "endMs": 1737386330700,
      "startAddress": "65679 Robert Dale",
      "endAddress": "41781 Mills Street Apt. 896",
      "startCoords": {
        "latitude": 40.751434,
        "longitude": -111.928915
      },
      "endCoords": {
        "latitude": 40.755382,
        "longitude": -111.839202
      },
      "distanceMeters": 30614.1,
      "durationMs": 7550701,
      "drivingDurationMs": 6073123,
      "idlingDurationMs": 1477577,
      "fuelConsumedMl": 3891,
      "fuelConsumedGallons": 1.028,
      "maxSpeedMph": 61.4,
      "averageSpeedMph": 9.1,
      "safetyEvents": []
    },
    {
      "id": "trip_48271925_20250120_005",
      "vehicleId": "48271925",
      "driverId": "20000033",
      "startMs": 1737370260000,
      "endMs": 1737378240861,
      "startAddress": "861 Russell Drive Apt. 193",
      "endAddress": "757 Downs Extension Apt. 876",
      "startCoords": {
        "latitude": 40.791568,
        "longitude": -111.927493
      },
      "endCoords": {
        "latitude": 40.710741,
        "longitude": -111.913018
      },
      "distanceMeters": 41900.1,
      "durationMs": 7980862,
      "drivingDurationMs": 6445046,
      "idlingDurationMs": 1535816,
      "fuelConsumedMl": 5326,
      "fuelConsumedGallons": 1.407,
      "maxSpeedMph": 46.3,
      "averageSpeedMph": 11.7,
      "safetyEvents": []
    },
    {
      "id": "trip_48271925_20250120_006",
      "vehicleId": "48271925",
      "driverId": "20000033",
      "startMs": 1737394800000,
      "endMs": 1737406800000,
      "startAddress": "44471 Cunningham Shoals Apt. 390",
      "endAddress": "80862 Logan Squares Suite 714",
      "startCoords": {
        "latitude": 40.738738,
        "longitude": -111.928878
      },
      "endCoords": {
        "latitude": 40.794805,
        "longitude": -111.878931
      },
      "distanceMeters": 62035.1,
      "durationMs": 12000000,
      "drivingDurationMs": 10703629,
      "idlingDurationMs": 1296371,
      "fuelConsumedMl": 7889,
      "fuelConsumedGallons": 2.084,
      "maxSpeedMph": 69.0,
      "averageSpeedMph": 11.6,
      "safetyEvents": [
        {
          "type": "speeding",
          "startMs": 1737400920000,
          "maxSpeedMph": 69.0
        }
      ]
    },
    {
      "id": "trip_48271925_20250121_001",
      "vehicleId": "48271925",
      "driverId": "20000038",
      "startMs": 1737460680000,
      "endMs": 1737472203299,
      "startAddress": "447 Alexander Roads Apt. 107",
      "endAddress": "876 Castillo Inlet",
      "startCoords": {
        "latitude": 40.716745,
        "longitude": -111.912541
      },
      "endCoords": {
        "latitude": 40.691771,
        "longitude": -111.775492
      },
      "distanceMeters": 53863.9,
      "durationMs": 11523299,
      "drivingDurationMs": 9868432,
      "idlingDurationMs": 1654868,
      "fuelConsumedMl": 6848,
      "fuelConsumedGallons": 1.809,
      "maxSpeedMph": 35.7,
      "averageSpeedMph": 10.5,
      "safetyEvents": []
    },
    {
      "id": "trip_48271925_20250121_002",
      "vehicleId": "48271925",
      "driverId": "20000038",
      "startMs": 1737468540000,
      "endMs": 1737475373413,
      "startAddress": "34335 Hunt Forges Suite 011",
      "endAddress": "36136 Timothy Islands",
      "startCoords": {
        "latitude": 40.741191,
        "longitude": -111.943968
      },
      "endCoords": {
        "latitude": 40.667963,
        "longitude": -111.934707
      },
      "distanceMeters": 49263.8,
      "durationMs": 6833414,
      "drivingDurationMs": 5557995,
      "idlingDurationMs": 1275419,
      "fuelConsumedMl": 6265,
      "fuelConsumedGallons": 1.655,
      "maxSpeedMph": 39.6,
      "averageSpeedMph": 16.1,
      "safetyEvents": []
    },
    {
      "id": "trip_48271925_20250121_003",
      "vehicleId": "48271925",
      "driverId": "20000038",
      "startMs": 1737483120000,
      "endMs": 1737493200000,
      "startAddress": "0503 Susan Landing",
      "endAddress": "63784 Becker Mission",
      "startCoords": {
        "latitude": 40.743009,
        "longitude": -111.88959
      },
      "endCoords": {
        "latitude": 40.71843,
        "longitude": -111.880566
      },
      "distanceMeters": 57972.0,
      "durationMs": 10080000,
      "drivingDurationMs": 8064000,
      "idlingDurationMs": 2016000,
      "fuelConsumedMl": 7370,
      "fuelConsumedGallons": 1.947,
      "maxSpeedMph": 71.2,
      "averageSpeedMph": 12.9,
      "safetyEvents": [
        {
          "type": "speeding",
          "startMs": 1737492120000,
          "maxSpeedMph": 71.2
        }
      ]
    },
    {
      "id": "trip_48271925_20250121_004",
      "vehicleId": "48271925",
      "driverId": "20000038",
      "startMs": 1737454140000,
      "endMs": 1737457027648,
      "startAddress": "2530 Joseph Run",
      "endAddress": "0273 Sandy Locks",
      "startCoords": {
        "latitude": 40.760057,
        "longitude": -111.894771
      },
      "endCoords": {
        "latitude": 40.780348,
        "longitude": -111.821622
      },
      "distanceMeters": 22347.4,
      "durationMs": 2887649,
      "drivingDurationMs": 2573250,
      "idlingDurationMs": 314398,
      "fuelConsumedMl": 2843,
      "fuelConsumedGallons": 0.751,
      "maxSpeedMph": 36.3,
      "averageSpeedMph": 17.3,
      "safetyEvents": []
    },
    {
      "id": "trip_48271925_20250121_005",
      "vehicleId": "48271925",
      "driverId": "20000038",
      "startMs": 1737456960000,
      "endMs": 1737459866735,
      "startAddress": "2870 Jack Hollow",
      "endAddress": "97511 Kimberly Port",
      "startCoords": {
        "latitude": 40.700307,
        "longitude": -111.858508
      },
      "endCoords": {
        "latitude": 40.76827,
        "longitude": -111.951907
      },
      "distanceMeters": 17721.4,
      "durationMs": 2906736,
      "drivingDurationMs": 2550584,
      "idlingDurationMs": 356151,
      "fuelConsumedMl": 2252,
      "fuelConsumedGallons": 0.595,
      "maxSpeedMph": 48.9,
      "averageSpeedMph": 13.6,
      "safetyEvents": []
    },
    {
      "id": "trip_48271925_20250121_006",
      "vehicleId": "48271925",
      "driverId": "20000038",
      "startMs": 1737450000000,
      "endMs": 1737460945700,
      "startAddress": "409 Bell Mountain",
      "endAddress": "645 Katherine Mills Apt. 303",
      "startCoords": {
        "latitude": 40.770418,
        "longitude": -111.77464
      },
      "endCoords": {
        "latitude": 40.739076,
        "longitude": -111.80879
      },
      "distanceMeters": 70303.5,
      "durationMs": 10945700,
      "drivingDurationMs": 8963978,
      "idlingDurationMs": 1981722,
      "fuelConsumedMl": 8937,
      "fuelConsumedGallons": 2.361,
      "maxSpeedMph": 48.9,
      "averageSpeedMph": 14.4,
      "safetyEvents": []
    },
    {
      "id": "trip_48271925_20250122_001",
      "vehicleId": "48271925",
      "driverId": "20000037",
      "startMs": 1737534120000,
      "endMs": 1737543807166,
      "startAddress": "5003 Chelsey Place",
      "endAddress": "8825 Glenn Ferry Apt. 865",
      "startCoords": {
        "latitude": 40.673397,
        "longitude": -111.934864
      },
      "endCoords": {
        "latitude": 40.705764,
        "longitude": -111.898969
      },
      "distanceMeters": 42480.6,
      "durationMs": 9687166,
      "drivingDurationMs": 8394175,
      "idlingDurationMs": 1292991,
      "fuelConsumedMl": 5402,
      "fuelConsumedGallons": 1.427,
      "maxSpeedMph": 66.9,
      "averageSpeedMph": 9.8,
      "safetyEvents": [
        {
          "type": "speeding",
          "startMs": 1737535860000,
          "maxSpeedMph": 66.9
        }
      ]
    },
    {
      "id": "trip_48271925_20250122_002",
      "vehicleId": "48271925",
      "driverId": null,
      "startMs": 1737540900000,
      "endMs": 1737547151612,
      "startAddress": "77486 Hector Terrace",
      "endAddress": "78116 Gabrielle Mill Apt. 732",
      "startCoords": {
        "latitude": 40.682889,
        "longitude": -111.787806
      },
      "endCoords": {
        "latitude": 40.781393,
        "longitude": -111.860087
      },
      "distanceMeters": 47297.0,
      "durationMs": 6251613,
      "drivingDurationMs": 5672521,
      "idlingDurationMs": 579092,
      "fuelConsumedMl": 6015,
      "fuelConsumedGallons": 1.589,
      "maxSpeedMph": 42.7,
      "averageSpeedMph": 16.9,
      "safetyEvents": []
    },
    {
      "id": "trip_48271925_20250122_003",
      "vehicleId": "48271925",
      "driverId": "20000037",
      "startMs": 1737548460000,
      "endMs": 1737564128057,
      "startAddress": "7797 Hawkins Glens Apt. 852",
      "endAddress": "619 Scott Lodge",
      "startCoords": {
        "latitude": 40.77024,
        "longitude": -111.862423
      },
      "endCoords": {
        "latitude": 40.768409,
        "longitude": -111.927067
      },
      "distanceMeters": 71630.5,
      "durationMs": 15668057,
      "drivingDurationMs": 13123479,
      "idlingDurationMs": 2544578,
      "fuelConsumedMl": 9108,
      "fuelConsumedGallons": 2.406,
      "maxSpeedMph": 33.4,
      "averageSpeedMph": 10.2,
      "safetyEvents": []
    },
    {
      "id": "trip_48271925_20250122_004",
      "vehicleId": "48271925",
      "driverId": "20000037",
      "startMs": 1737539460000,
      "endMs": 1737545702423,
      "startAddress": "5768 Katrina River",
      "endAddress": "2824 Lisa Street Suite 868",
      "startCoords": {
        "latitude": 40.796057,
        "longitude": -111.869973
      },
      "endCoords": {
        "latitude": 40.784353,
        "longitude": -111.823862
      },
      "distanceMeters": 53378.4,
      "durationMs": 6242423,
      "drivingDurationMs": 6005988,
      "idlingDurationMs": 236436,
      "fuelConsumedMl": 6787,
      "fuelConsumedGallons": 1.793,
      "maxSpeedMph": 65.9,
      "averageSpeedMph": 19.1,
      "safetyEvents": [
        {
          "type": "speeding",
          "startMs": 1737543720000,
          "maxSpeedMph": 65.9
        }
      ]
    },
    {
      "id": "trip_48271925_20250122_005",
      "vehicleId": "48271925",
      "driverId": "20000037",
      "startMs": 1737539460000,
      "endMs": 1737541001536,
      "startAddress": "2887 Mark Port",
      "endAddress": "2419 Roberts Crossing Suite 717",
      "startCoords": {
        "latitude": 40.747998,
        "longitude": -111.874692
      },
      "endCoords": {
        "latitude": 40.714052,
        "longitude": -111.935228
      },
      "distanceMeters": 9246.6,
      "durationMs": 1541537,
      "drivingDurationMs": 1286817,
      "idlingDurationMs": 254720,
      "fuelConsumedMl": 1177,
      "fuelConsumedGallons": 0.311,
      "maxSpeedMph": 28.8,
      "averageSpeedMph": 13.4,
      "safetyEvents": []
    },
    {
      "id": "trip_48271925_20250122_006",
      "vehicleId": "48271925",
      "driverId": null,
      "startMs": 1737568500000,
      "endMs": 1737569916499,
      "startAddress": "69672 Michael Meadow Suite 551",
      "endAddress": "5998 Cameron Flats Apt. 995",
      "startCoords": {
        "latitude": 40.726702,
        "longitude": -111.942902
      },
      "endCoords": {
        "latitude": 40.722175,
        "longitude": -111.848723
      },
      "distanceMeters": 10213.4,
      "durationMs": 1416500,
      "drivingDurationMs": 1221089,
      "idlingDurationMs": 195411,
      "fuelConsumedMl": 1298,
      "fuelConsumedGallons": 0.343,
      "maxSpeedMph": 28.8,
      "averageSpeedMph": 16.1,
      "safetyEvents": []
    },
    {
      "id": "trip_48271925_20250123_001",
      "vehicleId": "48271925",
      "driverId": "20000033",
      "startMs": 1737634800000,
      "endMs": 1737638537015,
      "startAddress": "612 Perkins Alley Suite 280",
      "endAddress": "344 Jacobs Rest Apt. 910",
      "startCoords": {
        "latitude": 40.698641,
        "longitude": -111.920482
      },
      "endCoords": {
        "latitude": 40.781314,
        "longitude": -111.831102
      },
      "distanceMeters": 26652.3,
      "durationMs": 3737015,
      "drivingDurationMs": 3405982,
      "idlingDurationMs": 331033,
      "fuelConsumedMl": 3388,
      "fuelConsumedGallons": 0.895,
      "maxSpeedMph": 71.0,
      "averageSpeedMph": 16.0,
      "safetyEvents": [
        {
          "type": "speeding",
          "startMs": 1737638340000,
          "maxSpeedMph": 71.0
        }
      ]
    },
    {
      "id": "trip_48271925_20250123_002",
      "vehicleId": "48271925",
      "driverId": "20000033",
      "startMs": 1737658380000,
      "endMs": 1737662783274,
      "startAddress": "19379 Joseph Walks",
      "endAddress": "07919 Willis Forge Suite 920",
      "startCoords": {
        "latitude": 40.770705,
        "longitude": -111.953922
      },
      "endCoords": {
        "latitude": 40.665491,
        "longitude": -111.834804
      },
      "distanceMeters": 21620.3,
      "durationMs": 4403274,
      "drivingDurationMs": 4097173,
      "idlingDurationMs": 306101,
      "fuelConsumedMl": 2748,
      "fuelConsumedGallons": 0.726,
      "maxSpeedMph": 65.0,
      "averageSpeedMph": 11.0,
      "safetyEvents": []
    },
    {
      "id": "trip_48271925_20250123_003",
      "vehicleId": "48271925",
      "driverId": "20000033",
      "startMs": 1737635640000,
      "endMs": 1737639061455,
      "startAddress": "3049 Moreno Bypass",
      "endAddress": "0144 Adam Cove Apt. 670",
      "startCoords": {
        "latitude": 40.760864,
        "longitude": -111.783534
      },
      "endCoords": {
        "latitude": 40.763867,
        "longitude": -111.926943
      },
      "distanceMeters": 24796.7,
      "durationMs": 3421456,
      "drivingDurationMs": 2903506,
      "idlingDurationMs": 517950,
      "fuelConsumedMl": 3153,
      "fuelConsumedGallons": 0.833,
      "maxSpeedMph": 67.3,
      "averageSpeedMph": 16.2,
      "safetyEvents": [
        {
          "type": "speeding",
          "startMs": 1737637140000,
          "maxSpeedMph": 67.3
        }
      ]
    },
    {
      "id": "trip_48271925_20250124_001",
      "vehicleId": "48271925",
      "driverId": "20000039",
      "startMs": 1737737160000,
      "endMs": 1737741177972,
      "startAddress": "8902 Shannon Tunnel",
      "endAddress": "07447 Melissa Streets Apt. 764",
      "startCoords": {
        "latitude": 40.785574,
        "longitude": -111.890858
      },
      "endCoords": {
        "latitude": 40.702857,
        "longitude": -111.826688
      },
      "distanceMeters": 27536.6,
      "durationMs": 4017972,
      "drivingDurationMs": 3565998,
      "idlingDurationMs": 451974,
      "fuelConsumedMl": 3502,
      "fuelConsumedGallons": 0.925,
      "maxSpeedMph": 71.4,
      "averageSpeedMph": 15.3,
      "safetyEvents": [
        {
          "type": "speeding",
          "startMs": 1737740640000,
          "maxSpeedMph": 71.4
        }
      ]
    },
    {
      "id": "trip_48271925_20250124_002",
      "vehicleId": "48271925",
      "driverId": "20000039",
      "startMs": 1737714720000,
      "endMs": 1737721269816,
      "startAddress": "117 Gabriel Fort",
      "endAddress": "1982 Smith Glens Suite 959",
      "startCoords": {
        "latitude": 40.675091,
        "longitude": -111.849571
      },
      "endCoords": {
        "latitude": 40.703523,
        "longitude": -111.892427
      },
      "distanceMeters": 42122.8,
      "durationMs": 6549817,
      "drivingDurationMs": 5774304,
      "idlingDurationMs": 775513,
      "fuelConsumedMl": 5356,
      "fuelConsumedGallons": 1.415,
      "maxSpeedMph": 32.0,
      "averageSpeedMph": 14.4,
      "safetyEvents": []
    },
    {
      "id": "trip_48271925_20250124_003",
      "vehicleId": "48271925",
      "driverId": "20000039",
      "startMs": 1737743700000,
      "endMs": 1737751445788,
      "startAddress": "978 Hernandez Tunnel",
      "endAddress": "96971 Rice Mission Suite 541",
      "startCoords": {
        "latitude": 40.780912,
        "longitude": -111.899618
      },
      "endCoords": {
        "latitude": 40.780625,
        "longitude": -111.90681
      },
      "distanceMeters": 52863.5,
      "durationMs": 7745789,
      "drivingDurationMs": 6743324,
      "idlingDurationMs": 1002465,
      "fuelConsumedMl": 6723,
      "fuelConsumedGallons": 1.776,
      "maxSpeedMph": 37.8,
      "averageSpeedMph": 15.3,
      "safetyEvents": []
    },
    {
      "id": "trip_48271925_20250124_004",
      "vehicleId": "48271925",
      "driverId": "20000039",
      "startMs": 1737733200000,
      "endMs": 1737744598849,
      "startAddress": "476 Brittany Shoal",
      "endAddress": "497 Richard Crescent Suite 102",
      "startCoords": {
        "latitude": 40.688249,
        "longitude": -111.896478
      },
      "endCoords": {
        "latitude": 40.765938,
        "longitude": -111.84009
      },
      "distanceMeters": 71878.8,
      "durationMs": 11398850,
      "drivingDurationMs": 9390765,
      "idlingDurationMs": 2008085,
      "fuelConsumedMl": 9138,
      "fuelConsumedGallons": 2.414,
      "maxSpeedMph": 30.9,
      "averageSpeedMph": 14.1,
      "safetyEvents": []
    },
    {
      "id": "trip_48271925_20250124_005",
      "vehicleId": "48271925",
      "driverId": "20000039",
      "startMs": 1737739260000,
      "endMs": 1737741931985,
      "startAddress": "3090 Kathryn Vista Suite 730",
      "endAddress": "2319 James Shore Apt. 757",
      "startCoords": {
        "latitude": 40.799037,
        "longitude": -111.854471
      },
      "endCoords": {
        "latitude": 40.662494,
        "longitude": -111.858826
      },
      "distanceMeters": 16452.2,
      "durationMs": 2671985,
      "drivingDurationMs": 2304435,
      "idlingDurationMs": 367550,
      "fuelConsumedMl": 2093,
      "fuelConsumedGallons": 0.553,
      "maxSpeedMph": 57.9,
      "averageSpeedMph": 13.8,
      "safetyEvents": []
    },
    {
      "id": "trip_48271925_20250124_006",
      "vehicleId": "48271925",
      "driverId": "20000039",
      "startMs": 1737726120000,
      "endMs": 1737730534955,
      "startAddress": "7665 Thomas Rapids Suite 664",
      "endAddress": "70731 Kristopher Stravenue Apt. 102",
      "startCoords": {
        "latitude": 40.784947,
        "longitude": -111.882343
      },
      "endCoords": {
        "latitude": 40.686391,
        "longitude": -111.801903
      },
      "distanceMeters": 29154.3,
      "durationMs": 4414955,
      "drivingDurationMs": 4028638,
      "idlingDurationMs": 386317,
      "fuelConsumedMl": 3706,
      "fuelConsumedGallons": 0.979,
      "maxSpeedMph": 30.8,
      "averageSpeedMph": 14.8,
      "safetyEvents": []
    },
    {
      "id": "trip_48271925_20250125_001",
      "vehicleId": "48271925",
      "driverId": null,
      "startMs": 1737811920000,
      "endMs": 1737826482314,
      "startAddress": "211 Fisher Garden Suite 067",
      "endAddress": "47507 Greg Mission Apt. 588",
      "startCoords": {
        "latitude": 40.743542,
        "longitude": -111.868469
      },
      "endCoords": {
        "latitude": 40.747966,
        "longitude": -111.954491
      },
      "distanceMeters": 84233.7,
      "durationMs": 14562315,
      "drivingDurationMs": 13744275,
      "idlingDurationMs": 818039,
      "fuelConsumedMl": 10709,
      "fuelConsumedGallons": 2.829,
      "maxSpeedMph": 58.8,
      "averageSpeedMph": 12.9,
      "safetyEvents": []
    },
    {
      "id": "trip_48271925_20250125_002",
      "vehicleId": "48271925",
      "driverId": "20000034",
      "startMs": 1737829080000,
      "endMs": 1737834511535,
      "startAddress": "32287 Wright Drive Apt. 056",
      "endAddress": "1829 Beck Canyon Suite 044",
      "startCoords": {
        "latitude": 40.751074,
        "longitude": -111.801011
      },
      "endCoords": {
        "latitude": 40.715892,
        "longitude": -111.840505
      },
      "distanceMeters": 38890.7,
      "durationMs": 5431535,
      "drivingDurationMs": 4470111,
      "idlingDurationMs": 961424,
      "fuelConsumedMl": 4944,
      "fuelConsumedGallons": 1.306,
      "maxSpeedMph": 41.5,
      "averageSpeedMph": 16.0,
      "safetyEvents": []
    },
    {
      "id": "trip_48271925_20250125_003",
      "vehicleId": "48271925",
      "driverId": "20000034",
      "startMs": 1737801480000,
      "endMs": 1737810457119,
      "startAddress": "173 Andrew Lock",
      "endAddress": "787 Logan Harbors Apt. 574",
      "startCoords": {
        "latitude": 40.657239,
        "longitude": -111.826169
      },
      "endCoords": {
        "latitude": 40.676484,
        "longitude": -111.890848
      },
      "distanceMeters": 57090.2,
      "durationMs": 8977120,
      "drivingDurationMs": 8283304,
      "idlingDurationMs": 693816,
      "fuelConsumedMl": 7260,
      "fuelConsumedGallons": 1.918,
      "maxSpeedMph": 59.3,
      "averageSpeedMph": 14.2,
      "safetyEvents": []
    },
    {
      "id": "trip_48271925_20250126_001",
      "vehicleId": "48271925",
      "driverId": "20000035",
      "startMs": 1737878160000,
      "endMs": 1737880881704,
      "startAddress": "3366 Nielsen Path Apt. 932",
      "endAddress": "667 Sonya Manors",
      "startCoords": {
        "latitude": 40.755489,
        "longitude": -111.830373
      },
      "endCoords": {
        "latitude": 40.762766,
        "longitude": -111.928454
      },
      "distanceMeters": 19610.1,
      "durationMs": 2721705,
      "drivingDurationMs": 2413346,
      "idlingDurationMs": 308359,
      "fuelConsumedMl": 2495,
      "fuelConsumedGallons": 0.659,
      "maxSpeedMph": 34.0,
      "averageSpeedMph": 16.1,
      "safetyEvents": []
    },
    {
      "id": "trip_48271925_20250126_002",
      "vehicleId": "48271925",
      "driverId": "20000035",
      "startMs": 1737889980000,
      "endMs": 1737896958498,
      "startAddress": "6857 Clark Mount",
      "endAddress": "508 William Meadow Apt. 057",
      "startCoords": {
        "latitude": 40.733514,
        "longitude": -111.94627
      },
      "endCoords": {
        "latitude": 40.696946,
        "longitude": -111.843598
      },
      "distanceMeters": 52976.2,
      "durationMs": 6978498,
      "drivingDurationMs": 6778639,
      "idlingDurationMs": 199859,
      "fuelConsumedMl": 6734,
      "fuelConsumedGallons": 1.779,
      "maxSpeedMph": 40.7,
      "averageSpeedMph": 17.0,
      "safetyEvents": []
    },
    {
      "id": "trip_48271925_20250126_003",
      "vehicleId": "48271925",
      "driverId": "20000035",
      "startMs": 1737879780000,
      "endMs": 1737887856496,
      "startAddress": "5284 Erickson Islands",
      "endAddress": "4391 Michael Alley Suite 568",
      "startCoords": {
        "latitude": 40.713809,
        "longitude": -111.839412
      },
      "endCoords": {
        "latitude": 40.764448,
        "longitude": -111.927054
      },
      "distanceMeters": 58815.6,
      "durationMs": 8076497,
      "drivingDurationMs": 6828574,
      "idlingDurationMs": 1247923,
      "fuelConsumedMl": 7476,
      "fuelConsumedGallons": 1.975,
      "maxSpeedMph": 64.2,
      "averageSpeedMph": 16.3,
      "safetyEvents": []
    },
    {
      "id": "trip_48271925_20250126_004",
      "vehicleId": "48271925",
      "driverId": "20000035",
      "startMs": 1737917520000,
      "endMs": 1737925200000,
      "startAddress": "738 Gary Isle Suite 999",
      "endAddress": "12993 Pamela Street",
      "startCoords": {
        "latitude": 40.749464,
        "longitude": -111.942798
      },
      "endCoords": {
        "latitude": 40.678097,
        "longitude": -111.814565
      },
      "distanceMeters": 41054.1,
      "durationMs": 7680000,
      "drivingDurationMs": 6144000,
      "idlingDurationMs": 1536000,
      "fuelConsumedMl": 5220,
      "fuelConsumedGallons": 1.379,
      "maxSpeedMph": 28.8,
      "averageSpeedMph": 12.0,
      "safetyEvents": []
    },
    {
      "id": "trip_48271925_20250127_001",
      "vehicleId": "48271925",
      "driverId": "20000039",
      "startMs": 1738002960000,
      "endMs": 1738011600000,
      "startAddress": "780 Keith Valleys",
      "endAddress": "902 Colin Terrace",
      "startCoords": {
        "latitude": 40.690809,
        "longitude": -111.959976
      },
      "endCoords": {
        "latitude": 40.771409,
        "longitude": -111.896193
      },
      "distanceMeters": 58443.2,
      "durationMs": 8640000,
      "drivingDurationMs": 8083611,
      "idlingDurationMs": 556389,
      "fuelConsumedMl": 7431,
      "fuelConsumedGallons": 1.963,
      "maxSpeedMph": 62.0,
      "averageSpeedMph": 15.1,
      "safetyEvents": []
    },
    {
      "id": "trip_48271925_20250127_002",
      "vehicleId": "48271925",
      "driverId": "20000039",
      "startMs": 1737960120000,
      "endMs": 1737969770848,
      "startAddress": "140 Holland Dale",
      "endAddress": "831 Adam Vista Suite 057",
      "startCoords": {
        "latitude": 40.691532,
        "longitude": -111.821878
      },
      "endCoords": {
        "latitude": 40.74508,
        "longitude": -111.82667
      },
      "distanceMeters": 61227.3,
      "durationMs": 9650848,
      "drivingDurationMs": 8568268,
      "idlingDurationMs": 1082580,
      "fuelConsumedMl": 7783,
      "fuelConsumedGallons": 2.056,
      "maxSpeedMph": 45.9,
      "averageSpeedMph": 14.2,
      "safetyEvents": []
    },
    {
      "id": "trip_48271925_20250127_003",
      "vehicleId": "48271925",
      "driverId": "20000039",
      "startMs": 1737959520000,
      "endMs": 1737965662420,
      "startAddress": "7339 Garcia Way",
      "endAddress": "619 Sanchez Street",
      "startCoords": {
        "latitude": 40.788928,
        "longitude": -111.7938
      },
      "endCoords": {
        "latitude": 40.776314,
        "longitude": -111.792024
      },
      "distanceMeters": 46418.7,
      "durationMs": 6142421,
      "drivingDurationMs": 5607741,
      "idlingDurationMs": 534680,
      "fuelConsumedMl": 5901,
      "fuelConsumedGallons": 1.559,
      "maxSpeedMph": 52.5,
      "averageSpeedMph": 16.9,
      "safetyEvents": []
    },
    {
      "id": "trip_48271925_20250127_004",
      "vehicleId": "48271925",
      "driverId": "20000039",
      "startMs": 1737985560000,
      "endMs": 1737997378194,
      "startAddress": "03254 Johnson Viaduct",
      "endAddress": "72776 Cory Court",
      "startCoords": {
        "latitude": 40.76905,
        "longitude": -111.907701
      },
      "endCoords": {
        "latitude": 40.727724,
        "longitude": -111.804781
      },
      "distanceMeters": 84082.8,
      "durationMs": 11818194,
      "drivingDurationMs": 9732755,
      "idlingDurationMs": 2085439,
      "fuelConsumedMl": 10690,
      "fuelConsumedGallons": 2.824,
      "maxSpeedMph": 63.6,
      "averageSpeedMph": 15.9,
      "safetyEvents": []
    },
    {
      "id": "trip_48271925_20250127_005",
      "vehicleId": "48271925",
      "driverId": "20000039",
      "startMs": 1737996660000,
      "endMs": 1737999354840,
      "startAddress": "36651 Andrew Mountains Apt. 338",
      "endAddress": "46318 Ramos Creek Apt. 406",
      "startCoords": {
        "latitude": 40.751573,
        "longitude": -111.945824
      },
      "endCoords": {
        "latitude": 40.796553,
        "longitude": -111.876951
      },
      "distanceMeters": 20032.9,
      "durationMs": 2694840,
      "drivingDurationMs": 2314725,
      "idlingDurationMs": 380116,
      "fuelConsumedMl": 2548,
      "fuelConsumedGallons": 0.673,
      "maxSpeedMph": 69.3,
      "averageSpeedMph": 16.6,
      "safetyEvents": [
        {
          "type": "speeding",
          "startMs": 1737997140000,
          "maxSpeedMph": 69.3
        }
      ]
    },
    {
      "id": "trip_48271925_20250128_001",
      "vehicleId": "48271925",
      "driverId": "20000037",
      "startMs": 1738084620000,
      "endMs": 1738086133576,
      "startAddress": "928 Osborne Wall Apt. 590",
      "endAddress": "192 Karen Cliffs Suite 264",
      "startCoords": {
        "latitude": 40.726306,
        "longitude": -111.79514
      },
      "endCoords": {
        "latitude": 40.754466,
        "longitude": -111.784002
      },
      "distanceMeters": 9016.3,
      "durationMs": 1513576,
      "drivingDurationMs": 1223390,
      "idlingDurationMs": 290186,
      "fuelConsumedMl": 1147,
      "fuelConsumedGallons": 0.303,
      "maxSpeedMph": 48.9,
      "averageSpeedMph": 13.3,
      "safetyEvents": []
    },
    {
      "id": "trip_48271925_20250128_002",
      "vehicleId": "48271925",
      "driverId": "20000037",
      "startMs": 1738060380000,
      "endMs": 1738062365187,
      "startAddress": "764 Steven Freeway Apt. 410",
      "endAddress": "346 Angela Inlet Suite 243",
      "startCoords": {
        "latitude": 40.737333,
        "longitude": -111.800486
      },
      "endCoords": {
        "latitude": 40.796027,
        "longitude": -111.857243
      },
      "distanceMeters": 13986.6,
      "durationMs": 1985188,
      "drivingDurationMs": 1778279,
      "idlingDurationMs": 206909,
      "fuelConsumedMl": 1779,
      "fuelConsumedGallons": 0.47,
      "maxSpeedMph": 54.2,
      "averageSpeedMph": 15.8,
      "safetyEvents": []
    },
    {
      "id": "trip_48271925_20250128_003",
      "vehicleId": "48271925",
      "driverId": "20000037",
      "startMs": 1738062240000,
      "endMs": 1738075220528,
      "startAddress": "524 Vanessa Locks Apt. 170",
      "endAddress": "797 Benjamin Groves",
      "startCoords": {
        "latitude": 40.717612,
        "longitude": -111.915008
      },
      "endCoords": {
        "latitude": 40.730051,
        "longitude": -111.944853
      },
      "distanceMeters": 54891.9,
      "durationMs": 12980529,
      "drivingDurationMs": 10953975,
      "idlingDurationMs": 2026554,
      "fuelConsumedMl": 6980,
      "fuelConsumedGallons": 1.844,
      "maxSpeedMph": 40.0,
      "averageSpeedMph": 9.5,
      "safetyEvents": []
    },
    {
      "id": "trip_48271925_20250129_001",
      "vehicleId": "48271925",
      "driverId": "20000036",
      "startMs": 1738139520000,
      "endMs": 1738150259310,
      "startAddress": "0886 Chris Loaf",
      "endAddress": "2238 Johnson Underpass",
      "startCoords": {
        "latitude": 40.795729,
        "longitude": -111.837106
      },
      "endCoords": {
        "latitude": 40.683745,
        "longitude": -111.792735
      },
      "distanceMeters": 79215.5,
      "durationMs": 10739311,
      "drivingDurationMs": 9724713,
      "idlingDurationMs": 1014598,
      "fuelConsumedMl": 10073,
      "fuelConsumedGallons": 2.661,
      "maxSpeedMph": 70.8,
      "averageSpeedMph": 16.5,
      "safetyEvents": [
        {
          "type": "speeding",
          "startMs": 1738144020000,
          "maxSpeedMph": 70.8
        }
      ]
    },
    {
      "id": "trip_48271925_20250129_002",
      "vehicleId": "48271925",
      "driverId": "20000036",
      "startMs": 1738170720000,
      "endMs": 1738182845092,
      "startAddress": "09811 Harvey Causeway Apt. 187",
      "endAddress": "91267 Jones Plains",
      "startCoords": {
        "latitude": 40.792658,
        "longitude": -111.784859
      },
      "endCoords": {
        "latitude": 40.739372,
        "longitude": -111.907423
      },
      "distanceMeters": 73414.1,
      "durationMs": 12125093,
      "drivingDurationMs": 11163405,
      "idlingDurationMs": 961688,
      "fuelConsumedMl": 9335,
      "fuelConsumedGallons": 2.466,
      "maxSpeedMph": 63.7,
      "averageSpeedMph": 13.5,
      "safetyEvents": []
    },
    {
      "id": "trip_48271925_20250129_003",
      "vehicleId": "48271925",
      "driverId": "20000036",
      "startMs": 1738132680000,
      "endMs": 1738139964392,
      "startAddress": "283 Alexis Ford",
      "endAddress": "398 Alexander Spur",
      "startCoords": {
        "latitude": 40.734999,
        "longitude": -111.858112
      },
      "endCoords": {
        "latitude": 40.674664,
        "longitude": -111.813657
      },
      "distanceMeters": 57715.6,
      "durationMs": 7284392,
      "drivingDurationMs": 7070516,
      "idlingDurationMs": 213876,
      "fuelConsumedMl": 7340,
      "fuelConsumedGallons": 1.939,
      "maxSpeedMph": 54.3,
      "averageSpeedMph": 17.7,
      "safetyEvents": []
    },
    {
      "id": "trip_48271925_20250130_001",
      "vehicleId": "48271925",
      "driverId": "20000038",
      "startMs": 1738248000000,
      "endMs": 1738258526719,
      "startAddress": "94973 Lee Divide Apt. 261",
      "endAddress": "672 White Plains",
      "startCoords": {
        "latitude": 40.690077,
        "longitude": -111.862044
      },
      "endCoords": {
        "latitude": 40.773136,
        "longitude": -111.877044
      },
      "distanceMeters": 64926.4,
      "durationMs": 10526719,
      "drivingDurationMs": 9012889,
      "idlingDurationMs": 1513831,
      "fuelConsumedMl": 8256,
      "fuelConsumedGallons": 2.181,
      "maxSpeedMph": 55.8,
      "averageSpeedMph": 13.8,
      "safetyEvents": []
    },
    {
      "id": "trip_48271925_20250130_002",
      "vehicleId": "48271925",
      "driverId": "20000038",
      "startMs": 1738250340000,
      "endMs": 1738252659008,
      "startAddress": "87045 Jennifer Turnpike",
      "endAddress": "403 Mendoza Forges Apt. 475",
      "startCoords": {
        "latitude": 40.690615,
        "longitude": -111.818014
      },
      "endCoords": {
        "latitude": 40.684338,
        "longitude": -111.953366
      },
      "distanceMeters": 11928.5,
      "durationMs": 2319009,
      "drivingDurationMs": 1874765,
      "idlingDurationMs": 444244,
      "fuelConsumedMl": 1518,
      "fuelConsumedGallons": 0.401,
      "maxSpeedMph": 43.1,
      "averageSpeedMph": 11.5,
      "safetyEvents": []
    },
    {
      "id": "trip_48271925_20250130_003",
      "vehicleId": "48271925",
      "driverId": "20000038",
      "startMs": 1738247400000,
      "endMs": 1738248668936,
      "startAddress": "933 Carlos Mews Suite 503",
      "endAddress": "052 Jacobson Centers",
      "startCoords": {
        "latitude": 40.787359,
        "longitude": -111.859122
      },
      "endCoords": {
        "latitude": 40.764157,
        "longitude": -111.868612
      },
      "distanceMeters": 8715.2,
      "durationMs": 1268936,
      "drivingDurationMs": 1046929,
      "idlingDurationMs": 222008,
      "fuelConsumedMl": 1109,
      "fuelConsumedGallons": 0.293,
      "maxSpeedMph": 59.0,
      "averageSpeedMph": 15.4,
      "safetyEvents": []
    },
    {
      "id": "trip_48271925_20250130_004",
      "vehicleId": "48271925",
      "driverId": "20000038",
      "startMs": 1738233540000,
      "endMs": 1738239401750,
      "startAddress": "086 Powell Inlet",
      "endAddress": "9488 Lawrence Wells",
      "startCoords": {
        "latitude": 40.712327,
        "longitude": -111.922575
      },
      "endCoords": {
        "latitude": 40.751102,
        "longitude": -111.889935
      },
      "distanceMeters": 40664.1,
      "durationMs": 5861750,
      "drivingDurationMs": 5359652,
      "idlingDurationMs": 502098,
      "fuelConsumedMl": 5171,
      "fuelConsumedGallons": 1.366,
      "maxSpeedMph": 68.0,
      "averageSpeedMph": 15.5,
      "safetyEvents": [
        {
          "type": "speeding",
          "startMs": 1738237320000,
          "maxSpeedMph": 68.0
        }
      ]
    },
    {
      "id": "trip_48271925_20250130_005",
      "vehicleId": "48271925",
      "driverId": null,
      "startMs": 1738233360000,
      "endMs": 1738239992047,
      "startAddress": "91106 Daniel Springs Suite 930",
      "endAddress": "301 Thompson Pass Suite 774",
      "startCoords": {
        "latitude": 40.792915,
        "longitude": -111.891931
      },
      "endCoords": {
        "latitude": 40.776842,
        "longitude": -111.826624
      },
      "distanceMeters": 39682.5,
      "durationMs": 6632047,
      "drivingDurationMs": 6283430,
      "idlingDurationMs": 348617,
      "fuelConsumedMl": 5046,
      "fuelConsumedGallons": 1.333,
      "maxSpeedMph": 32.3,
      "averageSpeedMph": 13.4,
      "safetyEvents": []
    },
    {
      "id": "trip_48271925_20250130_006",
      "vehicleId": "48271925",
      "driverId": "20000038",
      "startMs": 1738254780000,
      "endMs": 1738256548296,
      "startAddress": "307 Watts Knolls Suite 859",
      "endAddress": "313 Smith Roads",
      "startCoords": {
        "latitude": 40.67976,
        "longitude": -111.881896
      },
      "endCoords": {
        "latitude": 40.79661,
        "longitude": -111.856437
      },
      "distanceMeters": 12462.6,
      "durationMs": 1768296,
      "drivingDurationMs": 1477529,
      "idlingDurationMs": 290767,
      "fuelConsumedMl": 1586,
      "fuelConsumedGallons": 0.419,
      "maxSpeedMph": 69.3,
      "averageSpeedMph": 15.8,
      "safetyEvents": [
        {
          "type": "speeding",
          "startMs": 1738255680000,
          "maxSpeedMph": 69.3
        }
      ]
    },
    {
      "id": "trip_48271925_20250131_001",
      "vehicleId": "48271925",
      "driverId": null,
      "startMs": 1738312560000,
      "endMs": 1738324526003,
      "startAddress": "81222 Jane Circle Suite 750",
      "endAddress": "71975 Schneider Bridge",
      "startCoords": {
        "latitude": 40.74655,
        "longitude": -111.926468
      },
      "endCoords": {
        "latitude": 40.768555,
        "longitude": -111.798952
      },
      "distanceMeters": 70677.3,
      "durationMs": 11966004,
      "drivingDurationMs": 9844734,
      "idlingDurationMs": 2121270,
      "fuelConsumedMl": 8987,
      "fuelConsumedGallons": 2.374,
      "maxSpeedMph": 42.4,
      "averageSpeedMph": 13.2,
      "safetyEvents": []
    },
    {
      "id": "trip_48271925_20250131_002",
      "vehicleId": "48271925",
      "driverId": "20000035",
      "startMs": 1738303320000,
      "endMs": 1738311398414,
      "startAddress": "77328 Torres Pike",
      "endAddress": "97128 Smith Throughway Suite 542",
      "startCoords": {
        "latitude": 40.694667,
        "longitude": -111.814005
      },
      "endCoords": {
        "latitude": 40.741529,
        "longitude": -111.920618
      },
      "distanceMeters": 60106.0,
      "durationMs": 8078414,
      "drivingDurationMs": 7666763,
      "idlingDurationMs": 411651,
      "fuelConsumedMl": 7643,
      "fuelConsumedGallons": 2.019,
      "maxSpeedMph": 33.6,
      "averageSpeedMph": 16.6,
      "safetyEvents": []
    },
    {
      "id": "trip_48271925_20250131_003",
      "vehicleId": "48271925",
      "driverId": "20000035",
      "startMs": 1738340640000,
      "endMs": 1738356591954,
      "startAddress": "72970 Thomas Locks",
      "endAddress": "133 Kimberly Locks Apt. 453",
      "startCoords": {
        "latitude": 40.696402,
        "longitude": -111.853074
      },
      "endCoords": {
        "latitude": 40.714874,
        "longitude": -111.961675
      },
      "distanceMeters": 72480.2,
      "durationMs": 15951954,
      "drivingDurationMs": 14494397,
      "idlingDurationMs": 1457557,
      "fuelConsumedMl": 9214,
      "fuelConsumedGallons": 2.434,
      "maxSpeedMph": 56.9,
      "averageSpeedMph": 10.2,
      "safetyEvents": []
    },
    {
      "id": "trip_48271925_20250131_004",
      "vehicleId": "48271925",
      "driverId": "20000035",
      "startMs": 1738349760000,
      "endMs": 1738354293299,
      "startAddress": "7155 Mary Knoll Suite 026",
      "endAddress": "271 Baker Creek Suite 537",
      "startCoords": {
        "latitude": 40.729535,
        "longitude": -111.927823
      },
      "endCoords": {
        "latitude": 40.697566,
        "longitude": -111.919787
      },
      "distanceMeters": 35568.4,
      "durationMs": 4533299,
      "drivingDurationMs": 4042157,
      "idlingDurationMs": 491142,
      "fuelConsumedMl": 4524,
      "fuelConsumedGallons": 1.195,
      "maxSpeedMph": 32.8,
      "averageSpeedMph": 17.6,
      "safetyEvents": []
    },
    {
      "id": "trip_48271925_20250131_005",
      "vehicleId": "48271925",
      "driverId": "20000035",
      "startMs": 1738346100000,
      "endMs": 1738348747632,
      "startAddress": "68602 Haley Glen",
      "endAddress": "251 Joseph Key",
      "startCoords": {
        "latitude": 40.681914,
        "longitude": -111.796735
      },
      "endCoords": {
        "latitude": 40.678913,
        "longitude": -111.779123
      },
      "distanceMeters": 18205.3,
      "durationMs": 2647632,
      "drivingDurationMs": 2318674,
      "idlingDurationMs": 328958,
      "fuelConsumedMl": 2313,
      "fuelConsumedGallons": 0.611,
      "maxSpeedMph": 31.4,
      "averageSpeedMph": 15.4,
      "safetyEvents": []
    }
  ]
}