{
  "vehicleId": "48271925",
  "vehicleName": "SLC-VAN-03",
  "month": "2025_01",
  "pagination": {
    "endCursor": "trip_48271925_20250131_4203",
    "hasNextPage": false
  },
  "trips": [
    {
      "id": "trip_48271925_20250101_015",
      "vehicleId": "48271925",
      "driverId": "20000033",
      "startMs": 1735724835000,
      "endMs": 1735727115000,
      "startAddress": "35427 Carr Valley Apt. 841",
      "endAddress": "1182 Campbell Fords",
      "startCoords": {
        "latitude": 40.75598,
        "longitude": -111.868851
      },
      "endCoords": {
        "latitude": 40.72568,
        "longitude": -111.802953
      },
      "distanceMeters": 14620.5,
      "durationMs": 2280000,
      "drivingDurationMs": 1943837,
      "idlingDurationMs": 336163,
      "fuelConsumedMl": 1859,
      "fuelConsumedGallons": 0.491,
      "maxSpeedMph": 39.3,
      "averageSpeedMph": 14.3,
      "safetyEvents": []
    },
    {
      "id": "trip_48271925_20250101_058",
      "vehicleId": "48271925",
      "driverId": "20000036",
      "startMs": 1735744175000,
      "endMs": 1735747790000,
      "startAddress": "9847 Garcia Squares Apt. 836",
      "endAddress": "65766 Larry Island Suite 527",
      "startCoords": {
        "latitude": 40.776137,
        "longitude": -111.830449
      },
      "endCoords": {
        "latitude": 40.783331,
        "longitude": -111.892301
      },
      "distanceMeters": 17673.8,
      "durationMs": 3615000,
      "drivingDurationMs": 2880351,
      "idlingDurationMs": 734649,
      "fuelConsumedMl": 2249,
      "fuelConsumedGallons": 0.594,
      "maxSpeedMph": 26.1,
      "averageSpeedMph": 10.9,
      "safetyEvents": []
    },
    {
      "id": "trip_48271925_20250101_098",
      "vehicleId": "48271925",
      "driverId": "20000039",
      "startMs": 1735760285000,
      "endMs": 1735761605000,
      "startAddress": "7584 Martinez Springs Suite 652",
      "endAddress": "41574 Lewis Views Suite 842",
      "startCoords": {
        "latitude": 40.796086,
        "longitude": -111.920002
      },
      "endCoords": {
        "latitude": 40.721926,
        "longitude": -111.842326
      },
      "distanceMeters": 8619.8,
      "durationMs": 1320000,
      "drivingDurationMs": 1067919,
      "idlingDurationMs": 252081,
      "fuelConsumedMl": 1098,
      "fuelConsumedGallons": 0.29,
      "maxSpeedMph": 27.0,
      "averageSpeedMph": 14.6,
      "safetyEvents": []
    },
    {
      "id": "trip_48271925_20250102_159",
      "vehicleId": "48271925",
      "driverId": "20000034",
      "startMs": 1735806119000,
      "endMs": 1735822626000,
      "startAddress": "348 Kathryn Forges",
      "endAddress": "2239 Drake Square Suite 905",
      "startCoords": {
        "latitude": 40.667581,
        "longitude": -111.938908
      },
      "endCoords": {
        "latitude": 40.658421,
        "longitude": -111.960785
      },
      "distanceMeters": 71679.0,
      "durationMs": 16507000,
      "drivingDurationMs": 13488452,
      "idlingDurationMs": 3018548,
      "fuelConsumedMl": 9115,
      "fuelConsumedGallons": 2.408,
      "maxSpeedMph": 29.1,
      "averageSpeedMph": 9.7,
      "safetyEvents": []
    },
    {
      "id": "trip_48271925_20250102_203",
      "vehicleId": "48271925",
      "driverId": "20000034",
      "startMs": 1735828368000,
      "endMs": 1735830288000,
      "startAddress": "015 Allen Row Apt. 056",
      "endAddress": "4840 Robertson Pass",
      "startCoords": {
        "latitude": 40.78442,
        "longitude": -111.848688
      },
      "endCoords": {
        "latitude": 40.779964,
        "longitude": -111.799054
      },
      "distanceMeters": 9751.5,
      "durationMs": 1920000,
      "drivingDurationMs": 1458371,
      "idlingDurationMs": 461629,
      "fuelConsumedMl": 1242,
      "fuelConsumedGallons": 0.328,
      "maxSpeedMph": 29.6,
      "averageSpeedMph": 11.4,
      "safetyEvents": []
    },
    {
      "id": "trip_48271925_20250102_261",
      "vehicleId": "48271925",
      "driverId": "20000034",
      "startMs": 1735858897000,
      "endMs": 1735860877000,
      "startAddress": "1728 Joseph Landing",
      "endAddress": "7722 Jeremy Lodge",
      "startCoords": {
        "latitude": 40.769969,
        "longitude": -111.945157
      },
      "endCoords": {
        "latitude": 40.791683,
        "longitude": -111.926823
      },
      "distanceMeters": 9060.1,
      "durationMs": 1980000,
      "drivingDurationMs": 1696516,
      "idlingDurationMs": 283484,
      "fuelConsumedMl": 1151,
      "fuelConsumedGallons": 0.304,
      "maxSpeedMph": 28.4,
      "averageSpeedMph": 10.2,
      "safetyEvents": []
    },
    {
      "id": "trip_48271925_20250103_311",
      "vehicleId": "48271925",
      "driverId": "20000038",
      "startMs": 1735893542000,
      "endMs": 1735899383000,
      "startAddress": "5804 Mullins Square",
      "endAddress": "195 Zachary Spring",
      "startCoords": {
        "latitude": 40.709853,
        "longitude": -111.948327
      },
      "endCoords": {
        "latitude": 40.697163,
        "longitude": -111.869253
      },
      "distanceMeters": 37282.4,
      "durationMs": 5841000,
      "drivingDurationMs": 4459892,
      "idlingDurationMs": 1381108,
      "fuelConsumedMl": 4739,
      "fuelConsumedGallons": 1.252,
      "maxSpeedMph": 32.5,
      "averageSpeedMph": 14.3,
      "safetyEvents": []
    },
    {
      "id": "trip_48271925_20250103_357",
      "vehicleId": "48271925",
      "driverId": "20000035",
      "startMs": 1735915693000,
      "endMs": 1735917193000,
      "startAddress": "51342 Karen View",
      "endAddress": "939 Alicia Ports Apt. 613",
      "startCoords": {
        "latitude": 40.682021,
        "longitude": -111.844284
      },
      "endCoords": {
        "latitude": 40.699408,
        "longitude": -111.917286
      },
      "distanceMeters": 6512.7,
      "durationMs": 1500000,
      "drivingDurationMs": 1225302,
      "idlingDurationMs": 274698,
      "fuelConsumedMl": 829,
      "fuelConsumedGallons": 0.219,
      "maxSpeedMph": 35.9,
      "averageSpeedMph": 9.7,
      "safetyEvents": []
    },
    {
      "id": "trip_48271925_20250103_417",
      "vehicleId": "48271925",
      "driverId": "20000033",
      "startMs": 1735947107000,
      "endMs": 1735948847000,
      "startAddress": "7118 Jennifer Mill Apt. 742",
      "endAddress": "91241 Jackson Skyway",
      "startCoords": {
        "latitude": 40.762039,
        "longitude": -111.914022
      },
      "endCoords": {
        "latitude": 40.675704,
        "longitude": -111.830768
      },
      "distanceMeters": 9893.6,
      "durationMs": 1740000,
      "drivingDurationMs": 1491446,
      "idlingDurationMs": 248554,
      "fuelConsumedMl": 1257,
      "fuelConsumedGallons": 0.332,
      "maxSpeedMph": 39.5,
      "averageSpeedMph": 12.7,
      "safetyEvents": []
    },
    {
      "id": "trip_48271925_20250104_460",
      "vehicleId": "48271925",
      "driverId": "20000033",
      "startMs": 1735978354000,
      "endMs": 1735988205000,
      "startAddress": "66502 Stacy Shores",
      "endAddress": "67872 Potter Tunnel Suite 862",
      "startCoords": {
        "latitude": 40.705863,
        "longitude": -111.832419
      },
      "endCoords": {
        "latitude": 40.75217,
        "longitude": -111.941753
      },
      "distanceMeters": 43692.1,
      "durationMs": 9851000,
      "drivingDurationMs": 8533555,
      "idlingDurationMs": 1317445,
      "fuelConsumedMl": 5557,
      "fuelConsumedGallons": 1.468,
      "maxSpeedMph": 30.9,
      "averageSpeedMph": 9.9,
      "safetyEvents": []
    },
    {
      "id": "trip_48271925_20250104_518",
      "vehicleId": "48271925",
      "driverId": "20000036",
      "startMs": 1736009685000,
      "endMs": 1736016489000,
      "startAddress": "8685 Scott Land",
      "endAddress": "66343 Thompson Harbor",
      "startCoords": {
        "latitude": 40.691966,
        "longitude": -111.844257
      },
      "endCoords": {
        "latitude": 40.763739,
        "longitude": -111.792616
      },
      "distanceMeters": 38586.7,
      "durationMs": 6804000,
      "drivingDurationMs": 5603966,
      "idlingDurationMs": 1200034,
      "fuelConsumedMl": 4906,
      "fuelConsumedGallons": 1.296,
      "maxSpeedMph": 31.8,
      "averageSpeedMph": 12.7,
      "safetyEvents": []
    },
    {
      "id": "trip_48271925_20250105_565",
      "vehicleId": "48271925",
      "driverId": "20000036",
      "startMs": 1736043560000,
      "endMs": 1736052202000,
      "startAddress": "70534 Dennis Pike",
      "endAddress": "4117 Snyder Corners",
      "startCoords": {
        "latitude": 40.678378,
        "longitude": -111.824353
      },
      "endCoords": {
        "latitude": 40.765319,
        "longitude": -111.823217
      },
      "distanceMeters": 42023.4,
      "durationMs": 8642000,
      "drivingDurationMs": 7005044,
      "idlingDurationMs": 1636956,
      "fuelConsumedMl": 5341,
      "fuelConsumedGallons": 1.411,
      "maxSpeedMph": 34.1,
      "averageSpeedMph": 10.9,
      "safetyEvents": []
    },
    {
      "id": "trip_48271925_20250105_608",
      "vehicleId": "48271925",
      "driverId": "20000039",
      "startMs": 1736081463000,
      "endMs": 1736082663000,
      "startAddress": "929 Cunningham Mall",
      "endAddress": "8736 Nicholas Vista",
      "startCoords": {
        "latitude": 40.752247,
        "longitude": -111.790764
      },
      "endCoords": {
        "latitude": 40.787336,
        "longitude": -111.803993
      },
      "distanceMeters": 7840.7,
      "durationMs": 1200000,
      "drivingDurationMs": 905845,
      "idlingDurationMs": 294155,
      "fuelConsumedMl": 996,
      "fuelConsumedGallons": 0.263,
      "maxSpeedMph": 29.2,
      "averageSpeedMph": 14.6,
      "safetyEvents": []
    },
    {
      "id": "trip_48271925_20250106_666",
      "vehicleId": "48271925",
      "driverId": "20000034",
      "startMs": 1736149606000,
      "endMs": 1736152606000,
      "startAddress": "4152 Rachel Parks",
      "endAddress": "295 Mcfarland Plaza",
      "startCoords": {
        "latitude": 40.732874,
        "longitude": -111.846625
      },
      "endCoords": {
        "latitude": 40.743672,
        "longitude": -111.820353
      },
      "distanceMeters": 17726.3,
      "durationMs": 3000000,
      "drivingDurationMs": 2596187,
      "idlingDurationMs": 403813,
      "fuelConsumedMl": 2252,
      "fuelConsumedGallons": 0.595,
      "maxSpeedMph": 29.4,
      "averageSpeedMph": 13.2,
      "safetyEvents": []
    },
    {
      "id": "trip_48271925_20250106_718",
      "vehicleId": "48271925",
      "driverId": "20000036",
      "startMs": 1736177690000,
      "endMs": 1736183757000,
      "startAddress": "94255 Hayes Plains Apt. 058",
      "endAddress": "582 Tiffany Turnpike",
      "startCoords": {
        "latitude": 40.729702,
        "longitude": -111.798229
      },
      "endCoords": {
        "latitude": 40.795235,
        "longitude": -111.809582
      },
      "distanceMeters": 39012.5,
      "durationMs": 6067000,
      "drivingDurationMs": 5106435,
      "idlingDurationMs": 960565,
      "fuelConsumedMl": 4959,
      "fuelConsumedGallons": 1.31,
      "maxSpeedMph": 26.6,
      "averageSpeedMph": 14.4,
      "safetyEvents": []
    },
    {
      "id": "trip_48271925_20250106_764",
      "vehicleId": "48271925",
      "driverId": "20000034",
      "startMs": 1736204081000,
      "endMs": 1736206061000,
      "startAddress": "2565 Adrian Tunnel Apt. 461",
      "endAddress": "2023 Krueger Flats Apt. 600",
      "startCoords": {
        "latitude": 40.740883,
        "longitude": -111.873761
      },
      "endCoords": {
        "latitude": 40.687766,
        "longitude": -111.841316
      },
      "distanceMeters": 10233.2,
      "durationMs": 1980000,
      "drivingDurationMs": 1502984,
      "idlingDurationMs": 477016,
      "fuelConsumedMl": 1302,
      "fuelConsumedGallons": 0.344,
      "maxSpeedMph": 29.3,
      "averageSpeedMph": 11.6,
      "safetyEvents": []
    },
    {
      "id": "trip_48271925_20250107_808",
      "vehicleId": "48271925",
      "driverId": "20000037",
      "startMs": 1736232966000,
      "endMs": 1736234466000,
      "startAddress": "91561 Mary Pine",
      "endAddress": "65774 Morrow Ranch",
      "startCoords": {
        "latitude": 40.696502,
        "longitude": -111.955029
      },
      "endCoords": {
        "latitude": 40.664766,
        "longitude": -111.85584
      },
      "distanceMeters": 9625.8,
      "durationMs": 1500000,
      "drivingDurationMs": 1218519,
      "idlingDurationMs": 281481,
      "fuelConsumedMl": 1223,
      "fuelConsumedGallons": 0.323,
      "maxSpeedMph": 30.2,
      "averageSpeedMph": 14.4,
      "safetyEvents": []
    },
    {
      "id": "trip_48271925_20250107_867",
      "vehicleId": "48271925",
      "driverId": "20000038",
      "startMs": 1736260901000,
      "endMs": 1736263121000,
      "startAddress": "081 West Drive",
      "endAddress": "150 Miller Pass",
      "startCoords": {
        "latitude": 40.666737,
        "longitude": -111.793361
      },
      "endCoords": {
        "latitude": 40.657802,
        "longitude": -111.803617
      },
      "distanceMeters": 13716.6,
      "durationMs": 2220000,
      "drivingDurationMs": 1807305,
      "idlingDurationMs": 412695,
      "fuelConsumedMl": 1745,
      "fuelConsumedGallons": 0.461,
      "maxSpeedMph": 26.3,
      "averageSpeedMph": 13.8,
      "safetyEvents": []
    },
    {
      "id": "trip_48271925_20250107_894",
      "vehicleId": "48271925",
      "driverId": "20000036",
      "startMs": 1736278769000,
      "endMs": 1736280209000,
      "startAddress": "7823 Gerald Ranch Suite 704",
      "endAddress": "64261 Jessica Expressway Apt. 384",
      "startCoords": {
        "latitude": 40.657504,
        "longitude": -111.955668
      },
      "endCoords": {
        "latitude": 40.70277,
        "longitude": -111.807377
      },
      "distanceMeters": 9807.7,
      "durationMs": 1440000,
      "drivingDurationMs": 1237607,
      "idlingDurationMs": 202393,
      "fuelConsumedMl": 1245,
      "fuelConsumedGallons": 0.329,
      "maxSpeedMph": 36.9,
      "averageSpeedMph": 15.2,
      "safetyEvents": []
    },
    {
      "id": "trip_48271925_20250108_936",
      "vehicleId": "48271925",
      "driverId": "20000035",
      "startMs": 1736306738000,
      "endMs": 1736309198000,
      "startAddress": "970 Cunningham Mews",
      "endAddress": "86385 Pierce Common",
      "startCoords": {
        "latitude": 40.694153,
        "longitude": -111.825821
      },
      "endCoords": {
        "latitude": 40.752292,
        "longitude": -111.815372
      },
      "distanceMeters": 15106.3,
      "durationMs": 2460000,
      "drivingDurationMs": 2165968,
      "idlingDurationMs": 294032,
      "fuelConsumedMl": 1919,
      "fuelConsumedGallons": 0.507,
      "maxSpeedMph": 28.7,
      "averageSpeedMph": 13.7,
      "safetyEvents": []
    },
    {
      "id": "trip_48271925_20250108_973",
      "vehicleId": "48271925",
      "driverId": "20000038",
      "startMs": 1736329119000,
      "endMs": 1736330619000,
      "startAddress": "1282 Gutierrez Ford Suite 431",
      "endAddress": "489 Carr Keys Suite 663",
      "startCoords": {
        "latitude": 40.771304,
        "longitude": -111.91645
      },
      "endCoords": {
        "latitude": 40.720118,
        "longitude": -111.938113
      },
      "distanceMeters": 11318.9,
      "durationMs": 1500000,
      "drivingDurationMs": 1334855,
      "idlingDurationMs": 165145,
      "fuelConsumedMl": 1438,
      "fuelConsumedGallons": 0.38,
      "maxSpeedMph": 27.1,
      "averageSpeedMph": 16.9,
      "safetyEvents": []
    },
    {
      "id": "trip_48271925_20250108_1009",
      "vehicleId": "48271925",
      "driverId": "20000033",
      "startMs": 1736346020000,
      "endMs": 1736347940000,
      "startAddress": "7347 Clark Street",
      "endAddress": "4980 Roberts Branch",
      "startCoords": {
        "latitude": 40.799335,
        "longitude": -111.791537
      },
      "endCoords": {
        "latitude": 40.694062,
        "longitude": -111.789812
      },
      "distanceMeters": 13915.9,
      "durationMs": 1920000,
      "drivingDurationMs": 1571789,
      "idlingDurationMs": 348211,
      "fuelConsumedMl": 1768,
      "fuelConsumedGallons": 0.467,
      "maxSpeedMph": 33.6,
      "averageSpeedMph": 16.2,
      "safetyEvents": []
    },
    {
      "id": "trip_48271925_20250108_1059",
      "vehicleId": "48271925",
      "driverId": "20000033",
      "startMs": 1736372773000,
      "endMs": 1736375191000,
      "startAddress": "015 Mario Garden Suite 660",
      "endAddress": "6999 Campbell Squares Suite 667",
      "startCoords": {
        "latitude": 40.735873,
        "longitude": -111.918242
      },
      "endCoords": {
        "latitude": 40.740624,
        "longitude": -111.939934
      },
      "distanceMeters": 15568.9,
      "durationMs": 2418000,
      "drivingDurationMs": 2118414,
      "idlingDurationMs": 299586,
      "fuelConsumedMl": 1980,
      "fuelConsumedGallons": 0.523,
      "maxSpeedMph": 37.4,
      "averageSpeedMph": 14.4,
      "safetyEvents": []
    },
    {
      "id": "trip_48271925_20250109_1094",
      "vehicleId": "48271925",
      "driverId": "20000037",
      "startMs": 1736396251000,
      "endMs": 1736397931000,
      "startAddress": "42647 Bruce Plains",
      "endAddress": "77031 Bradshaw Mission",
      "startCoords": {
        "latitude": 40.673872,
        "longitude": -111.872195
      },
      "endCoords": {
        "latitude": 40.744019,
        "longitude": -111.906097
      },
      "distanceMeters": 7632.0,
      "durationMs": 1680000,
      "drivingDurationMs": 1435979,
      "idlingDurationMs": 244021,
      "fuelConsumedMl": 969,
      "fuelConsumedGallons": 0.256,
      "maxSpeedMph": 37.2,
      "averageSpeedMph": 10.2,
      "safetyEvents": []
    },
    {
      "id": "trip_48271925_20250109_1135",
      "vehicleId": "48271925",
      "driverId": "20000034",
      "startMs": 1736419455000,
      "endMs": 1736421675000,
      "startAddress": "9091 Summer Mount",
      "endAddress": "02849 Sullivan Via Apt. 396",
      "startCoords": {
        "latitude": 40.783144,
        "longitude": -111.882355
      },
      "endCoords": {
        "latitude": 40.728343,
        "longitude": -111.88272
      },
      "distanceMeters": 13744.1,
      "durationMs": 2220000,
      "drivingDurationMs": 1952104,
      "idlingDurationMs": 267896,
      "fuelConsumedMl": 1749,
      "fuelConsumedGallons": 0.462,
      "maxSpeedMph": 30.8,
      "averageSpeedMph": 13.8,
      "safetyEvents": []
    },
    {
      "id": "trip_48271925_20250109_1183",
      "vehicleId": "48271925",
      "driverId": "20000033",
      "startMs": 1736445277000,
      "endMs": 1736455357000,
      "startAddress": "6400 Paul Mission Suite 868",
      "endAddress": "0516 Gomez Islands",
      "startCoords": {
        "latitude": 40.703911,
        "longitude": -111.919875
      },
      "endCoords": {
        "latitude": 40.794677,
        "longitude": -111.948714
      },
      "distanceMeters": 67587.1,
      "durationMs": 10080000,
      "drivingDurationMs": 7623895,
      "idlingDurationMs": 2456105,
      "fuelConsumedMl": 8593,
      "fuelConsumedGallons": 2.27,
      "maxSpeedMph": 30.9,
      "averageSpeedMph": 15.0,
      "safetyEvents": []
    },
    {
      "id": "trip_48271925_20250109_1221",
      "vehicleId": "48271925",
      "driverId": "20000036",
      "startMs": 1736466421000,
      "endMs": 1736468701000,
      "startAddress": "86449 Patterson Avenue Apt. 498",
      "endAddress": "3420 Wright Terrace Suite 734",
      "startCoords": {
        "latitude": 40.687275,
        "longitude": -111.876874
      },
      "endCoords": {
        "latitude": 40.67795,
        "longitude": -111.838184
      },
      "distanceMeters": 15610.5,
      "durationMs": 2280000,
      "drivingDurationMs": 1760607,
      "idlingDurationMs": 519393,
      "fuelConsumedMl": 1984,
      "fuelConsumedGallons": 0.524,
      "maxSpeedMph": 37.0,
      "averageSpeedMph": 15.3,
      "safetyEvents": []
    },
    {
      "id": "trip_48271925_20250110_1280",
      "vehicleId": "48271925",
      "driverId": "20000037",
      "startMs": 1736505450000,
      "endMs": 1736507850000,
      "startAddress": "025 Nancy Land Suite 613",
      "endAddress": "730 Martinez Stravenue",
      "startCoords": {
        "latitude": 40.710297,
        "longitude": -111.827247
      },
      "endCoords": {
        "latitude": 40.69381,
        "longitude": -111.939948
      },
      "distanceMeters": 14319.6,
      "durationMs": 2400000,
      "drivingDurationMs": 1984244,
      "idlingDurationMs": 415756,
      "fuelConsumedMl": 1821,
      "fuelConsumedGallons": 0.481,
      "maxSpeedMph": 39.2,
      "averageSpeedMph": 13.3,
      "safetyEvents": []
    },
    {
      "id": "trip_48271925_20250110_1326",
      "vehicleId": "48271925",
      "driverId": "20000037",
      "startMs": 1736531478000,
      "endMs": 1736533158000,
      "startAddress": "729 Cooper Loaf Apt. 927",
      "endAddress": "1377 Hailey Spring Suite 263",
      "startCoords": {
        "latitude": 40.768768,
        "longitude": -111.784599
      },
      "endCoords": {
        "latitude": 40.697193,
        "longitude": -111.90973
      },
      "distanceMeters": 9928.5,
      "durationMs": 1680000,
      "drivingDurationMs": 1484510,
      "idlingDurationMs": 195490,
      "fuelConsumedMl": 1261,
      "fuelConsumedGallons": 0.333,
      "maxSpeedMph": 37.2,
      "averageSpeedMph": 13.2,
      "safetyEvents": []
    },
    {
      "id": "trip_48271925_20250111_1368",
      "vehicleId": "48271925",
      "driverId": "20000038",
      "startMs": 1736560604000,
      "endMs": 1736562344000,
      "startAddress": "0547 Cindy Manors Apt. 214",
      "endAddress": "1318 Bennett Inlet",
      "startCoords": {
        "latitude": 40.714314,
        "longitude": -111.932928
      },
      "endCoords": {
        "latitude": 40.727208,
        "longitude": -111.849482
      },
      "distanceMeters": 12338.2,
      "durationMs": 1740000,
      "drivingDurationMs": 1442401,
      "idlingDurationMs": 297599,
      "fuelConsumedMl": 1567,
      "fuelConsumedGallons": 0.414,
      "maxSpeedMph": 33.1,
      "averageSpeedMph": 15.9,
      "safetyEvents": []
    },
    {
      "id": "trip_48271925_20250111_1414",
      "vehicleId": "48271925",
      "driverId": "20000036",
      "startMs": 1736593131000,
      "endMs": 1736595411000,
      "startAddress": "14833 Mario Circle",
      "endAddress": "27283 Smith Alley",
      "startCoords": {
        "latitude": 40.706356,
        "longitude": -111.799473
      },
      "endCoords": {
        "latitude": 40.796698,
        "longitude": -111.878806
      },
      "distanceMeters": 9573.7,
      "durationMs": 2280000,
      "drivingDurationMs": 1832903,
      "idlingDurationMs": 447097,
      "fuelConsumedMl": 1219,
      "fuelConsumedGallons": 0.322,
      "maxSpeedMph": 38.9,
      "averageSpeedMph": 9.4,
      "safetyEvents": []
    },
    {
      "id": "trip_48271925_20250111_1474",
      "vehicleId": "48271925",
      "driverId": "20000035",
      "startMs": 1736625881000,
      "endMs": 1736627732000,
      "startAddress": "026 Welch Valleys",
      "endAddress": "1939 Smith Corner",
      "startCoords": {
        "latitude": 40.698277,
        "longitude": -111.819736
      },
      "endCoords": {
        "latitude": 40.747665,
        "longitude": -111.824372
      },
      "distanceMeters": 10712.5,
      "durationMs": 1851000,
      "drivingDurationMs": 1427896,
      "idlingDurationMs": 423104,
      "fuelConsumedMl": 1363,
      "fuelConsumedGallons": 0.36,
      "maxSpeedMph": 35.3,
      "averageSpeedMph": 12.9,
      "safetyEvents": []
    },
    {
      "id": "trip_48271925_20250112_1506",
      "vehicleId": "48271925",
      "driverId": "20000035",
      "startMs": 1736648350000,
      "endMs": 1736654270000,
      "startAddress": "830 Elizabeth Springs",
      "endAddress": "437 Roman Ports",
      "startCoords": {
        "latitude": 40.735896,
        "longitude": -111.778795
      },
      "endCoords": {
        "latitude": 40.773417,
        "longitude": -111.775845
      },
      "distanceMeters": 23363.6,
      "durationMs": 5920000,
      "drivingDurationMs": 4487957,
      "idlingDurationMs": 1432043,
      "fuelConsumedMl": 2972,
      "fuelConsumedGallons": 0.785,
      "maxSpeedMph": 38.6,
      "averageSpeedMph": 8.8,
      "safetyEvents": []
    },
    {
      "id": "trip_48271925_20250112_1555",
      "vehicleId": "48271925",
      "driverId": "20000038",
      "startMs": 1736688012000,
      "endMs": 1736693020000,
      "startAddress": "88252 Sharon Shore",
      "endAddress": "9059 Price Station Suite 288",
      "startCoords": {
        "latitude": 40.756885,
        "longitude": -111.962008
      },
      "endCoords": {
        "latitude": 40.70401,
        "longitude": -111.92529
      },
      "distanceMeters": 28830.6,
      "durationMs": 5008000,
      "drivingDurationMs": 4092755,
      "idlingDurationMs": 915245,
      "fuelConsumedMl": 3664,
      "fuelConsumedGallons": 0.968,
      "maxSpeedMph": 26.0,
      "averageSpeedMph": 12.9,
      "safetyEvents": []
    },
    {
      "id": "trip_48271925_20250113_1595",
      "vehicleId": "48271925",
      "driverId": "20000038",
      "startMs": 1736740543000,
      "endMs": 1736743085000,
      "startAddress": "894 Sarah Alley",
      "endAddress": "911 Wilson Hills Suite 446",
      "startCoords": {
        "latitude": 40.712907,
        "longitude": -111.939312
      },
      "endCoords": {
        "latitude": 40.733219,
        "longitude": -111.87903
      },
      "distanceMeters": 12245.7,
      "durationMs": 2542000,
      "drivingDurationMs": 2262759,
      "idlingDurationMs": 279241,
      "fuelConsumedMl": 1556,
      "fuelConsumedGallons": 0.411,
      "maxSpeedMph": 27.3,
      "averageSpeedMph": 10.8,
      "safetyEvents": []
    },
    {
      "id": "trip_48271925_20250113_1649",
      "vehicleId": "48271925",
      "driverId": "20000038",
      "startMs": 1736777303000,
      "endMs": 1736779463000,
      "startAddress": "99711 Perez Viaduct",
      "endAddress": "9729 Wilkinson Mountain",
      "startCoords": {
        "latitude": 40.721697,
        "longitude": -111.859638
      },
      "endCoords": {
        "latitude": 40.762974,
        "longitude": -111.831908
      },
      "distanceMeters": 12755.9,
      "durationMs": 2160000,
      "drivingDurationMs": 1791495,
      "idlingDurationMs": 368505,
      "fuelConsumedMl": 1620,
      "fuelConsumedGallons": 0.428,
      "maxSpeedMph": 32.1,
      "averageSpeedMph": 13.2,
      "safetyEvents": []
    },
    {
      "id": "trip_48271925_20250113_1695",
      "vehicleId": "48271925",
      "driverId": "20000038",
      "startMs": 1736798020000,
      "endMs": 1736806754000,
      "startAddress": "55839 Christopher Land",
      "endAddress": "02640 Cheryl Field",
      "startCoords": {
        "latitude": 40.661746,
        "longitude": -111.835495
      },
      "endCoords": {
        "latitude": 40.789138,
        "longitude": -111.852404
      },
      "distanceMeters": 60304.9,
      "durationMs": 8734000,
      "drivingDurationMs": 7558968,
      "idlingDurationMs": 1175032,
      "fuelConsumedMl": 7665,
      "fuelConsumedGallons": 2.025,
      "maxSpeedMph": 29.1,
      "averageSpeedMph": 15.4,
      "safetyEvents": []
    },
    {
      "id": "trip_48271925_20250114_1744",
      "vehicleId": "48271925",
      "driverId": "20000037",
      "startMs": 1736832040000,
      "endMs": 1736833840000,
      "startAddress": "15682 Keith Plains",
      "endAddress": "022 Foster Lock Suite 132",
      "startCoords": {
        "latitude": 40.685341,
        "longitude": -111.886819
      },
      "endCoords": {
        "latitude": 40.793138,
        "longitude": -111.947256
      },
      "distanceMeters": 9960.5,
      "durationMs": 1800000,
      "drivingDurationMs": 1405034,
      "idlingDurationMs": 394966,
      "fuelConsumedMl": 1268,
      "fuelConsumedGallons": 0.335,
      "maxSpeedMph": 28.0,
      "averageSpeedMph": 12.4,
      "safetyEvents": []
    },
    {
      "id": "trip_48271925_20250114_1789",
      "vehicleId": "48271925",
      "driverId": "20000038",
      "startMs": 1736862759000,
      "endMs": 1736871250000,
      "startAddress": "759 Alicia Loop",
      "endAddress": "90722 Ann Road",
      "startCoords": {
        "latitude": 40.78112,
        "longitude": -111.826803
      },
      "endCoords": {
        "latitude": 40.717274,
        "longitude": -111.90353
      },
      "distanceMeters": 57591.2,
      "durationMs": 8491000,
      "drivingDurationMs": 7492415,
      "idlingDurationMs": 998585,
      "fuelConsumedMl": 7321,
      "fuelConsumedGallons": 1.934,
      "maxSpeedMph": 31.8,
      "averageSpeedMph": 15.2,
      "safetyEvents": []
    },
    {
      "id": "trip_48271925_20250114_1829",
      "vehicleId": "48271925",
      "driverId": "20000036",
      "startMs": 1736881692000,
      "endMs": 1736885599000,
      "startAddress": "522 Doyle Path Suite 210",
      "endAddress": "25145 Castillo Radial",
      "startCoords": {
        "latitude": 40.687903,
        "longitude": -111.812486
      },
      "endCoords": {
        "latitude": 40.705697,
        "longitude": -111.880691
      },
      "distanceMeters": 21949.5,
      "durationMs": 3907000,
      "drivingDurationMs": 2945153,
      "idlingDurationMs": 961847,
      "fuelConsumedMl": 2790,
      "fuelConsumedGallons": 0.737,
      "maxSpeedMph": 26.3,
      "averageSpeedMph": 12.6,
      "safetyEvents": []
    },
    {
      "id": "trip_48271925_20250115_1871",
      "vehicleId": "48271925",
      "driverId": "20000037",
      "startMs": 1736905912000,
      "endMs": 1736907592000,
      "startAddress": "4418 Nancy Curve",
      "endAddress": "9408 Mcgrath Rest Apt. 565",
      "startCoords": {
        "latitude": 40.762648,
        "longitude": -111.794194
      },
      "endCoords": {
        "latitude": 40.795339,
        "longitude": -111.957587
      },
      "distanceMeters": 8665.4,
      "durationMs": 1680000,
      "drivingDurationMs": 1344725,
      "idlingDurationMs": 335275,
      "fuelConsumedMl": 1102,
      "fuelConsumedGallons": 0.291,
      "maxSpeedMph": 34.4,
      "averageSpeedMph": 11.5,
      "safetyEvents": []
    },
    {
      "id": "trip_48271925_20250115_1934",
      "vehicleId": "48271925",
      "driverId": "20000033",
      "startMs": 1736944861000,
      "endMs": 1736946241000,
      "startAddress": "44106 Sims Plains Suite 573",
      "endAddress": "65024 Penny Trail",
      "startCoords": {
        "latitude": 40.67945,
        "longitude": -111.835921
      },
      "endCoords": {
        "latitude": 40.7805,
        "longitude": -111.787129
      },
      "distanceMeters": 6180.8,
      "durationMs": 1380000,
      "drivingDurationMs": 1158121,
      "idlingDurationMs": 221879,
      "fuelConsumedMl": 787,
      "fuelConsumedGallons": 0.208,
      "maxSpeedMph": 35.3,
      "averageSpeedMph": 10.0,
      "safetyEvents": []
    },
    {
      "id": "trip_48271925_20250115_1980",
      "vehicleId": "48271925",
      "driverId": "20000036",
      "startMs": 1736968938000,
      "endMs": 1736970918000,
      "startAddress": "022 Christopher Motorway Suite 106",
      "endAddress": "450 Kaitlyn Shore",
      "startCoords": {
        "latitude": 40.711271,
        "longitude": -111.947292
      },
      "endCoords": {
        "latitude": 40.727934,
        "longitude": -111.91314
      },
      "distanceMeters": 12256.4,
      "durationMs": 1980000,
      "drivingDurationMs": 1546394,
      "idlingDurationMs": 433606,
      "fuelConsumedMl": 1560,
      "fuelConsumedGallons": 0.412,
      "maxSpeedMph": 37.4,
      "averageSpeedMph": 13.8,
      "safetyEvents": []
    },
    {
      "id": "trip_48271925_20250116_2026",
      "vehicleId": "48271925",
      "driverId": "20000039",
      "startMs": 1736998296000,
      "endMs": 1737000456000,
      "startAddress": "1155 Costa Corners",
      "endAddress": "404 Alvarado Knolls",
      "startCoords": {
        "latitude": 40.75117,
        "longitude": -111.791944
      },
      "endCoords": {
        "latitude": 40.74344,
        "longitude": -111.833716
      },
      "distanceMeters": 10845.1,
      "durationMs": 2160000,
      "drivingDurationMs": 1828103,
      "idlingDurationMs": 331897,
      "fuelConsumedMl": 1378,
      "fuelConsumedGallons": 0.364,
      "maxSpeedMph": 30.2,
      "averageSpeedMph": 11.2,
      "safetyEvents": []
    },
    {
      "id": "trip_48271925_20250116_2055",
      "vehicleId": "48271925",
      "driverId": "20000035",
      "startMs": 1737015056000,
      "endMs": 1737016556000,
      "startAddress": "0101 Sullivan Course Apt. 352",
      "endAddress": "2260 Chris Loaf",
      "startCoords": {
        "latitude": 40.662814,
        "longitude": -111.824704
      },
      "endCoords": {
        "latitude": 40.662919,
        "longitude": -111.815824
      },
      "distanceMeters": 7845.5,
      "durationMs": 1500000,
      "drivingDurationMs": 1212670,
      "idlingDurationMs": 287330,
      "fuelConsumedMl": 999,
      "fuelConsumedGallons": 0.264,
      "maxSpeedMph": 34.4,
      "averageSpeedMph": 11.7,
      "safetyEvents": []
    },
    {
      "id": "trip_48271925_20250116_2104",
      "vehicleId": "48271925",
      "driverId": "20000037",
      "startMs": 1737038190000,
      "endMs": 1737039630000,
      "startAddress": "155 Scott Haven",
      "endAddress": "998 Ellis Islands",
      "startCoords": {
        "latitude": 40.747369,
        "longitude": -111.943117
      },
      "endCoords": {
        "latitude": 40.690697,
        "longitude": -111.913775
      },
      "distanceMeters": 8509.1,
      "durationMs": 1440000,
      "drivingDurationMs": 1104055,
      "idlingDurationMs": 335945,
      "fuelConsumedMl": 1083,
      "fuelConsumedGallons": 0.286,
      "maxSpeedMph": 30.5,
      "averageSpeedMph": 13.2,
      "safetyEvents": []
    },
    {
      "id": "trip_48271925_20250116_2141",
      "vehicleId": "48271925",
      "driverId": "20000036",
      "startMs": 1737055426000,
      "endMs": 1737057106000,
      "startAddress": "20528 Jones Ville Suite 013",
      "endAddress": "47117 Chambers Trail Suite 051",
      "startCoords": {
        "latitude": 40.701138,
        "longitude": -111.85179
      },
      "endCoords": {
        "latitude": 40.790366,
        "longitude": -111.872646
      },
      "distanceMeters": 9083.0,
      "durationMs": 1680000,
      "drivingDurationMs": 1376564,
      "idlingDurationMs": 303436,
      "fuelConsumedMl": 1155,
      "fuelConsumedGallons": 0.305,
      "maxSpeedMph": 32.4,
      "averageSpeedMph": 12.1,
      "safetyEvents": []
    },
    {
      "id": "trip_48271925_20250117_2181",
      "vehicleId": "48271925",
      "driverId": "20000039",
      "startMs": 1737075513000,
      "endMs": 1737077553000,
      "startAddress": "746 Harold Passage",
      "endAddress": "3115 Elizabeth Trace Apt. 872",
      "startCoords": {
        "latitude": 40.755449,
        "longitude": -111.951656
      },
      "endCoords": {
        "latitude": 40.730165,
        "longitude": -111.937121
      },
      "distanceMeters": 11739.0,
      "durationMs": 2040000,
      "drivingDurationMs": 1746631,
      "idlingDurationMs": 293369,
      "fuelConsumedMl": 1491,
      "fuelConsumedGallons": 0.394,
      "maxSpeedMph": 25.9,
      "averageSpeedMph": 12.9,
      "safetyEvents": []
    },
    {
      "id": "trip_48271925_20250117_2229",
      "vehicleId": "48271925",
      "driverId": "20000035",
      "startMs": 1737107950000,
      "endMs": 1737114929000,
      "startAddress": "541 Wood Springs",
      "endAddress": "63790 Wise Grove",
      "startCoords": {
        "latitude": 40.763657,
        "longitude": -111.884271
      },
      "endCoords": {
        "latitude": 40.699438,
        "longitude": -111.825695
      },
      "distanceMeters": 30852.9,
      "durationMs": 6979000,
      "drivingDurationMs": 5333536,
      "idlingDurationMs": 1645464,
      "fuelConsumedMl": 3922,
      "fuelConsumedGallons": 1.036,
      "maxSpeedMph": 32.9,
      "averageSpeedMph": 9.9,
      "safetyEvents": []
    },
    {
      "id": "trip_48271925_20250117_2283",
      "vehicleId": "48271925",
      "driverId": "20000039",
      "startMs": 1737134687000,
      "endMs": 1737136847000,
      "startAddress": "58240 Powers Island Suite 651",
      "endAddress": "69061 Claudia Tunnel",
      "startCoords": {
        "latitude": 40.728922,
        "longitude": -111.900697
      },
      "endCoords": {
        "latitude": 40.699591,
        "longitude": -111.821801
      },
      "distanceMeters": 16024.2,
      "durationMs": 2160000,
      "drivingDurationMs": 1809275,
      "idlingDurationMs": 350725,
      "fuelConsumedMl": 2037,
      "fuelConsumedGallons": 0.538,
      "maxSpeedMph": 34.7,
      "averageSpeedMph": 16.6,
      "safetyEvents": []
    },
    {
      "id": "trip_48271925_20250117_2319",
      "vehicleId": "48271925",
      "driverId": "20000039",
      "startMs": 1737153958000,
      "endMs": 1737156298000,
      "startAddress": "29376 Morris View Suite 587",
      "endAddress": "023 Flores Fall",
      "startCoords": {
        "latitude": 40.665152,
        "longitude": -111.795535
      },
      "endCoords": {
        "latitude": 40.719527,
        "longitude": -111.811076
      },
      "distanceMeters": 10542.9,
      "durationMs": 2340000,
      "drivingDurationMs": 1819145,
      "idlingDurationMs": 520855,
      "fuelConsumedMl": 1340,
      "fuelConsumedGallons": 0.354,
      "maxSpeedMph": 27.9,
      "averageSpeedMph": 10.1,
      "safetyEvents": []
    },
    {
      "id": "trip_48271925_20250118_2364",
      "vehicleId": "48271925",
      "driverId": "20000037",
      "startMs": 1737189816000,
      "endMs": 1737191556000,
      "startAddress": "6241 Roberto Lodge Suite 680",
      "endAddress": "59647 John Manors Suite 245",
      "startCoords": {
        "latitude": 40.770302,
        "longitude": -111.956932
      },
      "endCoords": {
        "latitude": 40.745773,
        "longitude": -111.851184
      },
      "distanceMeters": 11446.7,
      "durationMs": 1740000,
      "drivingDurationMs": 1473369,
      "idlingDurationMs": 266631,
      "fuelConsumedMl": 1454,
      "fuelConsumedGallons": 0.384,
      "maxSpeedMph": 36.6,
      "averageSpeedMph": 14.7,
      "safetyEvents": []
    },
    {
      "id": "trip_48271925_20250118_2413",
      "vehicleId": "48271925",
      "driverId": "20000037",
      "startMs": 1737211461000,
      "endMs": 1737215760000,
      "startAddress": "37345 Anderson Heights Suite 115",
      "endAddress": "221 Margaret Isle Apt. 719",
      "startCoords": {
        "latitude": 40.717776,
        "longitude": -111.944576
      },
      "endCoords": {
        "latitude": 40.742127,
        "longitude": -111.850222
      },
      "distanceMeters": 30595.4,
      "durationMs": 4299000,
      "drivingDurationMs": 3795490,
      "idlingDurationMs": 503510,
      "fuelConsumedMl": 3891,
      "fuelConsumedGallons": 1.028,
      "maxSpeedMph": 30.0,
      "averageSpeedMph": 15.9,
      "safetyEvents": []
    },
    {
      "id": "trip_48271925_20250118_2455",
      "vehicleId": "48271925",
      "driverId": "20000034",
      "startMs": 1737233180000,
      "endMs": 1737239371000,
      "startAddress": "220 David Harbor",
      "endAddress": "64960 Martin Junctions",
      "startCoords": {
        "latitude": 40.739036,
        "longitude": -111.927542
      },
      "endCoords": {
        "latitude": 40.68342,
        "longitude": -111.913123
      },
      "distanceMeters": 28163.0,
      "durationMs": 6191000,
      "drivingDurationMs": 5453807,
      "idlingDurationMs": 737193,
      "fuelConsumedMl": 3581,
      "fuelConsumedGallons": 0.946,
      "maxSpeedMph": 36.3,
      "averageSpeedMph": 10.2,
      "safetyEvents": []
    },
    {
      "id": "trip_48271925_20250119_2491",
      "vehicleId": "48271925",
      "driverId": "20000039",
      "startMs": 1737261341000,
      "endMs": 1737263201000,
      "startAddress": "58599 Monica Mountain Suite 638",
      "endAddress": "692 Matthew Rue Suite 376",
      "startCoords": {
        "latitude": 40.764099,
        "longitude": -111.947303
      },
      "endCoords": {
        "latitude": 40.705124,
        "longitude": -111.879392
      },
      "distanceMeters": 10324.6,
      "durationMs": 1860000,
      "drivingDurationMs": 1572538,
      "idlingDurationMs": 287462,
      "fuelConsumedMl": 1314,
      "fuelConsumedGallons": 0.347,
      "maxSpeedMph": 36.9,
      "averageSpeedMph": 12.4,
      "safetyEvents": []
    },
    {
      "id": "trip_48271925_20250119_2538",
      "vehicleId": "48271925",
      "driverId": "20000036",
      "startMs": 1737302481000,
      "endMs": 1737304701000,
      "startAddress": "2237 Bradley Hills Apt. 975",
      "endAddress": "0063 Jimmy Rapids",
      "startCoords": {
        "latitude": 40.793524,
        "longitude": -111.876974
      },
      "endCoords": {
        "latitude": 40.742484,
        "longitude": -111.790516
      },
      "distanceMeters": 14343.4,
      "durationMs": 2220000,
      "drivingDurationMs": 1934733,
      "idlingDurationMs": 285267,
      "fuelConsumedMl": 1825,
      "fuelConsumedGallons": 0.482,
      "maxSpeedMph": 36.0,
      "averageSpeedMph": 14.5,
      "safetyEvents": []
    },
    {
      "id": "trip_48271925_20250120_2595",
      "vehicleId": "48271925",
      "driverId": "20000033",
      "startMs": 1737364600000,
      "endMs": 1737366100000,
      "startAddress": "43968 Robertson Fords Suite 960",
      "endAddress": "18208 Garcia Roads",
      "startCoords": {
        "latitude": 40.747104,
        "longitude": -111.809864
      },
      "endCoords": {
        "latitude": 40.77202,
        "longitude": -111.795582
      },
      "distanceMeters": 7282.0,
      "durationMs": 1500000,
      "drivingDurationMs": 1267375,
      "idlingDurationMs": 232625,
      "fuelConsumedMl": 927,
      "fuelConsumedGallons": 0.245,
      "maxSpeedMph": 31.7,
      "averageSpeedMph": 10.9,
      "safetyEvents": []
    },
    {
      "id": "trip_48271925_20250120_2641",
      "vehicleId": "48271925",
      "driverId": "20000034",
      "startMs": 1737389380000,
      "endMs": 1737394549000,
      "startAddress": "52185 Luke Way Apt. 831",
      "endAddress": "60485 Nguyen Ridge",
      "startCoords": {
        "latitude": 40.750184,
        "longitude": -111.836196
      },
      "endCoords": {
        "latitude": 40.793451,
        "longitude": -111.94485
      },
      "distanceMeters": 25544.4,
      "durationMs": 5169000,
      "drivingDurationMs": 4234837,
      "idlingDurationMs": 934163,
      "fuelConsumedMl": 3248,
      "fuelConsumedGallons": 0.858,
      "maxSpeedMph": 27.6,
      "averageSpeedMph": 11.1,
      "safetyEvents": []
    },
    {
      "id": "trip_48271925_20250120_2688",
      "vehicleId": "48271925",
      "driverId": "20000038",
      "startMs": 1737410033000,
      "endMs": 1737412945000,
      "startAddress": "527 Gordon Fall Apt. 918",
      "endAddress": "24661 Stephenson Tunnel",
      "startCoords": {
        "latitude": 40.795429,
        "longitude": -111.862569
      },
      "endCoords": {
        "latitude": 40.709632,
        "longitude": -111.921787
      },
      "distanceMeters": 16806.5,
      "durationMs": 2912000,
      "drivingDurationMs": 2519972,
      "idlingDurationMs": 392028,
      "fuelConsumedMl": 2135,
      "fuelConsumedGallons": 0.564,
      "maxSpeedMph": 39.0,
      "averageSpeedMph": 12.9,
      "safetyEvents": []
    },
    {
      "id": "trip_48271925_20250121_2734",
      "vehicleId": "48271925",
      "driverId": "20000037",
      "startMs": 1737444545000,
      "endMs": 1737451725000,
      "startAddress": "0995 Christopher Canyon",
      "endAddress": "562 Olson Locks",
      "startCoords": {
        "latitude": 40.754734,
        "longitude": -111.929539
      },
      "endCoords": {
        "latitude": 40.716099,
        "longitude": -111.806283
      },
      "distanceMeters": 44169.7,
      "durationMs": 7180000,
      "drivingDurationMs": 6050535,
      "idlingDurationMs": 1129465,
      "fuelConsumedMl": 5618,
      "fuelConsumedGallons": 1.484,
      "maxSpeedMph": 29.7,
      "averageSpeedMph": 13.8,
      "safetyEvents": []
    },
    {
      "id": "trip_48271925_20250121_2774",
      "vehicleId": "48271925",
      "driverId": "20000038",
      "startMs": 1737466047000,
      "endMs": 1737467667000,
      "startAddress": "3583 Brenda Islands Apt. 363",
      "endAddress": "9289 Hinton Court",
      "startCoords": {
        "latitude": 40.679761,
        "longitude": -111.836892
      },
      "endCoords": {
        "latitude": 40.664316,
        "longitude": -111.794411
      },
      "distanceMeters": 8287.1,
      "durationMs": 1620000,
      "drivingDurationMs": 1455367,
      "idlingDurationMs": 164633,
      "fuelConsumedMl": 1052,
      "fuelConsumedGallons": 0.278,
      "maxSpeedMph": 34.3,
      "averageSpeedMph": 11.4,
      "safetyEvents": []
    },
    {
      "id": "trip_48271925_20250121_2819",
      "vehicleId": "48271925",
      "driverId": "20000035",
      "startMs": 1737488915000,
      "endMs": 1737490655000,
      "startAddress": "4001 Pamela Views",
      "endAddress": "63822 Monroe Freeway",
      "startCoords": {
        "latitude": 40.674768,
        "longitude": -111.939966
      },
      "endCoords": {
        "latitude": 40.680906,
        "longitude": -111.864352
      },
      "distanceMeters": 8072.2,
      "durationMs": 1740000,
      "drivingDurationMs": 1430804,
      "idlingDurationMs": 309196,
      "fuelConsumedMl": 1026,
      "fuelConsumedGallons": 0.271,
      "maxSpeedMph": 34.0,
      "averageSpeedMph": 10.4,
      "safetyEvents": []
    },
    {
      "id": "trip_48271925_20250122_2858",
      "vehicleId": "48271925",
      "driverId": "20000034",
      "startMs": 1737515788000,
      "endMs": 1737517468000,
      "startAddress": "7205 Flores Forks Apt. 168",
      "endAddress": "5026 Lindsey Bridge Suite 836",
      "startCoords": {
        "latitude": 40.704672,
        "longitude": -111.807915
      },
      "endCoords": {
        "latitude": 40.737841,
        "longitude": -111.838633
      },
      "distanceMeters": 8885.5,
      "durationMs": 1680000,
      "drivingDurationMs": 1499857,
      "idlingDurationMs": 180143,
      "fuelConsumedMl": 1128,
      "fuelConsumedGallons": 0.298,
      "maxSpeedMph": 30.7,
      "averageSpeedMph": 11.8,
      "safetyEvents": []
    },
    {
      "id": "trip_48271925_20250122_2891",
      "vehicleId": "48271925",
      "driverId": "20000039",
      "startMs": 1737536571000,
      "endMs": 1737538791000,
      "startAddress": "52723 Michelle Squares",
      "endAddress": "41663 Robert Mill Suite 972",
      "startCoords": {
        "latitude": 40.672093,
        "longitude": -111.933761
      },
      "endCoords": {
        "latitude": 40.757556,
        "longitude": -111.786099
      },
      "distanceMeters": 11083.3,
      "durationMs": 2220000,
      "drivingDurationMs": 1871894,
      "idlingDurationMs": 348106,
      "fuelConsumedMl": 1408,
      "fuelConsumedGallons": 0.372,
      "maxSpeedMph": 33.7,
      "averageSpeedMph": 11.2,
      "safetyEvents": []
    },
    {
      "id": "trip_48271925_20250122_2949",
      "vehicleId": "48271925",
      "driverId": "20000034",
      "startMs": 1737566859000,
      "endMs": 1737571787000,
      "startAddress": "210 Alexis Fords Suite 437",
      "endAddress": "84257 Bright Ferry",
      "startCoords": {
        "latitude": 40.786764,
        "longitude": -111.815489
      },
      "endCoords": {
        "latitude": 40.735637,
        "longitude": -111.900959
      },
      "distanceMeters": 30508.4,
      "durationMs": 4928000,
      "drivingDurationMs": 3742529,
      "idlingDurationMs": 1185471,
      "fuelConsumedMl": 3880,
      "fuelConsumedGallons": 1.025,
      "maxSpeedMph": 36.1,
      "averageSpeedMph": 13.8,
      "safetyEvents": []
    },
    {
      "id": "trip_48271925_20250123_2998",
      "vehicleId": "48271925",
      "driverId": "20000035",
      "startMs": 1737597022000,
      "endMs": 1737598462000,
      "startAddress": "1570 Hess Ways Apt. 304",
      "endAddress": "9481 Strong Points",
      "startCoords": {
        "latitude": 40.754977,
        "longitude": -111.92596
      },
      "endCoords": {
        "latitude": 40.681563,
        "longitude": -111.785183
      },
      "distanceMeters": 8226.5,
      "durationMs": 1440000,
      "drivingDurationMs": 1081989,
      "idlingDurationMs": 358011,
      "fuelConsumedMl": 1045,
      "fuelConsumedGallons": 0.276,
      "maxSpeedMph": 28.1,
      "averageSpeedMph": 12.8,
      "safetyEvents": []
    },
    {
      "id": "trip_48271925_20250123_3041",
      "vehicleId": "48271925",
      "driverId": "20000038",
      "startMs": 1737629260000,
      "endMs": 1737630940000,
      "startAddress": "6678 Austin Throughway",
      "endAddress": "41129 Crystal Spur",
      "startCoords": {
        "latitude": 40.733712,
        "longitude": -111.913159
      },
      "endCoords": {
        "latitude": 40.749351,
        "longitude": -111.782359
      },
      "distanceMeters": 11904.1,
      "durationMs": 1680000,
      "drivingDurationMs": 1496648,
      "idlingDurationMs": 183352,
      "fuelConsumedMl": 1514,
      "fuelConsumedGallons": 0.4,
      "maxSpeedMph": 31.2,
      "averageSpeedMph": 15.9,
      "safetyEvents": []
    },
    {
      "id": "trip_48271925_20250123_3078",
      "vehicleId": "48271925",
      "driverId": "20000034",
      "startMs": 1737647580000,
      "endMs": 1737654588000,
      "startAddress": "22006 Griffith Road",
      "endAddress": "741 Nelson Route Apt. 180",
      "startCoords": {
        "latitude": 40.699905,
        "longitude": -111.95724
      },
      "endCoords": {
        "latitude": 40.759599,
        "longitude": -111.85
      },
      "distanceMeters": 29713.2,
      "durationMs": 7008000,
      "drivingDurationMs": 5640300,
      "idlingDurationMs": 1367700,
      "fuelConsumedMl": 3778,
      "fuelConsumedGallons": 0.998,
      "maxSpeedMph": 36.6,
      "averageSpeedMph": 9.5,
      "safetyEvents": []
    },
    {
      "id": "trip_48271925_20250123_3115",
      "vehicleId": "48271925",
      "driverId": "20000034",
      "startMs": 1737666804000,
      "endMs": 1737672482000,
      "startAddress": "12952 Tony Stravenue",
      "endAddress": "741 Hughes Mall",
      "startCoords": {
        "latitude": 40.748153,
        "longitude": -111.803956
      },
      "endCoords": {
        "latitude": 40.795473,
        "longitude": -111.920365
      },
      "distanceMeters": 24946.1,
      "durationMs": 5678000,
      "drivingDurationMs": 4397305,
      "idlingDurationMs": 1280695,
      "fuelConsumedMl": 3172,
      "fuelConsumedGallons": 0.838,
      "maxSpeedMph": 29.8,
      "averageSpeedMph": 9.8,
      "safetyEvents": []
    },
    {
      "id": "trip_48271925_20250124_3175",
      "vehicleId": "48271925",
      "driverId": "20000039",
      "startMs": 1737709935000,
      "endMs": 1737711915000,
      "startAddress": "24221 Chaney Glens",
      "endAddress": "24421 Ross Bridge Apt. 498",
      "startCoords": {
        "latitude": 40.683961,
        "longitude": -111.807084
      },
      "endCoords": {
        "latitude": 40.690141,
        "longitude": -111.839422
      },
      "distanceMeters": 7548.7,
      "durationMs": 1980000,
      "drivingDurationMs": 1505569,
      "idlingDurationMs": 474431,
      "fuelConsumedMl": 961,
      "fuelConsumedGallons": 0.254,
      "maxSpeedMph": 33.9,
      "averageSpeedMph": 8.5,
      "safetyEvents": []
    },
    {
      "id": "trip_48271925_20250124_3224",
      "vehicleId": "48271925",
      "driverId": "20000036",
      "startMs": 1737734731000,
      "endMs": 1737744879000,
      "startAddress": "40441 Huynh Course Suite 641",
      "endAddress": "00337 Jonathan Villages Suite 421",
      "startCoords": {
        "latitude": 40.695924,
        "longitude": -111.790972
      },
      "endCoords": {
        "latitude": 40.736354,
        "longitude": -111.777371
      },
      "distanceMeters": 45558.0,
      "durationMs": 10148000,
      "drivingDurationMs": 8774115,
      "idlingDurationMs": 1373885,
      "fuelConsumedMl": 5792,
      "fuelConsumedGallons": 1.53,
      "maxSpeedMph": 32.2,
      "averageSpeedMph": 10.0,
      "safetyEvents": []
    },
    {
      "id": "trip_48271925_20250124_3258",
      "vehicleId": "48271925",
      "driverId": "20000038",
      "startMs": 1737751979000,
      "endMs": 1737753779000,
      "startAddress": "927 Paul Station",
      "endAddress": "798 Jennifer Port",
      "startCoords": {
        "latitude": 40.687566,
        "longitude": -111.915007
      },
      "endCoords": {
        "latitude": 40.684626,
        "longitude": -111.91775
      },
      "distanceMeters": 10232.8,
      "durationMs": 1800000,
      "drivingDurationMs": 1434319,
      "idlingDurationMs": 365681,
      "fuelConsumedMl": 1302,
      "fuelConsumedGallons": 0.344,
      "maxSpeedMph": 35.8,
      "averageSpeedMph": 12.7,
      "safetyEvents": []
    },
    {
      "id": "trip_48271925_20250125_3313",
      "vehicleId": "48271925",
      "driverId": "20000036",
      "startMs": 1737791171000,
      "endMs": 1737797099000,
      "startAddress": "218 Connor Station Apt. 587",
      "endAddress": "694 Jones Harbors Apt. 657",
      "startCoords": {
        "latitude": 40.698932,
        "longitude": -111.889047
      },
      "endCoords": {
        "latitude": 40.689646,
        "longitude": -111.794208
      },
      "distanceMeters": 33182.3,
      "durationMs": 5928000,
      "drivingDurationMs": 4560130,
      "idlingDurationMs": 1367870,
      "fuelConsumedMl": 4221,
      "fuelConsumedGallons": 1.115,
      "maxSpeedMph": 35.7,
      "averageSpeedMph": 12.5,
      "safetyEvents": []
    },
    {
      "id": "trip_48271925_20250125_3374",
      "vehicleId": "48271925",
      "driverId": "20000036",
      "startMs": 1737826522000,
      "endMs": 1737828742000,
      "startAddress": "986 Jose Flat",
      "endAddress": "57182 Rogers Falls",
      "startCoords": {
        "latitude": 40.754221,
        "longitude": -111.938747
      },
      "endCoords": {
        "latitude": 40.730577,
        "longitude": -111.891679
      },
      "distanceMeters": 13287.5,
      "durationMs": 2220000,
      "drivingDurationMs": 1830657,
      "idlingDurationMs": 389343,
      "fuelConsumedMl": 1688,
      "fuelConsumedGallons": 0.446,
      "maxSpeedMph": 36.0,
      "averageSpeedMph": 13.4,
      "safetyEvents": []
    },
    {
      "id": "trip_48271925_20250126_3424",
      "vehicleId": "48271925",
      "driverId": "20000034",
      "startMs": 1737858226000,
      "endMs": 1737860566000,
      "startAddress": "164 Perry Court Suite 286",
      "endAddress": "9156 Turner Terrace",
      "startCoords": {
        "latitude": 40.777249,
        "longitude": -111.775248
      },
      "endCoords": {
        "latitude": 40.790821,
        "longitude": -111.847918
      },
      "distanceMeters": 16226.8,
      "durationMs": 2340000,
      "drivingDurationMs": 1844252,
      "idlingDurationMs": 495748,
      "fuelConsumedMl": 2063,
      "fuelConsumedGallons": 0.545,
      "maxSpeedMph": 27.7,
      "averageSpeedMph": 15.5,
      "safetyEvents": []
    },
    {
      "id": "trip_48271925_20250126_3479",
      "vehicleId": "48271925",
      "driverId": "20000036",
      "startMs": 1737915121000,
      "endMs": 1737916741000,
      "startAddress": "04528 Sullivan Street Suite 880",
      "endAddress": "495 Oscar Isle",
      "startCoords": {
        "latitude": 40.65982,
        "longitude": -111.912543
      },
      "endCoords": {
        "latitude": 40.707275,
        "longitude": -111.937776
      },
      "distanceMeters": 9157.1,
      "durationMs": 1620000,
      "drivingDurationMs": 1380985,
      "idlingDurationMs": 239015,
      "fuelConsumedMl": 1166,
      "fuelConsumedGallons": 0.308,
      "maxSpeedMph": 38.8,
      "averageSpeedMph": 12.6,
      "safetyEvents": []
    },
    {
      "id": "trip_48271925_20250127_3535",
      "vehicleId": "48271925",
      "driverId": "20000034",
      "startMs": 1737973252000,
      "endMs": 1737975232000,
      "startAddress": "3430 Ryan Brook",
      "endAddress": "240 Linda Key Apt. 173",
      "startCoords": {
        "latitude": 40.779773,
        "longitude": -111.82854
      },
      "endCoords": {
        "latitude": 40.708525,
        "longitude": -111.797592
      },
      "distanceMeters": 9303.4,
      "durationMs": 1980000,
      "drivingDurationMs": 1773810,
      "idlingDurationMs": 206190,
      "fuelConsumedMl": 1181,
      "fuelConsumedGallons": 0.312,
      "maxSpeedMph": 27.2,
      "averageSpeedMph": 10.5,
      "safetyEvents": []
    },
    {
      "id": "trip_48271925_20250127_3576",
      "vehicleId": "48271925",
      "driverId": "20000033",
      "startMs": 1737993949000,
      "endMs": 1737995869000,
      "startAddress": "5716 Hernandez Run",
      "endAddress": "90101 Choi Groves",
      "startCoords": {
        "latitude": 40.731801,
        "longitude": -111.933362
      },
      "endCoords": {
        "latitude": 40.773699,
        "longitude": -111.878493
      },
      "distanceMeters": 11839.4,
      "durationMs": 1920000,
      "drivingDurationMs": 1464658,
      "idlingDurationMs": 455342,
      "fuelConsumedMl": 1507,
      "fuelConsumedGallons": 0.398,
      "maxSpeedMph": 26.0,
      "averageSpeedMph": 13.8,
      "safetyEvents": []
    },
    {
      "id": "trip_48271925_20250127_3611",
      "vehicleId": "48271925",
      "driverId": "20000033",
      "startMs": 1738011982000,
      "endMs": 1738015904000,
      "startAddress": "218 Jessica Pass Apt. 169",
      "endAddress": "79953 Anderson Roads",
      "startCoords": {
        "latitude": 40.673108,
        "longitude": -111.856958
      },
      "endCoords": {
        "latitude": 40.794195,
        "longitude": -111.853984
      },
      "distanceMeters": 24955.3,
      "durationMs": 3922000,
      "drivingDurationMs": 3451068,
      "idlingDurationMs": 470932,
      "fuelConsumedMl": 3172,
      "fuelConsumedGallons": 0.838,
      "maxSpeedMph": 38.2,
      "averageSpeedMph": 14.2,
      "safetyEvents": []
    },
    {
      "id": "trip_48271925_20250128_3663",
      "vehicleId": "48271925",
      "driverId": "20000035",
      "startMs": 1738049291000,
      "endMs": 1738051211000,
      "startAddress": "98792 Christopher Path Apt. 923",
      "endAddress": "259 Ferguson Shores Suite 066",
      "startCoords": {
        "latitude": 40.691475,
        "longitude": -111.79718
      },
      "endCoords": {
        "latitude": 40.691896,
        "longitude": -111.90243
      },
      "distanceMeters": 11059.9,
      "durationMs": 1920000,
      "drivingDurationMs": 1577904,
      "idlingDurationMs": 342096,
      "fuelConsumedMl": 1404,
      "fuelConsumedGallons": 0.371,
      "maxSpeedMph": 32.5,
      "averageSpeedMph": 12.9,
      "safetyEvents": []
    },
    {
      "id": "trip_48271925_20250128_3722",
      "vehicleId": "48271925",
      "driverId": "20000036",
      "startMs": 1738074513000,
      "endMs": 1738076284000,
      "startAddress": "26259 Joseph Springs Apt. 539",
      "endAddress": "569 Steven Estates Apt. 703",
      "startCoords": {
        "latitude": 40.683386,
        "longitude": -111.923805
      },
      "endCoords": {
        "latitude": 40.672746,
        "longitude": -111.906395
      },
      "distanceMeters": 11821.6,
      "durationMs": 1771000,
      "drivingDurationMs": 1451501,
      "idlingDurationMs": 319499,
      "fuelConsumedMl": 1503,
      "fuelConsumedGallons": 0.397,
      "maxSpeedMph": 35.3,
      "averageSpeedMph": 14.9,
      "safetyEvents": []
    },
    {
      "id": "trip_48271925_20250128_3775",
      "vehicleId": "48271925",
      "driverId": "20000033",
      "startMs": 1738096777000,
      "endMs": 1738098757000,
      "startAddress": "514 Ricky Meadows Apt. 969",
      "endAddress": "4521 Kimberly Expressway",
      "startCoords": {
        "latitude": 40.733808,
        "longitude": -111.817903
      },
      "endCoords": {
        "latitude": 40.669279,
        "longitude": -111.85982
      },
      "distanceMeters": 14034.0,
      "durationMs": 1980000,
      "drivingDurationMs": 1771199,
      "idlingDurationMs": 208801,
      "fuelConsumedMl": 1783,
      "fuelConsumedGallons": 0.471,
      "maxSpeedMph": 32.2,
      "averageSpeedMph": 15.9,
      "safetyEvents": []
    },
    {
      "id": "trip_48271925_20250129_3835",
      "vehicleId": "48271925",
      "driverId": "20000036",
      "startMs": 1738133367000,
      "endMs": 1738135887000,
      "startAddress": "442 Robert Island",
      "endAddress": "810 Graves Isle",
      "startCoords": {
        "latitude": 40.720695,
        "longitude": -111.915247
      },
      "endCoords": {
        "latitude": 40.708894,
        "longitude": -111.799159
      },
      "distanceMeters": 14619.4,
      "durationMs": 2520000,
      "drivingDurationMs": 1935219,
      "idlingDurationMs": 584781,
      "fuelConsumedMl": 1859,
      "fuelConsumedGallons": 0.491,
      "maxSpeedMph": 33.7,
      "averageSpeedMph": 13.0,
      "safetyEvents": []
    },
    {
      "id": "trip_48271925_20250129_3868",
      "vehicleId": "48271925",
      "driverId": "20000037",
      "startMs": 1738151297000,
      "endMs": 1738154261000,
      "startAddress": "9103 Kenneth Crossing Apt. 033",
      "endAddress": "539 Daniel Mountains Suite 221",
      "startCoords": {
        "latitude": 40.775882,
        "longitude": -111.912656
      },
      "endCoords": {
        "latitude": 40.742051,
        "longitude": -111.826582
      },
      "distanceMeters": 19488.5,
      "durationMs": 2964000,
      "drivingDurationMs": 2530246,
      "idlingDurationMs": 433754,
      "fuelConsumedMl": 2479,
      "fuelConsumedGallons": 0.655,
      "maxSpeedMph": 32.2,
      "averageSpeedMph": 14.7,
      "safetyEvents": []
    },
    {
      "id": "trip_48271925_20250129_3901",
      "vehicleId": "48271925",
      "driverId": "20000039",
      "startMs": 1738167874000,
      "endMs": 1738182739000,
      "startAddress": "520 Hoover Greens",
      "endAddress": "9325 Mcfarland Row",
      "startCoords": {
        "latitude": 40.696952,
        "longitude": -111.883958
      },
      "endCoords": {
        "latitude": 40.693347,
        "longitude": -111.800797
      },
      "distanceMeters": 75711.3,
      "durationMs": 14865000,
      "drivingDurationMs": 11438586,
      "idlingDurationMs": 3426414,
      "fuelConsumedMl": 9626,
      "fuelConsumedGallons": 2.543,
      "maxSpeedMph": 36.3,
      "averageSpeedMph": 11.4,
      "safetyEvents": []
    },
    {
      "id": "trip_48271925_20250130_3945",
      "vehicleId": "48271925",
      "driverId": "20000034",
      "startMs": 1738198446000,
      "endMs": 1738200006000,
      "startAddress": "1965 Dawn Shoal Apt. 026",
      "endAddress": "803 Dawn Mills Apt. 996",
      "startCoords": {
        "latitude": 40.734773,
        "longitude": -111.911953
      },
      "endCoords": {
        "latitude": 40.685523,
        "longitude": -111.902197
      },
      "distanceMeters": 10572.9,
      "durationMs": 1560000,
      "drivingDurationMs": 1232648,
      "idlingDurationMs": 327352,
      "fuelConsumedMl": 1344,
      "fuelConsumedGallons": 0.355,
      "maxSpeedMph": 34.7,
      "averageSpeedMph": 15.2,
      "safetyEvents": []
    },
    {
      "id": "trip_48271925_20250130_3999",
      "vehicleId": "48271925",
      "driverId": "20000033",
      "startMs": 1738230894000,
      "endMs": 1738242084000,
      "startAddress": "480 Charles Mews",
      "endAddress": "9474 David Fall",
      "startCoords": {
        "latitude": 40.715395,
        "longitude": -111.795398
      },
      "endCoords": {
        "latitude": 40.760974,
        "longitude": -111.803964
      },
      "distanceMeters": 59131.3,
      "durationMs": 11190000,
      "drivingDurationMs": 8602593,
      "idlingDurationMs": 2587407,
      "fuelConsumedMl": 7518,
      "fuelConsumedGallons": 1.986,
      "maxSpeedMph": 38.7,
      "averageSpeedMph": 11.8,
      "safetyEvents": []
    },
    {
      "id": "trip_48271925_20250130_4030",
      "vehicleId": "48271925",
      "driverId": "20000039",
      "startMs": 1738249617000,
      "endMs": 1738251237000,
      "startAddress": "088 Philip Village Apt. 572",
      "endAddress": "54137 Victoria Fall",
      "startCoords": {
        "latitude": 40.747209,
        "longitude": -111.829211
      },
      "endCoords": {
        "latitude": 40.683583,
        "longitude": -111.817699
      },
      "distanceMeters": 7426.5,
      "durationMs": 1620000,
      "drivingDurationMs": 1451771,
      "idlingDurationMs": 168229,
      "fuelConsumedMl": 943,
      "fuelConsumedGallons": 0.249,
      "maxSpeedMph": 33.5,
      "averageSpeedMph": 10.3,
      "safetyEvents": []
    },
    {
      "id": "trip_48271925_20250130_4071",
      "vehicleId": "48271925",
      "driverId": "20000034",
      "startMs": 1738268368000,
      "endMs": 1738270168000,
      "startAddress": "50538 Flores Field",
      "endAddress": "35848 Moore Circle",
      "startCoords": {
        "latitude": 40.697127,
        "longitude": -111.877813
      },
      "endCoords": {
        "latitude": 40.697886,
        "longitude": -111.867948
      },
      "distanceMeters": 9517.2,
      "durationMs": 1800000,
      "drivingDurationMs": 1350206,
      "idlingDurationMs": 449794,
      "fuelConsumedMl": 1211,
      "fuelConsumedGallons": 0.32,
      "maxSpeedMph": 34.2,
      "averageSpeedMph": 11.8,
      "safetyEvents": []
    },
    {
      "id": "trip_48271925_20250131_4120",
      "vehicleId": "48271925",
      "driverId": "20000038",
      "startMs": 1738303153000,
      "endMs": 1738304653000,
      "startAddress": "1146 Madden Fords",
      "endAddress": "57055 Mclaughlin Ville",
      "startCoords": {
        "latitude": 40.713836,
        "longitude": -111.866466
      },
      "endCoords": {
        "latitude": 40.744083,
        "longitude": -111.824535
      },
      "distanceMeters": 10075.8,
      "durationMs": 1500000,
      "drivingDurationMs": 1288838,
      "idlingDurationMs": 211162,
      "fuelConsumedMl": 1279,
      "fuelConsumedGallons": 0.338,
      "maxSpeedMph": 27.6,
      "averageSpeedMph": 15.0,
      "safetyEvents": []
    },
    {
      "id": "trip_48271925_20250131_4166",
      "vehicleId": "48271925",
      "driverId": "20000039",
      "startMs": 1738328807000,
      "endMs": 1738330847000,
      "startAddress": "5328 Margaret Hollow",
      "endAddress": "802 Stevens Road Suite 893",
      "startCoords": {
        "latitude": 40.780348,
        "longitude": -111.812213
      },
      "endCoords": {
        "latitude": 40.763205,
        "longitude": -111.923846
      },
      "distanceMeters": 9592.3,
      "durationMs": 2040000,
      "drivingDurationMs": 1742155,
      "idlingDurationMs": 297845,
      "fuelConsumedMl": 1219,
      "fuelConsumedGallons": 0.322,
      "maxSpeedMph": 27.1,
      "averageSpeedMph": 10.5,
      "safetyEvents": []
    },
    {
      "id": "trip_48271925_20250131_4203",
      "vehicleId": "48271925",
      "driverId": "20000039",
      "startMs": 1738346661000,
      "endMs": 1738349001000,
      "startAddress": "2859 Rachel Ridge Apt. 582",
      "endAddress": "100 Laurie Meadow",
      "startCoords": {
        "latitude": 40.730248,
        "longitude": -111.882826
      },
      "endCoords": {
        "latitude": 40.76436,
        "longitude": -111.82279
      },
      "distanceMeters": 16228.4,
      "durationMs": 2340000,
      "drivingDurationMs": 1940337,
      "idlingDurationMs": 399663,
      "fuelConsumedMl": 2063,
      "fuelConsumedGallons": 0.545,
      "maxSpeedMph": 33.5,
      "averageSpeedMph": 15.5,
      "safetyEvents": []
    }
  ]
}