{
  "vehicleId": "42865565",
  "vehicleName": "ABQ-VAN-02",
  "month": "2025_01",
  "pagination": {
    "endCursor": "trip_42865565_20250131_005",
    "hasNextPage": false
  },
  "trips": [
    {
      "id": "trip_42865565_20250101_001",
      "vehicleId": "42865565",
      "driverId": "20000044",
      "startMs": 1735736520000,
      "endMs": 1735741748345,
      "startAddress": "89141 Tyler Rest Apt. 483",
      "endAddress": "642 Amy Fords Suite 530",
      "startCoords": {
        "latitude": 35.177352,
        "longitude": -106.653431
      },
      "endCoords": {
        "latitude": 35.166908,
        "longitude": -106.639487
      },
      "distanceMeters": 27967.3,
      "durationMs": 5228345,
      "drivingDurationMs": 4906599,
      "idlingDurationMs": 321747,
      "fuelConsumedMl": 3554,
      "fuelConsumedGallons": 0.939,
      "maxSpeedMph": 56.2,
      "averageSpeedMph": 12.0,
      "safetyEvents": []
    },
    {
      "id": "trip_42865565_20250101_002",
      "vehicleId": "42865565",
      "driverId": "20000044",
      "startMs": 1735734240000,
      "endMs": 1735735853177,
      "startAddress": "119 Hernandez Course",
      "endAddress": "143 Hinton Hill",
      "startCoords": {
        "latitude": 35.055528,
        "longitude": -106.537029
      },
      "endCoords": {
        "latitude": 35.095085,
        "longitude": -106.699946
      },
      "distanceMeters": 11420.0,
      "durationMs": 1613177,
      "drivingDurationMs": 1305225,
      "idlingDurationMs": 307953,
      "fuelConsumedMl": 1454,
      "fuelConsumedGallons": 0.384,
      "maxSpeedMph": 33.9,
      "averageSpeedMph": 15.8,
      "safetyEvents": []
    },
    {
      "id": "trip_42865565_20250102_001",
      "vehicleId": "42865565",
      "driverId": "20000046",
      "startMs": 1735813440000,
      "endMs": 1735829094743,
      "startAddress": "5626 Phillip Camp",
      "endAddress": "084 Morales Springs",
      "startCoords": {
        "latitude": 35.152685,
        "longitude": -106.556921
      },
      "endCoords": {
        "latitude": 35.039379,
        "longitude": -106.557888
      },
      "distanceMeters": 82813.9,
      "durationMs": 15654743,
      "drivingDurationMs": 14115617,
      "idlingDurationMs": 1539127,
      "fuelConsumedMl": 10531,
      "fuelConsumedGallons": 2.782,
      "maxSpeedMph": 64.0,
      "averageSpeedMph": 11.8,
      "safetyEvents": []
    },
    {
      "id": "trip_42865565_20250102_002",
      "vehicleId": "42865565",
      "driverId": "20000046",
      "startMs": 1735823400000,
      "endMs": 1735827106367,
      "startAddress": "550 Mccullough Ridge Apt. 673",
      "endAddress": "563 Miller Plain Suite 628",
      "startCoords": {
        "latitude": 35.125206,
        "longitude": -106.570138
      },
      "endCoords": {
        "latitude": 35.133723,
        "longitude": -106.645873
      },
      "distanceMeters": 23399.3,
      "durationMs": 3706367,
      "drivingDurationMs": 3342277,
      "idlingDurationMs": 364090,
      "fuelConsumedMl": 2975,
      "fuelConsumedGallons": 0.786,
      "maxSpeedMph": 34.6,
      "averageSpeedMph": 14.1,
      "safetyEvents": []
    },
    {
      "id": "trip_42865565_20250103_001",
      "vehicleId": "42865565",
      "driverId": "20000044",
      "startMs": 1735893780000,
      "endMs": 1735902600779,
      "startAddress": "647 Jessica Stream Apt. 209",
      "endAddress": "765 Thompson Stravenue Suite 134",
      "startCoords": {
        "latitude": 35.051759,
        "longitude": -106.713558
      },
      "endCoords": {
        "latitude": 35.130869,
        "longitude": -106.614095
      },
      "distanceMeters": 49076.8,
      "durationMs": 8820780,
      "drivingDurationMs": 7918043,
      "idlingDurationMs": 902737,
      "fuelConsumedMl": 6238,
      "fuelConsumedGallons": 1.648,
      "maxSpeedMph": 65.0,
      "averageSpeedMph": 12.4,
      "safetyEvents": []
    },
    {
      "id": "trip_42865565_20250103_002",
      "vehicleId": "42865565",
      "driverId": "20000044",
      "startMs": 1735897800000,
      "endMs": 1735911181931,
      "startAddress": "0988 Mitchell Lights Suite 220",
      "endAddress": "8499 Garcia Haven",
      "startCoords": {
        "latitude": 35.135229,
        "longitude": -106.70747
      },
      "endCoords": {
        "latitude": 35.112199,
        "longitude": -106.687315
      },
      "distanceMeters": 79853.2,
      "durationMs": 13381931,
      "drivingDurationMs": 13131963,
      "idlingDurationMs": 249968,
      "fuelConsumedMl": 10152,
      "fuelConsumedGallons": 2.682,
      "maxSpeedMph": 51.7,
      "averageSpeedMph": 13.3,
      "safetyEvents": []
    },
    {
      "id": "trip_42865565_20250103_003",
      "vehicleId": "42865565",
      "driverId": "20000044",
      "startMs": 1735904280000,
      "endMs": 1735911856408,
      "startAddress": "44773 Keith Green",
      "endAddress": "42138 Anthony Canyon",
      "startCoords": {
        "latitude": 35.161499,
        "longitude": -106.65434
      },
      "endCoords": {
        "latitude": 35.092169,
        "longitude": -106.670336
      },
      "distanceMeters": 53406.2,
      "durationMs": 7576408,
      "drivingDurationMs": 6160750,
      "idlingDurationMs": 1415658,
      "fuelConsumedMl": 6791,
      "fuelConsumedGallons": 1.794,
      "maxSpeedMph": 43.9,
      "averageSpeedMph": 15.8,
      "safetyEvents": []
    },
    {
      "id": "trip_42865565_20250103_004",
      "vehicleId": "42865565",
      "driverId": "20000044",
      "startMs": 1735903140000,
      "endMs": 1735913426059,
      "startAddress": "70534 Dennis Pike",
      "endAddress": "4117 Snyder Corners",
      "startCoords": {
        "latitude": 35.181505,
        "longitude": -106.572636
      },
      "endCoords": {
        "latitude": 35.080033,
        "longitude": -106.572262
      },
      "distanceMeters": 83201.9,
      "durationMs": 10286060,
      "drivingDurationMs": 9904913,
      "idlingDurationMs": 381146,
      "fuelConsumedMl": 10580,
      "fuelConsumedGallons": 2.795,
      "maxSpeedMph": 60.0,
      "averageSpeedMph": 18.1,
      "safetyEvents": []
    },
    {
      "id": "trip_42865565_20250103_005",
      "vehicleId": "42865565",
      "driverId": "20000044",
      "startMs": 1735908360000,
      "endMs": 1735924306460,
      "startAddress": "1513 Mark Parkways",
      "endAddress": "7815 Ryan Squares Suite 380",
      "startCoords": {
        "latitude": 35.106841,
        "longitude": -106.560619
      },
      "endCoords": {
        "latitude": 35.180646,
        "longitude": -106.711472
      },
      "distanceMeters": 76714.3,
      "durationMs": 15946460,
      "drivingDurationMs": 13840444,
      "idlingDurationMs": 2106016,
      "fuelConsumedMl": 9755,
      "fuelConsumedGallons": 2.577,
      "maxSpeedMph": 31.8,
      "averageSpeedMph": 10.8,
      "safetyEvents": []
    },
    {
      "id": "trip_42865565_20250104_001",
      "vehicleId": "42865565",
      "driverId": "20000045",
      "startMs": 1736001600000,
      "endMs": 1736005626105,
      "startAddress": "9967 Jesse Vista Apt. 677",
      "endAddress": "696 Amber Groves",
      "startCoords": {
        "latitude": 35.069243,
        "longitude": -106.656797
      },
      "endCoords": {
        "latitude": 35.063454,
        "longitude": -106.648221
      },
      "distanceMeters": 20163.8,
      "durationMs": 4026106,
      "drivingDurationMs": 3473246,
      "idlingDurationMs": 552860,
      "fuelConsumedMl": 2563,
      "fuelConsumedGallons": 0.677,
      "maxSpeedMph": 69.3,
      "averageSpeedMph": 11.2,
      "safetyEvents": [
        {
          "type": "speeding",
          "startMs": 1736004120000,
          "maxSpeedMph": 69.3
        }
      ]
    },
    {
      "id": "trip_42865565_20250104_002",
      "vehicleId": "42865565",
      "driverId": "20000045",
      "startMs": 1735971840000,
      "endMs": 1735976280675,
      "startAddress": "768 Morris Parks",
      "endAddress": "9352 Carolyn Square Suite 263",
      "startCoords": {
        "latitude": 35.044761,
        "longitude": -106.557243
      },
      "endCoords": {
        "latitude": 35.097685,
        "longitude": -106.579439
      },
      "distanceMeters": 22021.4,
      "durationMs": 4440675,
      "drivingDurationMs": 3760536,
      "idlingDurationMs": 680139,
      "fuelConsumedMl": 2801,
      "fuelConsumedGallons": 0.74,
      "maxSpeedMph": 40.3,
      "averageSpeedMph": 11.1,
      "safetyEvents": []
    },
    {
      "id": "trip_42865565_20250104_003",
      "vehicleId": "42865565",
      "driverId": "20000045",
      "startMs": 1735995960000,
      "endMs": 1736005420129,
      "startAddress": "5643 Roach Light",
      "endAddress": "93170 Armstrong Lake Suite 076",
      "startCoords": {
        "latitude": 35.052085,
        "longitude": -106.662863
      },
      "endCoords": {
        "latitude": 35.129365,
        "longitude": -106.650776
      },
      "distanceMeters": 62002.5,
      "durationMs": 9460129,
      "drivingDurationMs": 7676310,
      "idlingDurationMs": 1783819,
      "fuelConsumedMl": 7885,
      "fuelConsumedGallons": 2.083,
      "maxSpeedMph": 53.0,
      "averageSpeedMph": 14.7,
      "safetyEvents": []
    },
    {
      "id": "trip_42865565_20250105_001",
      "vehicleId": "42865565",
      "driverId": "20000045",
      "startMs": 1736081340000,
      "endMs": 1736087227612,
      "startAddress": "670 Carol Alley",
      "endAddress": "65515 Moreno Lodge Suite 913",
      "startCoords": {
        "latitude": 35.062228,
        "longitude": -106.713111
      },
      "endCoords": {
        "latitude": 35.145586,
        "longitude": -106.619605
      },
      "distanceMeters": 30019.0,
      "durationMs": 5887613,
      "drivingDurationMs": 5610446,
      "idlingDurationMs": 277167,
      "fuelConsumedMl": 3816,
      "fuelConsumedGallons": 1.008,
      "maxSpeedMph": 60.1,
      "averageSpeedMph": 11.4,
      "safetyEvents": []
    },
    {
      "id": "trip_42865565_20250106_001",
      "vehicleId": "42865565",
      "driverId": "20000046",
      "startMs": 1736148120000,
      "endMs": 1736157527690,
      "startAddress": "12154 Jennifer Plain",
      "endAddress": "8687 Evans Branch",
      "startCoords": {
        "latitude": 35.10894,
        "longitude": -106.646364
      },
      "endCoords": {
        "latitude": 35.072282,
        "longitude": -106.669154
      },
      "distanceMeters": 60757.5,
      "durationMs": 9407690,
      "drivingDurationMs": 7848829,
      "idlingDurationMs": 1558861,
      "fuelConsumedMl": 7726,
      "fuelConsumedGallons": 2.041,
      "maxSpeedMph": 49.3,
      "averageSpeedMph": 14.4,
      "safetyEvents": []
    },
    {
      "id": "trip_42865565_20250106_002",
      "vehicleId": "42865565",
      "driverId": "20000046",
      "startMs": 1736172780000,
      "endMs": 1736182563642,
      "startAddress": "185 Hawkins Centers",
      "endAddress": "4200 Thompson Parkway Suite 787",
      "startCoords": {
        "latitude": 35.084211,
        "longitude": -106.650246
      },
      "endCoords": {
        "latitude": 35.102133,
        "longitude": -106.648872
      },
      "distanceMeters": 76184.8,
      "durationMs": 9783643,
      "drivingDurationMs": 9470626,
      "idlingDurationMs": 313017,
      "fuelConsumedMl": 9687,
      "fuelConsumedGallons": 2.559,
      "maxSpeedMph": 62.0,
      "averageSpeedMph": 17.4,
      "safetyEvents": []
    },
    {
      "id": "trip_42865565_20250106_003",
      "vehicleId": "42865565",
      "driverId": "20000046",
      "startMs": 1736144220000,
      "endMs": 1736152969447,
      "startAddress": "8566 Bautista Locks",
      "endAddress": "196 Jeff Shoals Apt. 192",
      "startCoords": {
        "latitude": 35.070328,
        "longitude": -106.559095
      },
      "endCoords": {
        "latitude": 35.115691,
        "longitude": -106.577178
      },
      "distanceMeters": 43840.4,
      "durationMs": 8749447,
      "drivingDurationMs": 7492214,
      "idlingDurationMs": 1257233,
      "fuelConsumedMl": 5572,
      "fuelConsumedGallons": 1.472,
      "maxSpeedMph": 30.0,
      "averageSpeedMph": 11.2,
      "safetyEvents": []
    },
    {
      "id": "trip_42865565_20250106_004",
      "vehicleId": "42865565",
      "driverId": null,
      "startMs": 1736149140000,
      "endMs": 1736160331982,
      "startAddress": "21320 Vaughn Cape Suite 294",
      "endAddress": "47891 Thomas Ridges",
      "startCoords": {
        "latitude": 35.093086,
        "longitude": -106.577013
      },
      "endCoords": {
        "latitude": 35.086469,
        "longitude": -106.657527
      },
      "distanceMeters": 53860.1,
      "durationMs": 11191983,
      "drivingDurationMs": 9788291,
      "idlingDurationMs": 1403692,
      "fuelConsumedMl": 6848,
      "fuelConsumedGallons": 1.809,
      "maxSpeedMph": 69.8,
      "averageSpeedMph": 10.8,
      "safetyEvents": [
        {
          "type": "speeding",
          "startMs": 1736157720000,
          "maxSpeedMph": 69.8
        }
      ]
    },
    {
      "id": "trip_42865565_20250107_001",
      "vehicleId": "42865565",
      "driverId": "20000046",
      "startMs": 1736244840000,
      "endMs": 1736248016591,
      "startAddress": "5992 Cody Wall",
      "endAddress": "3382 Derek Dale Suite 005",
      "startCoords": {
        "latitude": 35.108675,
        "longitude": -106.598593
      },
      "endCoords": {
        "latitude": 35.089364,
        "longitude": -106.703963
      },
      "distanceMeters": 20195.7,
      "durationMs": 3176592,
      "drivingDurationMs": 2744026,
      "idlingDurationMs": 432566,
      "fuelConsumedMl": 2567,
      "fuelConsumedGallons": 0.678,
      "maxSpeedMph": 47.1,
      "averageSpeedMph": 14.2,
      "safetyEvents": []
    },
    {
      "id": "trip_42865565_20250107_002",
      "vehicleId": "42865565",
      "driverId": "20000046",
      "startMs": 1736250300000,
      "endMs": 1736257894139,
      "startAddress": "222 Nathan Dam",
      "endAddress": "90113 Ferguson Fords",
      "startCoords": {
        "latitude": 35.098442,
        "longitude": -106.721477
      },
      "endCoords": {
        "latitude": 35.082825,
        "longitude": -106.694063
      },
      "distanceMeters": 43136.0,
      "durationMs": 7594139,
      "drivingDurationMs": 7042454,
      "idlingDurationMs": 551685,
      "fuelConsumedMl": 5485,
      "fuelConsumedGallons": 1.449,
      "maxSpeedMph": 69.5,
      "averageSpeedMph": 12.7,
      "safetyEvents": [
        {
          "type": "speeding",
          "startMs": 1736255220000,
          "maxSpeedMph": 69.5
        }
      ]
    },
    {
      "id": "trip_42865565_20250107_003",
      "vehicleId": "42865565",
      "driverId": "20000046",
      "startMs": 1736246580000,
      "endMs": 1736255141380,
      "startAddress": "133 Michael Path",
      "endAddress": "32394 Collier Loop Suite 523",
      "startCoords": {
        "latitude": 35.092245,
        "longitude": -106.594315
      },
      "endCoords": {
        "latitude": 35.056898,
        "longitude": -106.617503
      },
      "distanceMeters": 54478.4,
      "durationMs": 8561381,
      "drivingDurationMs": 7383351,
      "idlingDurationMs": 1178030,
      "fuelConsumedMl": 6927,
      "fuelConsumedGallons": 1.83,
      "maxSpeedMph": 51.3,
      "averageSpeedMph": 14.2,
      "safetyEvents": []
    },
    {
      "id": "trip_42865565_20250107_004",
      "vehicleId": "42865565",
      "driverId": "20000046",
      "startMs": 1736255040000,
      "endMs": 1736256233577,
      "startAddress": "86449 Patterson Avenue Apt. 498",
      "endAddress": "3420 Wright Terrace Suite 734",
      "startCoords": {
        "latitude": 35.16962,
        "longitude": -106.554025
      },
      "endCoords": {
        "latitude": 35.129797,
        "longitude": -106.55416
      },
      "distanceMeters": 6416.8,
      "durationMs": 1193578,
      "drivingDurationMs": 996562,
      "idlingDurationMs": 197016,
      "fuelConsumedMl": 818,
      "fuelConsumedGallons": 0.216,
      "maxSpeedMph": 69.6,
      "averageSpeedMph": 12.0,
      "safetyEvents": [
        {
          "type": "speeding",
          "startMs": 1736256060000,
          "maxSpeedMph": 69.6
        }
      ]
    },
    {
      "id": "trip_42865565_20250108_001",
      "vehicleId": "42865565",
      "driverId": "20000046",
      "startMs": 1736355420000,
      "endMs": 1736358694434,
      "startAddress": "564 Mcdonald Coves Apt. 605",
      "endAddress": "064 Tammy Stravenue",
      "startCoords": {
        "latitude": 35.044243,
        "longitude": -106.678346
      },
      "endCoords": {
        "latitude": 35.167633,
        "longitude": -106.722984
      },
      "distanceMeters": 16407.7,
      "durationMs": 3274435,
      "drivingDurationMs": 2819183,
      "idlingDurationMs": 455251,
      "fuelConsumedMl": 2086,
      "fuelConsumedGallons": 0.551,
      "maxSpeedMph": 39.6,
      "averageSpeedMph": 11.2,
      "safetyEvents": []
    },
    {
      "id": "trip_42865565_20250108_002",
      "vehicleId": "42865565",
      "driverId": "20000046",
      "startMs": 1736346480000,
      "endMs": 1736357896017,
      "startAddress": "034 Matthew Shore Apt. 970",
      "endAddress": "158 Jacob Plains",
      "startCoords": {
        "latitude": 35.144613,
        "longitude": -106.624415
      },
      "endCoords": {
        "latitude": 35.097161,
        "longitude": -106.684019
      },
      "distanceMeters": 67419.5,
      "durationMs": 11416018,
      "drivingDurationMs": 10646798,
      "idlingDurationMs": 769219,
      "fuelConsumedMl": 8570,
      "fuelConsumedGallons": 2.264,
      "maxSpeedMph": 66.0,
      "averageSpeedMph": 13.2,
      "safetyEvents": [
        {
          "type": "speeding",
          "startMs": 1736356500000,
          "maxSpeedMph": 66.0
        }
      ]
    },
    {
      "id": "trip_42865565_20250108_003",
      "vehicleId": "42865565",
      "driverId": "20000046",
      "startMs": 1736336340000,
      "endMs": 1736350494343,
      "startAddress": "670 Ramirez Crest",
      "endAddress": "19362 Cisneros Locks Apt. 221",
      "startCoords": {
        "latitude": 35.125733,
        "longitude": -106.714978
      },
      "endCoords": {
        "latitude": 35.091508,
        "longitude": -106.617666
      },
      "distanceMeters": 62908.6,
      "durationMs": 14154344,
      "drivingDurationMs": 12079992,
      "idlingDurationMs": 2074352,
      "fuelConsumedMl": 7999,
      "fuelConsumedGallons": 2.113,
      "maxSpeedMph": 47.9,
      "averageSpeedMph": 9.9,
      "safetyEvents": []
    },
    {
      "id": "trip_42865565_20250108_004",
      "vehicleId": "42865565",
      "driverId": "20000046",
      "startMs": 1736355840000,
      "endMs": 1736367835899,
      "startAddress": "088 Richardson Harbor Apt. 293",
      "endAddress": "8384 Faith Road",
      "startCoords": {
        "latitude": 35.181404,
        "longitude": -106.614195
      },
      "endCoords": {
        "latitude": 35.062298,
        "longitude": -106.581571
      },
      "distanceMeters": 69262.9,
      "durationMs": 11995900,
      "drivingDurationMs": 11333571,
      "idlingDurationMs": 662329,
      "fuelConsumedMl": 8805,
      "fuelConsumedGallons": 2.326,
      "maxSpeedMph": 28.7,
      "averageSpeedMph": 12.9,
      "safetyEvents": []
    },
    {
      "id": "trip_42865565_20250108_005",
      "vehicleId": "42865565",
      "driverId": "20000046",
      "startMs": 1736357760000,
      "endMs": 1736366602354,
      "startAddress": "65735 Timothy Junction",
      "endAddress": "9351 Nancy Street Apt. 401",
      "startCoords": {
        "latitude": 35.150935,
        "longitude": -106.668123
      },
      "endCoords": {
        "latitude": 35.118096,
        "longitude": -106.610099
      },
      "distanceMeters": 54902.0,
      "durationMs": 8842355,
      "drivingDurationMs": 7384967,
      "idlingDurationMs": 1457388,
      "fuelConsumedMl": 6980,
      "fuelConsumedGallons": 1.844,
      "maxSpeedMph": 53.2,
      "averageSpeedMph": 13.9,
      "safetyEvents": []
    },
    {
      "id": "trip_42865565_20250109_001",
      "vehicleId": "42865565",
      "driverId": "20000044",
      "startMs": 1736408040000,
      "endMs": 1736413883704,
      "startAddress": "1221 Williams Throughway",
      "endAddress": "965 Arnold Lodge",
      "startCoords": {
        "latitude": 35.182012,
        "longitude": -106.62962
      },
      "endCoords": {
        "latitude": 35.13852,
        "longitude": -106.700331
      },
      "distanceMeters": 35948.6,
      "durationMs": 5843705,
      "drivingDurationMs": 5358962,
      "idlingDurationMs": 484743,
      "fuelConsumedMl": 4569,
      "fuelConsumedGallons": 1.207,
      "maxSpeedMph": 62.2,
      "averageSpeedMph": 13.8,
      "safetyEvents": []
    },
    {
      "id": "trip_42865565_20250109_002",
      "vehicleId": "42865565",
      "driverId": "20000044",
      "startMs": 1736415720000,
      "endMs": 1736418505432,
      "startAddress": "900 Martinez Pike",
      "endAddress": "35286 Smith Via",
      "startCoords": {
        "latitude": 35.162664,
        "longitude": -106.720057
      },
      "endCoords": {
        "latitude": 35.095023,
        "longitude": -106.637616
      },
      "distanceMeters": 20507.6,
      "durationMs": 2785432,
      "drivingDurationMs": 2471139,
      "idlingDurationMs": 314293,
      "fuelConsumedMl": 2608,
      "fuelConsumedGallons": 0.689,
      "maxSpeedMph": 58.8,
      "averageSpeedMph": 16.5,
      "safetyEvents": []
    },
    {
      "id": "trip_42865565_20250109_003",
      "vehicleId": "42865565",
      "driverId": "20000044",
      "startMs": 1736448840000,
      "endMs": 1736456400000,
      "startAddress": "550 Gary Junction",
      "endAddress": "80101 Melissa Valleys Suite 718",
      "startCoords": {
        "latitude": 35.040021,
        "longitude": -106.631074
      },
      "endCoords": {
        "latitude": 35.180463,
        "longitude": -106.66498
      },
      "distanceMeters": 46353.6,
      "durationMs": 7560000,
      "drivingDurationMs": 7358217,
      "idlingDurationMs": 201783,
      "fuelConsumedMl": 5894,
      "fuelConsumedGallons": 1.557,
      "maxSpeedMph": 35.1,
      "averageSpeedMph": 13.7,
      "safetyEvents": []
    },
    {
      "id": "trip_42865565_20250109_004",
      "vehicleId": "42865565",
      "driverId": "20000044",
      "startMs": 1736413020000,
      "endMs": 1736419737567,
      "startAddress": "8061 Lawson Trail",
      "endAddress": "65055 Barbara Skyway",
      "startCoords": {
        "latitude": 35.128912,
        "longitude": -106.599402
      },
      "endCoords": {
        "latitude": 35.120977,
        "longitude": -106.577264
      },
      "distanceMeters": 36293.0,
      "durationMs": 6717567,
      "drivingDurationMs": 5938276,
      "idlingDurationMs": 779291,
      "fuelConsumedMl": 4614,
      "fuelConsumedGallons": 1.219,
      "maxSpeedMph": 39.2,
      "averageSpeedMph": 12.1,
      "safetyEvents": []
    },
    {
      "id": "trip_42865565_20250109_005",
      "vehicleId": "42865565",
      "driverId": "20000044",
      "startMs": 1736416200000,
      "endMs": 1736420060200,
      "startAddress": "687 Walter Underpass",
      "endAddress": "70804 Carla Ford Apt. 850",
      "startCoords": {
        "latitude": 35.12078,
        "longitude": -106.602854
      },
      "endCoords": {
        "latitude": 35.167055,
        "longitude": -106.566001
      },
      "distanceMeters": 22705.8,
      "durationMs": 3860201,
      "drivingDurationMs": 3611351,
      "idlingDurationMs": 248850,
      "fuelConsumedMl": 2888,
      "fuelConsumedGallons": 0.763,
      "maxSpeedMph": 28.7,
      "averageSpeedMph": 13.2,
      "safetyEvents": []
    },
    {
      "id": "trip_42865565_20250109_006",
      "vehicleId": "42865565",
      "driverId": "20000044",
      "startMs": 1736403720000,
      "endMs": 1736407796278,
      "startAddress": "196 Eric Ramp Apt. 321",
      "endAddress": "9522 Anna Wall",
      "startCoords": {
        "latitude": 35.074936,
        "longitude": -106.721293
      },
      "endCoords": {
        "latitude": 35.166197,
        "longitude": -106.70196
      },
      "distanceMeters": 24542.8,
      "durationMs": 4076278,
      "drivingDurationMs": 3281992,
      "idlingDurationMs": 794286,
      "fuelConsumedMl": 3119,
      "fuelConsumedGallons": 0.824,
      "maxSpeedMph": 52.5,
      "averageSpeedMph": 13.5,
      "safetyEvents": []
    },
    {
      "id": "trip_42865565_20250110_001",
      "vehicleId": "42865565",
      "driverId": "20000046",
      "startMs": 1736518920000,
      "endMs": 1736521865656,
      "startAddress": "250 Rogers Falls Suite 629",
      "endAddress": "66923 Mark Street Apt. 734",
      "startCoords": {
        "latitude": 35.176097,
        "longitude": -106.622831
      },
      "endCoords": {
        "latitude": 35.171356,
        "longitude": -106.706804
      },
      "distanceMeters": 13955.7,
      "durationMs": 2945656,
      "drivingDurationMs": 2712958,
      "idlingDurationMs": 232698,
      "fuelConsumedMl": 1775,
      "fuelConsumedGallons": 0.469,
      "maxSpeedMph": 53.3,
      "averageSpeedMph": 10.6,
      "safetyEvents": []
    },
    {
      "id": "trip_42865565_20250110_002",
      "vehicleId": "42865565",
      "driverId": "20000046",
      "startMs": 1736533620000,
      "endMs": 1736542391808,
      "startAddress": "927 Jessica Groves Suite 233",
      "endAddress": "466 Garcia Knoll Apt. 496",
      "startCoords": {
        "latitude": 35.115669,
        "longitude": -106.646059
      },
      "endCoords": {
        "latitude": 35.107469,
        "longitude": -106.64336
      },
      "distanceMeters": 48239.4,
      "durationMs": 8771809,
      "drivingDurationMs": 7338513,
      "idlingDurationMs": 1433295,
      "fuelConsumedMl": 6132,
      "fuelConsumedGallons": 1.62,
      "maxSpeedMph": 40.6,
      "averageSpeedMph": 12.3,
      "safetyEvents": []
    },
    {
      "id": "trip_42865565_20250110_003",
      "vehicleId": "42865565",
      "driverId": null,
      "startMs": 1736520180000,
      "endMs": 1736527557874,
      "startAddress": "068 Jackson Via",
      "endAddress": "887 Joseph Glen Suite 039",
      "startCoords": {
        "latitude": 35.114178,
        "longitude": -106.665195
      },
      "endCoords": {
        "latitude": 35.075735,
        "longitude": -106.627697
      },
      "distanceMeters": 38704.1,
      "durationMs": 7377874,
      "drivingDurationMs": 6636719,
      "idlingDurationMs": 741155,
      "fuelConsumedMl": 4921,
      "fuelConsumedGallons": 1.3,
      "maxSpeedMph": 30.6,
      "averageSpeedMph": 11.7,
      "safetyEvents": []
    },
    {
      "id": "trip_42865565_20250110_004",
      "vehicleId": "42865565",
      "driverId": "20000046",
      "startMs": 1736501280000,
      "endMs": 1736511521314,
      "startAddress": "86956 Jerome Hills Suite 088",
      "endAddress": "318 Amy Crossing",
      "startCoords": {
        "latitude": 35.109159,
        "longitude": -106.607266
      },
      "endCoords": {
        "latitude": 35.120194,
        "longitude": -106.707776
      },
      "distanceMeters": 70669.2,
      "durationMs": 10241314,
      "drivingDurationMs": 9858953,
      "idlingDurationMs": 382361,
      "fuelConsumedMl": 8987,
      "fuelConsumedGallons": 2.374,
      "maxSpeedMph": 52.8,
      "averageSpeedMph": 15.4,
      "safetyEvents": []
    },
    {
      "id": "trip_42865565_20250111_001",
      "vehicleId": "42865565",
      "driverId": null,
      "startMs": 1736586180000,
      "endMs": 1736598370416,
      "startAddress": "189 Rivera Park",
      "endAddress": "29000 Lawrence Island",
      "startCoords": {
        "latitude": 35.169294,
        "longitude": -106.554505
      },
      "endCoords": {
        "latitude": 35.148278,
        "longitude": -106.565719
      },
      "distanceMeters": 79603.2,
      "durationMs": 12190416,
      "drivingDurationMs": 10826847,
      "idlingDurationMs": 1363569,
      "fuelConsumedMl": 10122,
      "fuelConsumedGallons": 2.674,
      "maxSpeedMph": 39.6,
      "averageSpeedMph": 14.6,
      "safetyEvents": []
    },
    {
      "id": "trip_42865565_20250111_002",
      "vehicleId": "42865565",
      "driverId": null,
      "startMs": 1736600520000,
      "endMs": 1736606516751,
      "startAddress": "1736 Pierce Haven Apt. 591",
      "endAddress": "4246 Michele Streets",
      "startCoords": {
        "latitude": 35.062671,
        "longitude": -106.539626
      },
      "endCoords": {
        "latitude": 35.141583,
        "longitude": -106.611073
      },
      "distanceMeters": 45447.1,
      "durationMs": 5996751,
      "drivingDurationMs": 5192414,
      "idlingDurationMs": 804337,
      "fuelConsumedMl": 5777,
      "fuelConsumedGallons": 1.526,
      "maxSpeedMph": 71.7,
      "averageSpeedMph": 17.0,
      "safetyEvents": [
        {
          "type": "speeding",
          "startMs": 1736605320000,
          "maxSpeedMph": 71.7
        }
      ]
    },
    {
      "id": "trip_42865565_20250111_003",
      "vehicleId": "42865565",
      "driverId": "20000044",
      "startMs": 1736580840000,
      "endMs": 1736591088992,
      "startAddress": "23933 Kim Track Suite 533",
      "endAddress": "59759 Ashley Valleys Apt. 821",
      "startCoords": {
        "latitude": 35.049795,
        "longitude": -106.686329
      },
      "endCoords": {
        "latitude": 35.161838,
        "longitude": -106.696575
      },
      "distanceMeters": 72127.7,
      "durationMs": 10248993,
      "drivingDurationMs": 8798277,
      "idlingDurationMs": 1450716,
      "fuelConsumedMl": 9172,
      "fuelConsumedGallons": 2.423,
      "maxSpeedMph": 71.1,
      "averageSpeedMph": 15.7,
      "safetyEvents": [
        {
          "type": "speeding",
          "startMs": 1736586900000,
          "maxSpeedMph": 71.1
        }
      ]
    },
    {
      "id": "trip_42865565_20250111_004",
      "vehicleId": "42865565",
      "driverId": "20000044",
      "startMs": 1736597160000,
      "endMs": 1736599279835,
      "startAddress": "87875 Gordon Wall Apt. 737",
      "endAddress": "09773 Mikayla Vista Suite 609",
      "startCoords": {
        "latitude": 35.153793,
        "longitude": -106.678559
      },
      "endCoords": {
        "latitude": 35.133295,
        "longitude": -106.702941
      },
      "distanceMeters": 12699.9,
      "durationMs": 2119835,
      "drivingDurationMs": 1791548,
      "idlingDurationMs": 328287,
      "fuelConsumedMl": 1616,
      "fuelConsumedGallons": 0.427,
      "maxSpeedMph": 52.7,
      "averageSpeedMph": 13.4,
      "safetyEvents": []
    },
    {
      "id": "trip_42865565_20250112_001",
      "vehicleId": "42865565",
      "driverId": "20000045",
      "startMs": 1736669700000,
      "endMs": 1736671956227,
      "startAddress": "2381 Woodward Tunnel Apt. 292",
      "endAddress": "51113 Brent Burgs",
      "startCoords": {
        "latitude": 35.110873,
        "longitude": -106.614878
      },
      "endCoords": {
        "latitude": 35.17979,
        "longitude": -106.557536
      },
      "distanceMeters": 15681.4,
      "durationMs": 2256227,
      "drivingDurationMs": 2005504,
      "idlingDurationMs": 250723,
      "fuelConsumedMl": 1995,
      "fuelConsumedGallons": 0.527,
      "maxSpeedMph": 48.8,
      "averageSpeedMph": 15.5,
      "safetyEvents": []
    },
    {
      "id": "trip_42865565_20250113_001",
      "vehicleId": "42865565",
      "driverId": "20000045",
      "startMs": 1736778780000,
      "endMs": 1736789222971,
      "startAddress": "970 Charles Summit",
      "endAddress": "313 Cindy Bypass",
      "startCoords": {
        "latitude": 35.150275,
        "longitude": -106.60347
      },
      "endCoords": {
        "latitude": 35.104718,
        "longitude": -106.648338
      },
      "distanceMeters": 77484.2,
      "durationMs": 10442972,
      "drivingDurationMs": 10204701,
      "idlingDurationMs": 238271,
      "fuelConsumedMl": 9853,
      "fuelConsumedGallons": 2.603,
      "maxSpeedMph": 60.1,
      "averageSpeedMph": 16.6,
      "safetyEvents": []
    },
    {
      "id": "trip_42865565_20250113_002",
      "vehicleId": "42865565",
      "driverId": "20000045",
      "startMs": 1736781000000,
      "endMs": 1736784380292,
      "startAddress": "759 White Canyon",
      "endAddress": "5755 Wells Pike",
      "startCoords": {
        "latitude": 35.120572,
        "longitude": -106.594452
      },
      "endCoords": {
        "latitude": 35.102939,
        "longitude": -106.649173
      },
      "distanceMeters": 19726.0,
      "durationMs": 3380293,
      "drivingDurationMs": 2952560,
      "idlingDurationMs": 427732,
      "fuelConsumedMl": 2510,
      "fuelConsumedGallons": 0.663,
      "maxSpeedMph": 64.6,
      "averageSpeedMph": 13.1,
      "safetyEvents": []
    },
    {
      "id": "trip_42865565_20250113_003",
      "vehicleId": "42865565",
      "driverId": "20000045",
      "startMs": 1736772720000,
      "endMs": 1736779384792,
      "startAddress": "28107 Kristen Lock Apt. 557",
      "endAddress": "410 Smith Burgs",
      "startCoords": {
        "latitude": 35.115945,
        "longitude": -106.609245
      },
      "endCoords": {
        "latitude": 35.105282,
        "longitude": -106.614594
      },
      "distanceMeters": 30989.2,
      "durationMs": 6664792,
      "drivingDurationMs": 5409896,
      "idlingDurationMs": 1254897,
      "fuelConsumedMl": 3941,
      "fuelConsumedGallons": 1.041,
      "maxSpeedMph": 54.5,
      "averageSpeedMph": 10.4,
      "safetyEvents": []
    },
    {
      "id": "trip_42865565_20250114_001",
      "vehicleId": "42865565",
      "driverId": "20000046",
      "startMs": 1736837280000,
      "endMs": 1736839379786,
      "startAddress": "1354 Cooper Mill Suite 079",
      "endAddress": "7045 Novak Burg",
      "startCoords": {
        "latitude": 35.077305,
        "longitude": -106.717622
      },
      "endCoords": {
        "latitude": 35.116698,
        "longitude": -106.592016
      },
      "distanceMeters": 13388.8,
      "durationMs": 2099786,
      "drivingDurationMs": 1691464,
      "idlingDurationMs": 408322,
      "fuelConsumedMl": 1703,
      "fuelConsumedGallons": 0.45,
      "maxSpeedMph": 48.2,
      "averageSpeedMph": 14.3,
      "safetyEvents": []
    },
    {
      "id": "trip_42865565_20250114_002",
      "vehicleId": "42865565",
      "driverId": "20000046",
      "startMs": 1736843580000,
      "endMs": 1736848004526,
      "startAddress": "73141 Thomas Keys",
      "endAddress": "29856 Vazquez Green",
      "startCoords": {
        "latitude": 35.153473,
        "longitude": -106.615061
      },
      "endCoords": {
        "latitude": 35.150946,
        "longitude": -106.59882
      },
      "distanceMeters": 30008.1,
      "durationMs": 4424527,
      "drivingDurationMs": 3925668,
      "idlingDurationMs": 498859,
      "fuelConsumedMl": 3816,
      "fuelConsumedGallons": 1.008,
      "maxSpeedMph": 59.0,
      "averageSpeedMph": 15.2,
      "safetyEvents": []
    },
    {
      "id": "trip_42865565_20250115_001",
      "vehicleId": "42865565",
      "driverId": "20000044",
      "startMs": 1736937780000,
      "endMs": 1736938986531,
      "startAddress": "157 Grimes Center",
      "endAddress": "4385 Fernandez Points",
      "startCoords": {
        "latitude": 35.134994,
        "longitude": -106.57213
      },
      "endCoords": {
        "latitude": 35.159537,
        "longitude": -106.636258
      },
      "distanceMeters": 8115.5,
      "durationMs": 1206531,
      "drivingDurationMs": 981243,
      "idlingDurationMs": 225288,
      "fuelConsumedMl": 1033,
      "fuelConsumedGallons": 0.273,
      "maxSpeedMph": 30.5,
      "averageSpeedMph": 15.0,
      "safetyEvents": []
    },
    {
      "id": "trip_42865565_20250115_002",
      "vehicleId": "42865565",
      "driverId": null,
      "startMs": 1736942760000,
      "endMs": 1736954734005,
      "startAddress": "7949 Lauren Pines",
      "endAddress": "1446 Davis Ranch",
      "startCoords": {
        "latitude": 35.128722,
        "longitude": -106.631319
      },
      "endCoords": {
        "latitude": 35.115488,
        "longitude": -106.6509
      },
      "distanceMeters": 75412.9,
      "durationMs": 11974006,
      "drivingDurationMs": 9834632,
      "idlingDurationMs": 2139374,
      "fuelConsumedMl": 9588,
      "fuelConsumedGallons": 2.533,
      "maxSpeedMph": 41.9,
      "averageSpeedMph": 14.1,
      "safetyEvents": []
    },
    {
      "id": "trip_42865565_20250115_003",
      "vehicleId": "42865565",
      "driverId": "20000044",
      "startMs": 1736928540000,
      "endMs": 1736931559154,
      "startAddress": "1710 Mikayla Lodge Suite 626",
      "endAddress": "8854 Estrada Freeway Suite 377",
      "startCoords": {
        "latitude": 35.065684,
        "longitude": -106.614432
      },
      "endCoords": {
        "latitude": 35.125493,
        "longitude": -106.699467
      },
      "distanceMeters": 20259.8,
      "durationMs": 3019155,
      "drivingDurationMs": 2603254,
      "idlingDurationMs": 415901,
      "fuelConsumedMl": 2574,
      "fuelConsumedGallons": 0.68,
      "maxSpeedMph": 40.4,
      "averageSpeedMph": 15.0,
      "safetyEvents": []
    },
    {
      "id": "trip_42865565_20250115_004",
      "vehicleId": "42865565",
      "driverId": "20000044",
      "startMs": 1736950860000,
      "endMs": 1736963072412,
      "startAddress": "5995 Gary Forks Suite 423",
      "endAddress": "2266 Dixon Inlet",
      "startCoords": {
        "latitude": 35.058355,
        "longitude": -106.569308
      },
      "endCoords": {
        "latitude": 35.153911,
        "longitude": -106.664612
      },
      "distanceMeters": 59569.4,
      "durationMs": 12212413,
      "drivingDurationMs": 11526436,
      "idlingDurationMs": 685976,
      "fuelConsumedMl": 7575,
      "fuelConsumedGallons": 2.001,
      "maxSpeedMph": 31.8,
      "averageSpeedMph": 10.9,
      "safetyEvents": []
    },
    {
      "id": "trip_42865565_20250116_001",
      "vehicleId": "42865565",
      "driverId": "20000045",
      "startMs": 1737020580000,
      "endMs": 1737031047847,
      "startAddress": "2785 Hammond Roads Suite 217",
      "endAddress": "72438 Susan Inlet Suite 565",
      "startCoords": {
        "latitude": 35.165006,
        "longitude": -106.572121
      },
      "endCoords": {
        "latitude": 35.066572,
        "longitude": -106.705899
      },
      "distanceMeters": 65887.7,
      "durationMs": 10467848,
      "drivingDurationMs": 9312320,
      "idlingDurationMs": 1155528,
      "fuelConsumedMl": 8377,
      "fuelConsumedGallons": 2.213,
      "maxSpeedMph": 61.1,
      "averageSpeedMph": 14.1,
      "safetyEvents": []
    },
    {
      "id": "trip_42865565_20250116_002",
      "vehicleId": "42865565",
      "driverId": "20000045",
      "startMs": 1737023460000,
      "endMs": 1737025580171,
      "startAddress": "499 Cooper Run",
      "endAddress": "44633 Morris Haven",
      "startCoords": {
        "latitude": 35.141087,
        "longitude": -106.556362
      },
      "endCoords": {
        "latitude": 35.084578,
        "longitude": -106.553257
      },
      "distanceMeters": 16118.7,
      "durationMs": 2120171,
      "drivingDurationMs": 1829031,
      "idlingDurationMs": 291140,
      "fuelConsumedMl": 2048,
      "fuelConsumedGallons": 0.541,
      "maxSpeedMph": 48.7,
      "averageSpeedMph": 17.0,
      "safetyEvents": []
    },
    {
      "id": "trip_42865565_20250116_003",
      "vehicleId": "42865565",
      "driverId": "20000045",
      "startMs": 1737017400000,
      "endMs": 1737031982816,
      "startAddress": "12221 Castro Ford Apt. 205",
      "endAddress": "89893 Wendy Squares",
      "startCoords": {
        "latitude": 35.055864,
        "longitude": -106.650463
      },
      "endCoords": {
        "latitude": 35.058191,
        "longitude": -106.588546
      },
      "distanceMeters": 81954.4,
      "durationMs": 14582817,
      "drivingDurationMs": 12595512,
      "idlingDurationMs": 1987305,
      "fuelConsumedMl": 10421,
      "fuelConsumedGallons": 2.753,
      "maxSpeedMph": 47.6,
      "averageSpeedMph": 12.6,
      "safetyEvents": []
    },
    {
      "id": "trip_42865565_20250117_001",
      "vehicleId": "42865565",
      "driverId": "20000044",
      "startMs": 1737117600000,
      "endMs": 1737125705807,
      "startAddress": "4152 Jessica Parkway",
      "endAddress": "7701 Bautista Lane Apt. 023",
      "startCoords": {
        "latitude": 35.047686,
        "longitude": -106.617024
      },
      "endCoords": {
        "latitude": 35.121158,
        "longitude": -106.561682
      },
      "distanceMeters": 49012.2,
      "durationMs": 8105808,
      "drivingDurationMs": 6929856,
      "idlingDurationMs": 1175951,
      "fuelConsumedMl": 6231,
      "fuelConsumedGallons": 1.646,
      "maxSpeedMph": 55.8,
      "averageSpeedMph": 13.5,
      "safetyEvents": []
    },
    {
      "id": "trip_42865565_20250117_002",
      "vehicleId": "42865565",
      "driverId": "20000044",
      "startMs": 1737094380000,
      "endMs": 1737101629429,
      "startAddress": "2706 Tate Spring",
      "endAddress": "78956 Sharon Islands",
      "startCoords": {
        "latitude": 35.075302,
        "longitude": -106.587591
      },
      "endCoords": {
        "latitude": 35.082649,
        "longitude": -106.699502
      },
      "distanceMeters": 58179.2,
      "durationMs": 7249430,
      "drivingDurationMs": 6653902,
      "idlingDurationMs": 595528,
      "fuelConsumedMl": 7397,
      "fuelConsumedGallons": 1.954,
      "maxSpeedMph": 56.3,
      "averageSpeedMph": 18.0,
      "safetyEvents": []
    },
    {
      "id": "trip_42865565_20250117_003",
      "vehicleId": "42865565",
      "driverId": "20000044",
      "startMs": 1737095160000,
      "endMs": 1737100050382,
      "startAddress": "51290 Howard Union Suite 385",
      "endAddress": "40500 Carey Turnpike Apt. 066",
      "startCoords": {
        "latitude": 35.047889,
        "longitude": -106.605516
      },
      "endCoords": {
        "latitude": 35.054359,
        "longitude": -106.700961
      },
      "distanceMeters": 33897.9,
      "durationMs": 4890382,
      "drivingDurationMs": 4042004,
      "idlingDurationMs": 848378,
      "fuelConsumedMl": 4312,
      "fuelConsumedGallons": 1.139,
      "maxSpeedMph": 40.9,
      "averageSpeedMph": 15.5,
      "safetyEvents": []
    },
    {
      "id": "trip_42865565_20250117_004",
      "vehicleId": "42865565",
      "driverId": "20000044",
      "startMs": 1737112980000,
      "endMs": 1737117646442,
      "startAddress": "58809 Carroll Row Suite 398",
      "endAddress": "8832 Stacey Views",
      "startCoords": {
        "latitude": 35.147954,
        "longitude": -106.535963
      },
      "endCoords": {
        "latitude": 35.137114,
        "longitude": -106.699842
      },
      "distanceMeters": 31716.6,
      "durationMs": 4666443,
      "drivingDurationMs": 4015784,
      "idlingDurationMs": 650658,
      "fuelConsumedMl": 4031,
      "fuelConsumedGallons": 1.065,
      "maxSpeedMph": 33.9,
      "averageSpeedMph": 15.2,
      "safetyEvents": []
    },
    {
      "id": "trip_42865565_20250117_005",
      "vehicleId": "42865565",
      "driverId": "20000044",
      "startMs": 1737106680000,
      "endMs": 1737121662780,
      "startAddress": "21168 Powell Shores Apt. 289",
      "endAddress": "149 Barr Mews",
      "startCoords": {
        "latitude": 35.050693,
        "longitude": -106.652807
      },
      "endCoords": {
        "latitude": 35.151019,
        "longitude": -106.590125
      },
      "distanceMeters": 81807.7,
      "durationMs": 14982781,
      "drivingDurationMs": 12309275,
      "idlingDurationMs": 2673505,
      "fuelConsumedMl": 10402,
      "fuelConsumedGallons": 2.748,
      "maxSpeedMph": 58.5,
      "averageSpeedMph": 12.2,
      "safetyEvents": []
    },
    {
      "id": "trip_42865565_20250118_001",
      "vehicleId": "42865565",
      "driverId": "20000045",
      "startMs": 1737202740000,
      "endMs": 1737217438544,
      "startAddress": "665 Michael Circle Suite 710",
      "endAddress": "61140 Garrett Forest Suite 960",
      "startCoords": {
        "latitude": 35.093769,
        "longitude": -106.692296
      },
      "endCoords": {
        "latitude": 35.068062,
        "longitude": -106.714987
      },
      "distanceMeters": 77327.1,
      "durationMs": 14698545,
      "drivingDurationMs": 13044529,
      "idlingDurationMs": 1654016,
      "fuelConsumedMl": 9831,
      "fuelConsumedGallons": 2.597,
      "maxSpeedMph": 56.2,
      "averageSpeedMph": 11.8,
      "safetyEvents": []
    },
    {
      "id": "trip_42865565_20250118_002",
      "vehicleId": "42865565",
      "driverId": "20000045",
      "startMs": 1737216240000,
      "endMs": 1737227002238,
      "startAddress": "8552 Pamela Radial Suite 094",
      "endAddress": "60488 Ferguson Squares Suite 181",
      "startCoords": {
        "latitude": 35.094537,
        "longitude": -106.587373
      },
      "endCoords": {
        "latitude": 35.09286,
        "longitude": -106.561109
      },
      "distanceMeters": 78673.3,
      "durationMs": 10762238,
      "drivingDurationMs": 10549687,
      "idlingDurationMs": 212552,
      "fuelConsumedMl": 10001,
      "fuelConsumedGallons": 2.642,
      "maxSpeedMph": 46.5,
      "averageSpeedMph": 16.4,
      "safetyEvents": []
    },
    {
      "id": "trip_42865565_20250119_001",
      "vehicleId": "42865565",
      "driverId": "20000046",
      "startMs": 1737283020000,
      "endMs": 1737297274625,
      "startAddress": "218 Connor Station Apt. 587",
      "endAddress": "694 Jones Harbors Apt. 657",
      "startCoords": {
        "latitude": 35.084531,
        "longitude": -106.633516
      },
      "endCoords": {
        "latitude": 35.15501,
        "longitude": -106.646877
      },
      "distanceMeters": 67295.7,
      "durationMs": 14254625,
      "drivingDurationMs": 11728547,
      "idlingDurationMs": 2526079,
      "fuelConsumedMl": 8555,
      "fuelConsumedGallons": 2.26,
      "maxSpeedMph": 63.8,
      "averageSpeedMph": 10.6,
      "safetyEvents": []
    },
    {
      "id": "trip_42865565_20250119_002",
      "vehicleId": "42865565",
      "driverId": "20000046",
      "startMs": 1737288240000,
      "endMs": 1737300349462,
      "startAddress": "1787 Hanna Trail",
      "endAddress": "56632 Strong Vista",
      "startCoords": {
        "latitude": 35.087428,
        "longitude": -106.577669
      },
      "endCoords": {
        "latitude": 35.176318,
        "longitude": -106.551563
      },
      "distanceMeters": 62746.4,
      "durationMs": 12109462,
      "drivingDurationMs": 10591108,
      "idlingDurationMs": 1518355,
      "fuelConsumedMl": 7980,
      "fuelConsumedGallons": 2.108,
      "maxSpeedMph": 65.1,
      "averageSpeedMph": 11.6,
      "safetyEvents": [
        {
          "type": "speeding",
          "startMs": 1737299220000,
          "maxSpeedMph": 65.1
        }
      ]
    },
    {
      "id": "trip_42865565_20250119_003",
      "vehicleId": "42865565",
      "driverId": "20000046",
      "startMs": 1737302040000,
      "endMs": 1737304225121,
      "startAddress": "3025 Daniels Mall Suite 357",
      "endAddress": "6736 Jeffery Drive Apt. 124",
      "startCoords": {
        "latitude": 35.065456,
        "longitude": -106.54583
      },
      "endCoords": {
        "latitude": 35.119771,
        "longitude": -106.601344
      },
      "distanceMeters": 12232.3,
      "durationMs": 2185122,
      "drivingDurationMs": 1902624,
      "idlingDurationMs": 282498,
      "fuelConsumedMl": 1556,
      "fuelConsumedGallons": 0.411,
      "maxSpeedMph": 45.6,
      "averageSpeedMph": 12.5,
      "safetyEvents": []
    },
    {
      "id": "trip_42865565_20250120_001",
      "vehicleId": "42865565",
      "driverId": "20000046",
      "startMs": 1737356460000,
      "endMs": 1737364262760,
      "startAddress": "612 Lucas Overpass Apt. 233",
      "endAddress": "603 Amber Ridge",
      "startCoords": {
        "latitude": 35.087813,
        "longitude": -106.629075
      },
      "endCoords": {
        "latitude": 35.147411,
        "longitude": -106.576306
      },
      "distanceMeters": 55254.6,
      "durationMs": 7802761,
      "drivingDurationMs": 6465210,
      "idlingDurationMs": 1337551,
      "fuelConsumedMl": 7026,
      "fuelConsumedGallons": 1.856,
      "maxSpeedMph": 51.3,
      "averageSpeedMph": 15.8,
      "safetyEvents": []
    },
    {
      "id": "trip_42865565_20250120_002",
      "vehicleId": "42865565",
      "driverId": "20000046",
      "startMs": 1737389340000,
      "endMs": 1737391306730,
      "startAddress": "563 Traci Highway",
      "endAddress": "15308 Lindsey Centers",
      "startCoords": {
        "latitude": 35.050773,
        "longitude": -106.712761
      },
      "endCoords": {
        "latitude": 35.105731,
        "longitude": -106.545098
      },
      "distanceMeters": 8717.2,
      "durationMs": 1966731,
      "drivingDurationMs": 1715054,
      "idlingDurationMs": 251676,
      "fuelConsumedMl": 1109,
      "fuelConsumedGallons": 0.293,
      "maxSpeedMph": 33.0,
      "averageSpeedMph": 9.9,
      "safetyEvents": []
    },
    {
      "id": "trip_42865565_20250120_003",
      "vehicleId": "42865565",
      "driverId": "20000046",
      "startMs": 1737397140000,
      "endMs": 1737406800000,
      "startAddress": "6177 Gary Spurs",
      "endAddress": "23454 Doris Trace",
      "startCoords": {
        "latitude": 35.148918,
        "longitude": -106.569162
      },
      "endCoords": {
        "latitude": 35.050823,
        "longitude": -106.604348
      },
      "distanceMeters": 47214.7,
      "durationMs": 9660000,
      "drivingDurationMs": 8655655,
      "idlingDurationMs": 1004345,
      "fuelConsumedMl": 6004,
      "fuelConsumedGallons": 1.586,
      "maxSpeedMph": 51.0,
      "averageSpeedMph": 10.9,
      "safetyEvents": []
    },
    {
      "id": "trip_42865565_20250120_004",
      "vehicleId": "42865565",
      "driverId": "20000046",
      "startMs": 1737390240000,
      "endMs": 1737406800000,
      "startAddress": "177 Sara Fall",
      "endAddress": "427 Cox Meadows",
      "startCoords": {
        "latitude": 35.134077,
        "longitude": -106.656851
      },
      "endCoords": {
        "latitude": 35.044495,
        "longitude": -106.559836
      },
      "distanceMeters": 74845.2,
      "durationMs": 16560000,
      "drivingDurationMs": 13996543,
      "idlingDurationMs": 2563457,
      "fuelConsumedMl": 9517,
      "fuelConsumedGallons": 2.514,
      "maxSpeedMph": 28.7,
      "averageSpeedMph": 10.1,
      "safetyEvents": []
    },
    {
      "id": "trip_42865565_20250120_005",
      "vehicleId": "42865565",
      "driverId": "20000046",
      "startMs": 1737368460000,
      "endMs": 1737379638312,
      "startAddress": "0762 Hannah Crest Suite 350",
      "endAddress": "42106 David Greens",
      "startCoords": {
        "latitude": 35.107265,
        "longitude": -106.647468
      },
      "endCoords": {
        "latitude": 35.166981,
        "longitude": -106.606653
      },
      "distanceMeters": 49159.7,
      "durationMs": 11178312,
      "drivingDurationMs": 9579236,
      "idlingDurationMs": 1599076,
      "fuelConsumedMl": 6250,
      "fuelConsumedGallons": 1.651,
      "maxSpeedMph": 53.8,
      "averageSpeedMph": 9.8,
      "safetyEvents": []
    },
    {
      "id": "trip_42865565_20250120_006",
      "vehicleId": "42865565",
      "driverId": "20000046",
      "startMs": 1737356340000,
      "endMs": 1737367387896,
      "startAddress": "64558 Adam Springs",
      "endAddress": "24451 Davis Ranch Suite 653",
      "startCoords": {
        "latitude": 35.131995,
        "longitude": -106.584793
      },
      "endCoords": {
        "latitude": 35.161282,
        "longitude": -106.601663
      },
      "distanceMeters": 57065.4,
      "durationMs": 11047896,
      "drivingDurationMs": 9194884,
      "idlingDurationMs": 1853012,
      "fuelConsumedMl": 7257,
      "fuelConsumedGallons": 1.917,
      "maxSpeedMph": 55.4,
      "averageSpeedMph": 11.6,
      "safetyEvents": []
    },
    {
      "id": "trip_42865565_20250121_001",
      "vehicleId": "42865565",
      "driverId": null,
      "startMs": 1737450000000,
      "endMs": 1737458216997,
      "startAddress": "735 Charles Falls",
      "endAddress": "0441 Hicks Drive Suite 302",
      "startCoords": {
        "latitude": 35.161564,
        "longitude": -106.555443
      },
      "endCoords": {
        "latitude": 35.117047,
        "longitude": -106.544925
      },
      "distanceMeters": 59850.3,
      "durationMs": 8216998,
      "drivingDurationMs": 7493992,
      "idlingDurationMs": 723006,
      "fuelConsumedMl": 7609,
      "fuelConsumedGallons": 2.01,
      "maxSpeedMph": 55.7,
      "averageSpeedMph": 16.3,
      "safetyEvents": []
    },
    {
      "id": "trip_42865565_20250121_002",
      "vehicleId": "42865565",
      "driverId": "20000044",
      "startMs": 1737465660000,
      "endMs": 1737471385717,
      "startAddress": "588 Beard Views Suite 739",
      "endAddress": "742 Smith Knolls",
      "startCoords": {
        "latitude": 35.064367,
        "longitude": -106.666043
      },
      "endCoords": {
        "latitude": 35.093608,
        "longitude": -106.62782
      },
      "distanceMeters": 28902.6,
      "durationMs": 5725717,
      "drivingDurationMs": 4969753,
      "idlingDurationMs": 755965,
      "fuelConsumedMl": 3676,
      "fuelConsumedGallons": 0.971,
      "maxSpeedMph": 62.1,
      "averageSpeedMph": 11.3,
      "safetyEvents": []
    },
    {
      "id": "trip_42865565_20250121_003",
      "vehicleId": "42865565",
      "driverId": null,
      "startMs": 1737469200000,
      "endMs": 1737480250509,
      "startAddress": "26259 Joseph Springs Apt. 539",
      "endAddress": "569 Steven Estates Apt. 703",
      "startCoords": {
        "latitude": 35.138387,
        "longitude": -106.542825
      },
      "endCoords": {
        "latitude": 35.090425,
        "longitude": -106.663757
      },
      "distanceMeters": 67724.6,
      "durationMs": 11050510,
      "drivingDurationMs": 10065674,
      "idlingDurationMs": 984836,
      "fuelConsumedMl": 8612,
      "fuelConsumedGallons": 2.275,
      "maxSpeedMph": 37.8,
      "averageSpeedMph": 13.7,
      "safetyEvents": []
    },
    {
      "id": "trip_42865565_20250121_004",
      "vehicleId": "42865565",
      "driverId": "20000044",
      "startMs": 1737460620000,
      "endMs": 1737462491423,
      "startAddress": "798 Thomas Loaf Apt. 015",
      "endAddress": "7374 David Hollow",
      "startCoords": {
        "latitude": 35.101522,
        "longitude": -106.62789
      },
      "endCoords": {
        "latitude": 35.135363,
        "longitude": -106.539391
      },
      "distanceMeters": 9486.9,
      "durationMs": 1871423,
      "drivingDurationMs": 1654734,
      "idlingDurationMs": 216689,
      "fuelConsumedMl": 1208,
      "fuelConsumedGallons": 0.319,
      "maxSpeedMph": 48.6,
      "averageSpeedMph": 11.3,
      "safetyEvents": []
    },
    {
      "id": "trip_42865565_20250122_001",
      "vehicleId": "42865565",
      "driverId": "20000045",
      "startMs": 1737553080000,
      "endMs": 1737563883490,
      "startAddress": "4158 Kelley Spur Suite 482",
      "endAddress": "8331 Emily Brook Apt. 157",
      "startCoords": {
        "latitude": 35.151097,
        "longitude": -106.563428
      },
      "endCoords": {
        "latitude": 35.118718,
        "longitude": -106.699236
      },
      "distanceMeters": 53866.4,
      "durationMs": 10803491,
      "drivingDurationMs": 10523204,
      "idlingDurationMs": 280287,
      "fuelConsumedMl": 6848,
      "fuelConsumedGallons": 1.809,
      "maxSpeedMph": 36.2,
      "averageSpeedMph": 11.2,
      "safetyEvents": []
    },
    {
      "id": "trip_42865565_20250122_002",
      "vehicleId": "42865565",
      "driverId": "20000045",
      "startMs": 1737536580000,
      "endMs": 1737543433506,
      "startAddress": "208 Jacqueline Courts",
      "endAddress": "228 Lawrence Mountains Apt. 110",
      "startCoords": {
        "latitude": 35.066981,
        "longitude": -106.592569
      },
      "endCoords": {
        "latitude": 35.13174,
        "longitude": -106.654216
      },
      "distanceMeters": 35527.2,
      "durationMs": 6853506,
      "drivingDurationMs": 6108889,
      "idlingDurationMs": 744617,
      "fuelConsumedMl": 4516,
      "fuelConsumedGallons": 1.193,
      "maxSpeedMph": 47.7,
      "averageSpeedMph": 11.6,
      "safetyEvents": []
    },
    {
      "id": "trip_42865565_20250122_003",
      "vehicleId": "42865565",
      "driverId": "20000045",
      "startMs": 1737568980000,
      "endMs": 1737574337434,
      "startAddress": "48161 Jaime Meadow",
      "endAddress": "857 Dakota Plains",
      "startCoords": {
        "latitude": 35.10857,
        "longitude": -106.655914
      },
      "endCoords": {
        "latitude": 35.122033,
        "longitude": -106.593433
      },
      "distanceMeters": 27785.5,
      "durationMs": 5357434,
      "drivingDurationMs": 4694811,
      "idlingDurationMs": 662623,
      "fuelConsumedMl": 3532,
      "fuelConsumedGallons": 0.933,
      "maxSpeedMph": 49.3,
      "averageSpeedMph": 11.6,
      "safetyEvents": []
    },
    {
      "id": "trip_42865565_20250122_004",
      "vehicleId": "42865565",
      "driverId": "20000045",
      "startMs": 1737539220000,
      "endMs": 1737541227173,
      "startAddress": "1965 Dawn Shoal Apt. 026",
      "endAddress": "803 Dawn Mills Apt. 996",
      "startCoords": {
        "latitude": 35.105875,
        "longitude": -106.612981
      },
      "endCoords": {
        "latitude": 35.106414,
        "longitude": -106.662094
      },
      "distanceMeters": 15289.6,
      "durationMs": 2007173,
      "drivingDurationMs": 1756847,
      "idlingDurationMs": 250327,
      "fuelConsumedMl": 1946,
      "fuelConsumedGallons": 0.514,
      "maxSpeedMph": 54.5,
      "averageSpeedMph": 17.0,
      "safetyEvents": []
    },
    {
      "id": "trip_42865565_20250123_001",
      "vehicleId": "42865565",
      "driverId": "20000044",
      "startMs": 1737629700000,
      "endMs": 1737646918166,
      "startAddress": "06831 Brooke Pine",
      "endAddress": "34135 Vincent Cape Suite 715",
      "startCoords": {
        "latitude": 35.092893,
        "longitude": -106.719089
      },
      "endCoords": {
        "latitude": 35.143033,
        "longitude": -106.71236
      },
      "distanceMeters": 77993.0,
      "durationMs": 17218166,
      "drivingDurationMs": 15248926,
      "idlingDurationMs": 1969240,
      "fuelConsumedMl": 9918,
      "fuelConsumedGallons": 2.62,
      "maxSpeedMph": 39.2,
      "averageSpeedMph": 10.1,
      "safetyEvents": []
    },
    {
      "id": "trip_42865565_20250123_002",
      "vehicleId": "42865565",
      "driverId": "20000044",
      "startMs": 1737653820000,
      "endMs": 1737656880652,
      "startAddress": "2586 Daniel Overpass",
      "endAddress": "87813 Cheryl Common",
      "startCoords": {
        "latitude": 35.086003,
        "longitude": -106.61088
      },
      "endCoords": {
        "latitude": 35.171159,
        "longitude": -106.567874
      },
      "distanceMeters": 17406.7,
      "durationMs": 3060653,
      "drivingDurationMs": 2636002,
      "idlingDurationMs": 424651,
      "fuelConsumedMl": 2214,
      "fuelConsumedGallons": 0.585,
      "maxSpeedMph": 36.9,
      "averageSpeedMph": 12.7,
      "safetyEvents": []
    },
    {
      "id": "trip_42865565_20250123_003",
      "vehicleId": "42865565",
      "driverId": "20000044",
      "startMs": 1737639180000,
      "endMs": 1737642752369,
      "startAddress": "18279 Brown Rue",
      "endAddress": "3459 Gomez Road",
      "startCoords": {
        "latitude": 35.076007,
        "longitude": -106.698682
      },
      "endCoords": {
        "latitude": 35.081334,
        "longitude": -106.536167
      },
      "distanceMeters": 24952.5,
      "durationMs": 3572369,
      "drivingDurationMs": 3065799,
      "idlingDurationMs": 506571,
      "fuelConsumedMl": 3172,
      "fuelConsumedGallons": 0.838,
      "maxSpeedMph": 49.0,
      "averageSpeedMph": 15.6,
      "safetyEvents": []
    },
    {
      "id": "trip_42865565_20250123_004",
      "vehicleId": "42865565",
      "driverId": "20000044",
      "startMs": 1737655620000,
      "endMs": 1737661088346,
      "startAddress": "085 Joseph Island",
      "endAddress": "31630 Valentine Village Apt. 359",
      "startCoords": {
        "latitude": 35.150796,
        "longitude": -106.623832
      },
      "endCoords": {
        "latitude": 35.151125,
        "longitude": -106.645207
      },
      "distanceMeters": 27649.6,
      "durationMs": 5468347,
      "drivingDurationMs": 5077795,
      "idlingDurationMs": 390552,
      "fuelConsumedMl": 3517,
      "fuelConsumedGallons": 0.929,
      "maxSpeedMph": 40.0,
      "averageSpeedMph": 11.3,
      "safetyEvents": []
    },
    {
      "id": "trip_42865565_20250123_005",
      "vehicleId": "42865565",
      "driverId": "20000044",
      "startMs": 1737633060000,
      "endMs": 1737643931794,
      "startAddress": "5122 Holloway Park Suite 984",
      "endAddress": "824 Mary Square",
      "startCoords": {
        "latitude": 35.134663,
        "longitude": -106.633814
      },
      "endCoords": {
        "latitude": 35.094427,
        "longitude": -106.638407
      },
      "distanceMeters": 70043.6,
      "durationMs": 10871794,
      "drivingDurationMs": 8755109,
      "idlingDurationMs": 2116685,
      "fuelConsumedMl": 8907,
      "fuelConsumedGallons": 2.353,
      "maxSpeedMph": 36.0,
      "averageSpeedMph": 14.4,
      "safetyEvents": []
    },
    {
      "id": "trip_42865565_20250124_001",
      "vehicleId": "42865565",
      "driverId": "20000046",
      "startMs": 1737700500000,
      "endMs": 1737707282804,
      "startAddress": "31665 Theresa Forge Suite 010",
      "endAddress": "006 Hannah Isle",
      "startCoords": {
        "latitude": 35.14077,
        "longitude": -106.70635
      },
      "endCoords": {
        "latitude": 35.056081,
        "longitude": -106.705149
      },
      "distanceMeters": 46865.5,
      "durationMs": 6782804,
      "drivingDurationMs": 5875921,
      "idlingDurationMs": 906884,
      "fuelConsumedMl": 5958,
      "fuelConsumedGallons": 1.574,
      "maxSpeedMph": 58.3,
      "averageSpeedMph": 15.5,
      "safetyEvents": []
    },
    {
      "id": "trip_42865565_20250124_002",
      "vehicleId": "42865565",
      "driverId": "20000046",
      "startMs": 1737733140000,
      "endMs": 1737737397108,
      "startAddress": "01924 Wiggins Viaduct Apt. 348",
      "endAddress": "24715 Haynes Island",
      "startCoords": {
        "latitude": 35.079553,
        "longitude": -106.577089
      },
      "endCoords": {
        "latitude": 35.038726,
        "longitude": -106.675879
      },
      "distanceMeters": 26621.5,
      "durationMs": 4257109,
      "drivingDurationMs": 3706143,
      "idlingDurationMs": 550966,
      "fuelConsumedMl": 3384,
      "fuelConsumedGallons": 0.894,
      "maxSpeedMph": 67.1,
      "averageSpeedMph": 14.0,
      "safetyEvents": [
        {
          "type": "speeding",
          "startMs": 1737734760000,
          "maxSpeedMph": 67.1
        }
      ]
    },
    {
      "id": "trip_42865565_20250125_001",
      "vehicleId": "42865565",
      "driverId": "20000045",
      "startMs": 1737820680000,
      "endMs": 1737833283096,
      "startAddress": "911 Barber Inlet Suite 618",
      "endAddress": "20540 Romero Trail Suite 576",
      "startCoords": {
        "latitude": 35.165262,
        "longitude": -106.539471
      },
      "endCoords": {
        "latitude": 35.164024,
        "longitude": -106.702372
      },
      "distanceMeters": 61993.9,
      "durationMs": 12603097,
      "drivingDurationMs": 10222355,
      "idlingDurationMs": 2380742,
      "fuelConsumedMl": 7881,
      "fuelConsumedGallons": 2.082,
      "maxSpeedMph": 68.5,
      "averageSpeedMph": 11.0,
      "safetyEvents": [
        {
          "type": "speeding",
          "startMs": 1737831060000,
          "maxSpeedMph": 68.5
        }
      ]
    },
    {
      "id": "trip_42865565_20250125_002",
      "vehicleId": "42865565",
      "driverId": "20000045",
      "startMs": 1737831180000,
      "endMs": 1737838455173,
      "startAddress": "4132 Justin Meadow",
      "endAddress": "7818 Harris Rapids",
      "startCoords": {
        "latitude": 35.051784,
        "longitude": -106.611612
      },
      "endCoords": {
        "latitude": 35.124037,
        "longitude": -106.676381
      },
      "distanceMeters": 55768.2,
      "durationMs": 7275173,
      "drivingDurationMs": 6918289,
      "idlingDurationMs": 356885,
      "fuelConsumedMl": 7090,
      "fuelConsumedGallons": 1.873,
      "maxSpeedMph": 41.0,
      "averageSpeedMph": 17.1,
      "safetyEvents": []
    },
    {
      "id": "trip_42865565_20250125_003",
      "vehicleId": "42865565",
      "driverId": "20000045",
      "startMs": 1737810300000,
      "endMs": 1737811438531,
      "startAddress": "578 Ramos Way",
      "endAddress": "54767 Solis Run Suite 313",
      "startCoords": {
        "latitude": 35.1697,
        "longitude": -106.650339
      },
      "endCoords": {
        "latitude": 35.115737,
        "longitude": -106.65577
      },
      "distanceMeters": 7842.7,
      "durationMs": 1138532,
      "drivingDurationMs": 936518,
      "idlingDurationMs": 202013,
      "fuelConsumedMl": 996,
      "fuelConsumedGallons": 0.263,
      "maxSpeedMph": 44.0,
      "averageSpeedMph": 15.4,
      "safetyEvents": []
    },
    {
      "id": "trip_42865565_20250125_004",
      "vehicleId": "42865565",
      "driverId": "20000045",
      "startMs": 1737829200000,
      "endMs": 1737838800000,
      "startAddress": "8236 Sandra Park Suite 237",
      "endAddress": "51717 Olson Shoal Apt. 228",
      "startCoords": {
        "latitude": 35.172649,
        "longitude": -106.6305
      },
      "endCoords": {
        "latitude": 35.100923,
        "longitude": -106.610131
      },
      "distanceMeters": 45417.0,
      "durationMs": 9600000,
      "drivingDurationMs": 7680000,
      "idlingDurationMs": 1920000,
      "fuelConsumedMl": 5773,
      "fuelConsumedGallons": 1.525,
      "maxSpeedMph": 58.1,
      "averageSpeedMph": 10.6,
      "safetyEvents": []
    },
    {
      "id": "trip_42865565_20250126_001",
      "vehicleId": "42865565",
      "driverId": "20000045",
      "startMs": 1737896160000,
      "endMs": 1737910067551,
      "startAddress": "2035 Wendy Forges",
      "endAddress": "606 Pugh Pine Suite 496",
      "startCoords": {
        "latitude": 35.064915,
        "longitude": -106.581825
      },
      "endCoords": {
        "latitude": 35.057984,
        "longitude": -106.697714
      },
      "distanceMeters": 77556.1,
      "durationMs": 13907551,
      "drivingDurationMs": 13461666,
      "idlingDurationMs": 445885,
      "fuelConsumedMl": 9861,
      "fuelConsumedGallons": 2.605,
      "maxSpeedMph": 68.8,
      "averageSpeedMph": 12.5,
      "safetyEvents": [
        {
          "type": "speeding",
          "startMs": 1737901260000,
          "maxSpeedMph": 68.8
        }
      ]
    },
    {
      "id": "trip_42865565_20250126_002",
      "vehicleId": "42865565",
      "driverId": "20000045",
      "startMs": 1737907980000,
      "endMs": 1737919146672,
      "startAddress": "13589 Natasha Shoals Suite 006",
      "endAddress": "92902 Stewart Mill",
      "startCoords": {
        "latitude": 35.102839,
        "longitude": -106.608654
      },
      "endCoords": {
        "latitude": 35.068947,
        "longitude": -106.675794
      },
      "distanceMeters": 71457.8,
      "durationMs": 11166673,
      "drivingDurationMs": 10223990,
      "idlingDurationMs": 942682,
      "fuelConsumedMl": 9085,
      "fuelConsumedGallons": 2.4,
      "maxSpeedMph": 36.2,
      "averageSpeedMph": 14.3,
      "safetyEvents": []
    },
    {
      "id": "trip_42865565_20250126_003",
      "vehicleId": "42865565",
      "driverId": "20000045",
      "startMs": 1737894120000,
      "endMs": 1737908118774,
      "startAddress": "48644 Melissa Radial Suite 177",
      "endAddress": "40219 Lara Extension Apt. 634",
      "startCoords": {
        "latitude": 35.063838,
        "longitude": -106.597983
      },
      "endCoords": {
        "latitude": 35.109952,
        "longitude": -106.539582
      },
      "distanceMeters": 82881.8,
      "durationMs": 13998774,
      "drivingDurationMs": 12235960,
      "idlingDurationMs": 1762814,
      "fuelConsumedMl": 10539,
      "fuelConsumedGallons": 2.784,
      "maxSpeedMph": 71.9,
      "averageSpeedMph": 13.2,
      "safetyEvents": [
        {
          "type": "speeding",
          "startMs": 1737900180000,
          "maxSpeedMph": 71.9
        }
      ]
    },
    {
      "id": "trip_42865565_20250126_004",
      "vehicleId": "42865565",
      "driverId": "20000045",
      "startMs": 1737885600000,
      "endMs": 1737899523380,
      "startAddress": "34863 Zuniga Lakes",
      "endAddress": "38674 Dawn Walks",
      "startCoords": {
        "latitude": 35.144818,
        "longitude": -106.709556
      },
      "endCoords": {
        "latitude": 35.078917,
        "longitude": -106.694635
      },
      "distanceMeters": 81368.0,
      "durationMs": 13923381,
      "drivingDurationMs": 13291842,
      "idlingDurationMs": 631539,
      "fuelConsumedMl": 10346,
      "fuelConsumedGallons": 2.733,
      "maxSpeedMph": 68.9,
      "averageSpeedMph": 13.1,
      "safetyEvents": [
        {
          "type": "speeding",
          "startMs": 1737889680000,
          "maxSpeedMph": 68.9
        }
      ]
    },
    {
      "id": "trip_42865565_20250127_001",
      "vehicleId": "42865565",
      "driverId": "20000046",
      "startMs": 1737958200000,
      "endMs": 1737965354595,
      "startAddress": "51193 Karen Haven",
      "endAddress": "41158 Devin Drive Suite 857",
      "startCoords": {
        "latitude": 35.124581,
        "longitude": -106.549896
      },
      "endCoords": {
        "latitude": 35.058059,
        "longitude": -106.655943
      },
      "distanceMeters": 30211.8,
      "durationMs": 7154595,
      "drivingDurationMs": 5937304,
      "idlingDurationMs": 1217291,
      "fuelConsumedMl": 3842,
      "fuelConsumedGallons": 1.015,
      "maxSpeedMph": 68.2,
      "averageSpeedMph": 9.4,
      "safetyEvents": [
        {
          "type": "speeding",
          "startMs": 1737961860000,
          "maxSpeedMph": 68.2
        }
      ]
    },
    {
      "id": "trip_42865565_20250127_002",
      "vehicleId": "42865565",
      "driverId": "20000046",
      "startMs": 1737993000000,
      "endMs": 1738001279720,
      "startAddress": "29807 Chelsea Route Suite 605",
      "endAddress": "562 Nguyen Path",
      "startCoords": {
        "latitude": 35.155087,
        "longitude": -106.598278
      },
      "endCoords": {
        "latitude": 35.172246,
        "longitude": -106.692136
      },
      "distanceMeters": 50650.2,
      "durationMs": 8279721,
      "drivingDurationMs": 7242889,
      "idlingDurationMs": 1036831,
      "fuelConsumedMl": 6439,
      "fuelConsumedGallons": 1.701,
      "maxSpeedMph": 42.7,
      "averageSpeedMph": 13.7,
      "safetyEvents": []
    },
    {
      "id": "trip_42865565_20250127_003",
      "vehicleId": "42865565",
      "driverId": "20000046",
      "startMs": 1738000920000,
      "endMs": 1738004108832,
      "startAddress": "366 Livingston Trail",
      "endAddress": "97245 Mosley Drive",
      "startCoords": {
        "latitude": 35.105856,
        "longitude": -106.603101
      },
      "endCoords": {
        "latitude": 35.040237,
        "longitude": -106.633344
      },
      "distanceMeters": 23562.6,
      "durationMs": 3188832,
      "drivingDurationMs": 2849320,
      "idlingDurationMs": 339512,
      "fuelConsumedMl": 2994,
      "fuelConsumedGallons": 0.791,
      "maxSpeedMph": 52.2,
      "averageSpeedMph": 16.5,
      "safetyEvents": []
    },
    {
      "id": "trip_42865565_20250127_004",
      "vehicleId": "42865565",
      "driverId": "20000046",
      "startMs": 1737986760000,
      "endMs": 1737992489411,
      "startAddress": "21556 Daniel Harbors",
      "endAddress": "045 Shaw Greens Suite 756",
      "startCoords": {
        "latitude": 35.080761,
        "longitude": -106.721376
      },
      "endCoords": {
        "latitude": 35.111955,
        "longitude": -106.53592
      },
      "distanceMeters": 44257.5,
      "durationMs": 5729412,
      "drivingDurationMs": 5490705,
      "idlingDurationMs": 238707,
      "fuelConsumedMl": 5629,
      "fuelConsumedGallons": 1.487,
      "maxSpeedMph": 44.7,
      "averageSpeedMph": 17.3,
      "safetyEvents": []
    },
    {
      "id": "trip_42865565_20250127_005",
      "vehicleId": "42865565",
      "driverId": "20000046",
      "startMs": 1738003020000,
      "endMs": 1738008937567,
      "startAddress": "9142 Debbie Prairie",
      "endAddress": "1069 Sullivan Mission",
      "startCoords": {
        "latitude": 35.174798,
        "longitude": -106.708056
      },
      "endCoords": {
        "latitude": 35.065352,
        "longitude": -106.602296
      },
      "distanceMeters": 34534.3,
      "durationMs": 5917567,
      "drivingDurationMs": 4770173,
      "idlingDurationMs": 1147394,
      "fuelConsumedMl": 4391,
      "fuelConsumedGallons": 1.16,
      "maxSpeedMph": 30.2,
      "averageSpeedMph": 13.1,
      "safetyEvents": []
    },
    {
      "id": "trip_42865565_20250127_006",
      "vehicleId": "42865565",
      "driverId": "20000046",
      "startMs": 1737987960000,
      "endMs": 1737997141868,
      "startAddress": "583 Christopher Place Apt. 234",
      "endAddress": "36451 Amy Meadows",
      "startCoords": {
        "latitude": 35.104261,
        "longitude": -106.594107
      },
      "endCoords": {
        "latitude": 35.121721,
        "longitude": -106.551056
      },
      "distanceMeters": 78310.8,
      "durationMs": 9181868,
      "drivingDurationMs": 8957517,
      "idlingDurationMs": 224351,
      "fuelConsumedMl": 9956,
      "fuelConsumedGallons": 2.63,
      "maxSpeedMph": 53.2,
      "averageSpeedMph": 19.1,
      "safetyEvents": []
    },
    {
      "id": "trip_42865565_20250128_001",
      "vehicleId": "42865565",
      "driverId": "20000046",
      "startMs": 1738046760000,
      "endMs": 1738061285155,
      "startAddress": "538 Gordon Junctions Apt. 190",
      "endAddress": "593 Owen Squares",
      "startCoords": {
        "latitude": 35.070199,
        "longitude": -106.690634
      },
      "endCoords": {
        "latitude": 35.045739,
        "longitude": -106.612936
      },
      "distanceMeters": 78245.9,
      "durationMs": 14525155,
      "drivingDurationMs": 13341383,
      "idlingDurationMs": 1183773,
      "fuelConsumedMl": 9948,
      "fuelConsumedGallons": 2.628,
      "maxSpeedMph": 66.8,
      "averageSpeedMph": 12.1,
      "safetyEvents": [
        {
          "type": "speeding",
          "startMs": 1738054800000,
          "maxSpeedMph": 66.8
        }
      ]
    },
    {
      "id": "trip_42865565_20250128_002",
      "vehicleId": "42865565",
      "driverId": "20000046",
      "startMs": 1738068300000,
      "endMs": 1738083476866,
      "startAddress": "3885 Fernandez Keys Apt. 193",
      "endAddress": "6429 Thomas Tunnel Suite 823",
      "startCoords": {
        "latitude": 35.087139,
        "longitude": -106.657807
      },
      "endCoords": {
        "latitude": 35.069865,
        "longitude": -106.636019
      },
      "distanceMeters": 82225.0,
      "durationMs": 15176867,
      "drivingDurationMs": 12731484,
      "idlingDurationMs": 2445383,
      "fuelConsumedMl": 10455,
      "fuelConsumedGallons": 2.762,
      "maxSpeedMph": 71.8,
      "averageSpeedMph": 12.1,
      "safetyEvents": [
        {
          "type": "speeding",
          "startMs": 1738078080000,
          "maxSpeedMph": 71.8
        }
      ]
    },
    {
      "id": "trip_42865565_20250128_003",
      "vehicleId": "42865565",
      "driverId": "20000046",
      "startMs": 1738061880000,
      "endMs": 1738069073647,
      "startAddress": "131 Sanchez Curve Apt. 424",
      "endAddress": "976 Kerr Shore",
      "startCoords": {
        "latitude": 35.175985,
        "longitude": -106.663629
      },
      "endCoords": {
        "latitude": 35.115734,
        "longitude": -106.628053
      },
      "distanceMeters": 43649.8,
      "durationMs": 7193648,
      "drivingDurationMs": 6400505,
      "idlingDurationMs": 793143,
      "fuelConsumedMl": 5549,
      "fuelConsumedGallons": 1.466,
      "maxSpeedMph": 30.7,
      "averageSpeedMph": 13.6,
      "safetyEvents": []
    },
    {
      "id": "trip_42865565_20250129_001",
      "vehicleId": "42865565",
      "driverId": "20000044",
      "startMs": 1738145640000,
      "endMs": 1738155026434,
      "startAddress": "542 Kevin Park Suite 164",
      "endAddress": "95393 Thompson Heights Apt. 088",
      "startCoords": {
        "latitude": 35.172593,
        "longitude": -106.689018
      },
      "endCoords": {
        "latitude": 35.163071,
        "longitude": -106.692063
      },
      "distanceMeters": 55290.6,
      "durationMs": 9386435,
      "drivingDurationMs": 7863490,
      "idlingDurationMs": 1522945,
      "fuelConsumedMl": 7030,
      "fuelConsumedGallons": 1.857,
      "maxSpeedMph": 34.9,
      "averageSpeedMph": 13.2,
      "safetyEvents": []
    },
    {
      "id": "trip_42865565_20250129_002",
      "vehicleId": "42865565",
      "driverId": "20000044",
      "startMs": 1738164480000,
      "endMs": 1738168879039,
      "startAddress": "917 Lopez Alley Suite 525",
      "endAddress": "363 Terri Fields Apt. 062",
      "startCoords": {
        "latitude": 35.07682,
        "longitude": -106.669589
      },
      "endCoords": {
        "latitude": 35.138309,
        "longitude": -106.645519
      },
      "distanceMeters": 26613.0,
      "durationMs": 4399040,
      "drivingDurationMs": 3975126,
      "idlingDurationMs": 423913,
      "fuelConsumedMl": 3384,
      "fuelConsumedGallons": 0.894,
      "maxSpeedMph": 41.1,
      "averageSpeedMph": 13.5,
      "safetyEvents": []
    },
    {
      "id": "trip_42865565_20250130_001",
      "vehicleId": "42865565",
      "driverId": "20000044",
      "startMs": 1738243320000,
      "endMs": 1738244442222,
      "startAddress": "8935 Ryan Junctions Apt. 045",
      "endAddress": "66487 Felicia Streets Apt. 249",
      "startCoords": {
        "latitude": 35.182421,
        "longitude": -106.672645
      },
      "endCoords": {
        "latitude": 35.177144,
        "longitude": -106.702786
      },
      "distanceMeters": 7870.6,
      "durationMs": 1122222,
      "drivingDurationMs": 925196,
      "idlingDurationMs": 197026,
      "fuelConsumedMl": 999,
      "fuelConsumedGallons": 0.264,
      "maxSpeedMph": 56.9,
      "averageSpeedMph": 15.7,
      "safetyEvents": []
    },
    {
      "id": "trip_42865565_20250130_002",
      "vehicleId": "42865565",
      "driverId": "20000044",
      "startMs": 1738239420000,
      "endMs": 1738240667397,
      "startAddress": "388 Monica Knolls",
      "endAddress": "000 Ortiz Lodge",
      "startCoords": {
        "latitude": 35.059945,
        "longitude": -106.569939
      },
      "endCoords": {
        "latitude": 35.134322,
        "longitude": -106.618329
      },
      "distanceMeters": 7989.3,
      "durationMs": 1247398,
      "drivingDurationMs": 1021586,
      "idlingDurationMs": 225812,
      "fuelConsumedMl": 1014,
      "fuelConsumedGallons": 0.268,
      "maxSpeedMph": 41.1,
      "averageSpeedMph": 14.3,
      "safetyEvents": []
    },
    {
      "id": "trip_42865565_20250130_003",
      "vehicleId": "42865565",
      "driverId": "20000044",
      "startMs": 1738250400000,
      "endMs": 1738251523348,
      "startAddress": "45789 Perez Villages Apt. 677",
      "endAddress": "0416 Randy Crossroad",
      "startCoords": {
        "latitude": 35.158986,
        "longitude": -106.656176
      },
      "endCoords": {
        "latitude": 35.169661,
        "longitude": -106.656758
      },
      "distanceMeters": 5206.4,
      "durationMs": 1123348,
      "drivingDurationMs": 906470,
      "idlingDurationMs": 216878,
      "fuelConsumedMl": 662,
      "fuelConsumedGallons": 0.175,
      "maxSpeedMph": 34.4,
      "averageSpeedMph": 10.4,
      "safetyEvents": []
    },
    {
      "id": "trip_42865565_20250130_004",
      "vehicleId": "42865565",
      "driverId": "20000044",
      "startMs": 1738252440000,
      "endMs": 1738266966723,
      "startAddress": "55398 Monica Spring",
      "endAddress": "07763 Francisco Glens Apt. 628",
      "startCoords": {
        "latitude": 35.138537,
        "longitude": -106.702984
      },
      "endCoords": {
        "latitude": 35.094849,
        "longitude": -106.663183
      },
      "distanceMeters": 78054.3,
      "durationMs": 14526723,
      "drivingDurationMs": 12134228,
      "idlingDurationMs": 2392495,
      "fuelConsumedMl": 9925,
      "fuelConsumedGallons": 2.622,
      "maxSpeedMph": 68.2,
      "averageSpeedMph": 12.0,
      "safetyEvents": [
        {
          "type": "speeding",
          "startMs": 1738264860000,
          "maxSpeedMph": 68.2
        }
      ]
    },
    {
      "id": "trip_42865565_20250130_005",
      "vehicleId": "42865565",
      "driverId": "20000044",
      "startMs": 1738229040000,
      "endMs": 1738242267739,
      "startAddress": "3756 Ortiz Lodge Apt. 512",
      "endAddress": "024 Leonard Spur",
      "startCoords": {
        "latitude": 35.067923,
        "longitude": -106.620777
      },
      "endCoords": {
        "latitude": 35.135088,
        "longitude": -106.695466
      },
      "distanceMeters": 69809.6,
      "durationMs": 13227740,
      "drivingDurationMs": 12787503,
      "idlingDurationMs": 440237,
      "fuelConsumedMl": 8877,
      "fuelConsumedGallons": 2.345,
      "maxSpeedMph": 56.4,
      "averageSpeedMph": 11.8,
      "safetyEvents": []
    },
    {
      "id": "trip_42865565_20250130_006",
      "vehicleId": "42865565",
      "driverId": "20000044",
      "startMs": 1738235520000,
      "endMs": 1738244481891,
      "startAddress": "2432 Sherman Ranch",
      "endAddress": "328 Ashley View Suite 660",
      "startCoords": {
        "latitude": 35.140589,
        "longitude": -106.701119
      },
      "endCoords": {
        "latitude": 35.121966,
        "longitude": -106.568959
      },
      "distanceMeters": 47983.6,
      "durationMs": 8961891,
      "drivingDurationMs": 7332966,
      "idlingDurationMs": 1628925,
      "fuelConsumedMl": 6102,
      "fuelConsumedGallons": 1.612,
      "maxSpeedMph": 39.8,
      "averageSpeedMph": 12.0,
      "safetyEvents": []
    },
    {
      "id": "trip_42865565_20250131_001",
      "vehicleId": "42865565",
      "driverId": "20000045",
      "startMs": 1738310940000,
      "endMs": 1738317466427,
      "startAddress": "4433 Zachary Isle",
      "endAddress": "8262 Jones Plains Apt. 961",
      "startCoords": {
        "latitude": 35.097542,
        "longitude": -106.583158
      },
      "endCoords": {
        "latitude": 35.086951,
        "longitude": -106.641989
      },
      "distanceMeters": 44946.0,
      "durationMs": 6526427,
      "drivingDurationMs": 5250178,
      "idlingDurationMs": 1276249,
      "fuelConsumedMl": 5716,
      "fuelConsumedGallons": 1.51,
      "maxSpeedMph": 34.2,
      "averageSpeedMph": 15.4,
      "safetyEvents": []
    },
    {
      "id": "trip_42865565_20250131_002",
      "vehicleId": "42865565",
      "driverId": null,
      "startMs": 1738329240000,
      "endMs": 1738349266010,
      "startAddress": "502 Steven Park",
      "endAddress": "305 King Keys",
      "startCoords": {
        "latitude": 35.108854,
        "longitude": -106.694033
      },
      "endCoords": {
        "latitude": 35.136533,
        "longitude": -106.58128
      },
      "distanceMeters": 84999.8,
      "durationMs": 20026011,
      "drivingDurationMs": 16291967,
      "idlingDurationMs": 3734044,
      "fuelConsumedMl": 10807,
      "fuelConsumedGallons": 2.855,
      "maxSpeedMph": 62.1,
      "averageSpeedMph": 9.5,
      "safetyEvents": []
    },
    {
      "id": "trip_42865565_20250131_003",
      "vehicleId": "42865565",
      "driverId": "20000045",
      "startMs": 1738348920000,
      "endMs": 1738352572220,
      "startAddress": "64512 Tran Road Suite 454",
      "endAddress": "03404 David Road",
      "startCoords": {
        "latitude": 35.139085,
        "longitude": -106.646507
      },
      "endCoords": {
        "latitude": 35.138303,
        "longitude": -106.584001
      },
      "distanceMeters": 20621.5,
      "durationMs": 3652220,
      "drivingDurationMs": 3195973,
      "idlingDurationMs": 456247,
      "fuelConsumedMl": 2623,
      "fuelConsumedGallons": 0.693,
      "maxSpeedMph": 31.3,
      "averageSpeedMph": 12.6,
      "safetyEvents": []
    },
    {
      "id": "trip_42865565_20250131_004",
      "vehicleId": "42865565",
      "driverId": "20000045",
      "startMs": 1738330800000,
      "endMs": 1738333772427,
      "startAddress": "9976 Paige Glens",
      "endAddress": "687 Diane Spurs Apt. 540",
      "startCoords": {
        "latitude": 35.141257,
        "longitude": -106.58443
      },
      "endCoords": {
        "latitude": 35.05676,
        "longitude": -106.687066
      },
      "distanceMeters": 14456.3,
      "durationMs": 2972427,
      "drivingDurationMs": 2412499,
      "idlingDurationMs": 559928,
      "fuelConsumedMl": 1840,
      "fuelConsumedGallons": 0.486,
      "maxSpeedMph": 34.9,
      "averageSpeedMph": 10.9,
      "safetyEvents": []
    },
    {
      "id": "trip_42865565_20250131_005",
      "vehicleId": "42865565",
      "driverId": "20000045",
      "startMs": 1738338300000,
      "endMs": 1738341838742,
      "startAddress": "8943 Vincent Wall Apt. 853",
      "endAddress": "37507 May Overpass Apt. 881",
      "startCoords": {
        "latitude": 35.124144,
        "longitude": -106.707477
      },
      "endCoords": {
        "latitude": 35.10048,
        "longitude": -106.622644
      },
      "distanceMeters": 25414.1,
      "durationMs": 3538742,
      "drivingDurationMs": 2952910,
      "idlingDurationMs": 585833,
      "fuelConsumedMl": 3233,
      "fuelConsumedGallons": 0.854,
      "maxSpeedMph": 35.7,
      "averageSpeedMph": 16.1,
      "safetyEvents": []
    }
  ]
}