{
  "vehicleId": "40426209",
  "vehicleName": "DEN-BOX-02",
  "month": "2025_05",
  "pagination": {
    "endCursor": "trip_40426209_20250531_21557",
    "hasNextPage": false
  },
  "trips": [
    {
      "id": "trip_40426209_20250501_17092",
      "vehicleId": "40426209",
      "driverId": "20000008",
      "startMs": 1746076689000,
      "endMs": 1746081098000,
      "startAddress": "389 Moss Lock",
      "endAddress": "3247 Garrett Dale",
      "startCoords": {
        "latitude": 39.749372,
        "longitude": -104.919887
      },
      "endCoords": {
        "latitude": 39.755077,
        "longitude": -104.967798
      },
      "distanceMeters": 36887.0,
      "durationMs": 4409000,
      "drivingDurationMs": 3885891,
      "idlingDurationMs": 523109,
      "fuelConsumedMl": 8264,
      "fuelConsumedGallons": 2.183,
      "maxSpeedMph": 50.5,
      "averageSpeedMph": 18.7,
      "safetyEvents": []
    },
    {
      "id": "trip_40426209_20250501_17123",
      "vehicleId": "40426209",
      "driverId": "20000012",
      "startMs": 1746093760000,
      "endMs": 1746095680000,
      "startAddress": "69796 Ryan Square Suite 094",
      "endAddress": "939 Miller Mountains",
      "startCoords": {
        "latitude": 39.780441,
        "longitude": -104.96788
      },
      "endCoords": {
        "latitude": 39.747291,
        "longitude": -105.068219
      },
      "distanceMeters": 14715.9,
      "durationMs": 1920000,
      "drivingDurationMs": 1446093,
      "idlingDurationMs": 473907,
      "fuelConsumedMl": 3297,
      "fuelConsumedGallons": 0.871,
      "maxSpeedMph": 47.3,
      "averageSpeedMph": 17.1,
      "safetyEvents": []
    },
    {
      "id": "trip_40426209_20250501_17147",
      "vehicleId": "40426209",
      "driverId": "20000014",
      "startMs": 1746106174000,
      "endMs": 1746128188000,
      "startAddress": "6657 Matthew Mill",
      "endAddress": "98960 Stephanie Turnpike Apt. 015",
      "startCoords": {
        "latitude": 39.766246,
        "longitude": -104.949519
      },
      "endCoords": {
        "latitude": 39.696319,
        "longitude": -104.960997
      },
      "distanceMeters": 195907.4,
      "durationMs": 22014000,
      "drivingDurationMs": 17382642,
      "idlingDurationMs": 4631358,
      "fuelConsumedMl": 43884,
      "fuelConsumedGallons": 11.593,
      "maxSpeedMph": 59.9,
      "averageSpeedMph": 19.9,
      "safetyEvents": []
    },
    {
      "id": "trip_40426209_20250501_17186",
      "vehicleId": "40426209",
      "driverId": "20000002",
      "startMs": 1746128683000,
      "endMs": 1746132066000,
      "startAddress": "047 Wright Squares Suite 355",
      "endAddress": "12571 Tate Passage",
      "startCoords": {
        "latitude": 39.719084,
        "longitude": -104.972503
      },
      "endCoords": {
        "latitude": 39.688549,
        "longitude": -104.923679
      },
      "distanceMeters": 32850.0,
      "durationMs": 3383000,
      "drivingDurationMs": 2902091,
      "idlingDurationMs": 480909,
      "fuelConsumedMl": 7359,
      "fuelConsumedGallons": 1.944,
      "maxSpeedMph": 43.2,
      "averageSpeedMph": 21.7,
      "safetyEvents": []
    },
    {
      "id": "trip_40426209_20250502_17215",
      "vehicleId": "40426209",
      "driverId": "20000014",
      "startMs": 1746149312000,
      "endMs": 1746153208000,
      "startAddress": "95721 Juan Rapids",
      "endAddress": "4252 Holland Rapid",
      "startCoords": {
        "latitude": 39.708457,
        "longitude": -104.925547
      },
      "endCoords": {
        "latitude": 39.7802,
        "longitude": -104.969148
      },
      "distanceMeters": 43775.8,
      "durationMs": 3896000,
      "drivingDurationMs": 3348987,
      "idlingDurationMs": 547013,
      "fuelConsumedMl": 9808,
      "fuelConsumedGallons": 2.591,
      "maxSpeedMph": 59.3,
      "averageSpeedMph": 25.1,
      "safetyEvents": []
    },
    {
      "id": "trip_40426209_20250502_17242",
      "vehicleId": "40426209",
      "driverId": "20000014",
      "startMs": 1746164686000,
      "endMs": 1746166186000,
      "startAddress": "3672 Copeland Flats",
      "endAddress": "86942 Gordon Oval Suite 468",
      "startCoords": {
        "latitude": 39.758684,
        "longitude": -105.077301
      },
      "endCoords": {
        "latitude": 39.827571,
        "longitude": -104.953506
      },
      "distanceMeters": 10217.3,
      "durationMs": 1500000,
      "drivingDurationMs": 1137604,
      "idlingDurationMs": 362396,
      "fuelConsumedMl": 2290,
      "fuelConsumedGallons": 0.605,
      "maxSpeedMph": 55.0,
      "averageSpeedMph": 15.2,
      "safetyEvents": []
    },
    {
      "id": "trip_40426209_20250502_17271",
      "vehicleId": "40426209",
      "driverId": "20000008",
      "startMs": 1746180323000,
      "endMs": 1746187433000,
      "startAddress": "530 Howard Islands",
      "endAddress": "0139 Stanton Lodge Suite 878",
      "startCoords": {
        "latitude": 39.815713,
        "longitude": -104.900952
      },
      "endCoords": {
        "latitude": 39.738861,
        "longitude": -105.080881
      },
      "distanceMeters": 49650.5,
      "durationMs": 7110000,
      "drivingDurationMs": 6264324,
      "idlingDurationMs": 845676,
      "fuelConsumedMl": 11122,
      "fuelConsumedGallons": 2.938,
      "maxSpeedMph": 42.0,
      "averageSpeedMph": 15.6,
      "safetyEvents": []
    },
    {
      "id": "trip_40426209_20250502_17299",
      "vehicleId": "40426209",
      "driverId": "20000002",
      "startMs": 1746196955000,
      "endMs": 1746215876000,
      "startAddress": "8287 Jacob Extension Apt. 967",
      "endAddress": "92277 Gonzales Mission Apt. 388",
      "startCoords": {
        "latitude": 39.770531,
        "longitude": -105.085777
      },
      "endCoords": {
        "latitude": 39.710766,
        "longitude": -104.918469
      },
      "distanceMeters": 137534.0,
      "durationMs": 18921000,
      "drivingDurationMs": 17009652,
      "idlingDurationMs": 1911348,
      "fuelConsumedMl": 30809,
      "fuelConsumedGallons": 8.139,
      "maxSpeedMph": 56.4,
      "averageSpeedMph": 16.3,
      "safetyEvents": []
    },
    {
      "id": "trip_40426209_20250502_17337",
      "vehicleId": "40426209",
      "driverId": "20000007",
      "startMs": 1746215931000,
      "endMs": 1746225375000,
      "startAddress": "56948 Stewart Corners Suite 998",
      "endAddress": "63808 Reyes Viaduct",
      "startCoords": {
        "latitude": 39.728101,
        "longitude": -104.977207
      },
      "endCoords": {
        "latitude": 39.819691,
        "longitude": -104.987254
      },
      "distanceMeters": 70445.8,
      "durationMs": 9444000,
      "drivingDurationMs": 7497510,
      "idlingDurationMs": 1946490,
      "fuelConsumedMl": 15781,
      "fuelConsumedGallons": 4.169,
      "maxSpeedMph": 59.8,
      "averageSpeedMph": 16.7,
      "safetyEvents": []
    },
    {
      "id": "trip_40426209_20250503_17368",
      "vehicleId": "40426209",
      "driverId": "20000010",
      "startMs": 1746233496000,
      "endMs": 1746239957000,
      "startAddress": "157 Matthew Manor",
      "endAddress": "3154 Sanchez Dale Apt. 502",
      "startCoords": {
        "latitude": 39.748792,
        "longitude": -105.000786
      },
      "endCoords": {
        "latitude": 39.821233,
        "longitude": -105.037782
      },
      "distanceMeters": 56805.3,
      "durationMs": 6461000,
      "drivingDurationMs": 5547060,
      "idlingDurationMs": 913940,
      "fuelConsumedMl": 12727,
      "fuelConsumedGallons": 3.362,
      "maxSpeedMph": 50.3,
      "averageSpeedMph": 19.7,
      "safetyEvents": []
    },
    {
      "id": "trip_40426209_20250503_17396",
      "vehicleId": "40426209",
      "driverId": "20000004",
      "startMs": 1746252157000,
      "endMs": 1746279842000,
      "startAddress": "627 Rivera Skyway Apt. 934",
      "endAddress": "307 Jonathan Hill Apt. 646",
      "startCoords": {
        "latitude": 39.780086,
        "longitude": -105.02554
      },
      "endCoords": {
        "latitude": 39.751463,
        "longitude": -104.956499
      },
      "distanceMeters": 298956.2,
      "durationMs": 27685000,
      "drivingDurationMs": 23630768,
      "idlingDurationMs": 4054232,
      "fuelConsumedMl": 66971,
      "fuelConsumedGallons": 17.692,
      "maxSpeedMph": 59.4,
      "averageSpeedMph": 24.2,
      "safetyEvents": []
    },
    {
      "id": "trip_40426209_20250503_17448",
      "vehicleId": "40426209",
      "driverId": "20000014",
      "startMs": 1746280284000,
      "endMs": 1746286602000,
      "startAddress": "4281 Clay Mall",
      "endAddress": "3148 Mary Trail",
      "startCoords": {
        "latitude": 39.793202,
        "longitude": -104.902772
      },
      "endCoords": {
        "latitude": 39.717205,
        "longitude": -104.934475
      },
      "distanceMeters": 50873.0,
      "durationMs": 6318000,
      "drivingDurationMs": 4892289,
      "idlingDurationMs": 1425711,
      "fuelConsumedMl": 11398,
      "fuelConsumedGallons": 3.011,
      "maxSpeedMph": 41.5,
      "averageSpeedMph": 18.0,
      "safetyEvents": []
    },
    {
      "id": "trip_40426209_20250503_17477",
      "vehicleId": "40426209",
      "driverId": "20000008",
      "startMs": 1746297299000,
      "endMs": 1746304046000,
      "startAddress": "5850 Johnny Meadows",
      "endAddress": "904 Bryan Motorway",
      "startCoords": {
        "latitude": 39.71945,
        "longitude": -104.901016
      },
      "endCoords": {
        "latitude": 39.776105,
        "longitude": -105.003974
      },
      "distanceMeters": 71045.3,
      "durationMs": 6747000,
      "drivingDurationMs": 5657149,
      "idlingDurationMs": 1089851,
      "fuelConsumedMl": 15914,
      "fuelConsumedGallons": 4.204,
      "maxSpeedMph": 58.7,
      "averageSpeedMph": 23.6,
      "safetyEvents": []
    },
    {
      "id": "trip_40426209_20250504_17508",
      "vehicleId": "40426209",
      "driverId": "20000001",
      "startMs": 1746319414000,
      "endMs": 1746324040000,
      "startAddress": "9832 Robert Wells",
      "endAddress": "51082 Bond Gardens Apt. 108",
      "startCoords": {
        "latitude": 39.688644,
        "longitude": -105.000188
      },
      "endCoords": {
        "latitude": 39.78319,
        "longitude": -104.947866
      },
      "distanceMeters": 37411.5,
      "durationMs": 4626000,
      "drivingDurationMs": 3665130,
      "idlingDurationMs": 960870,
      "fuelConsumedMl": 8381,
      "fuelConsumedGallons": 2.214,
      "maxSpeedMph": 60.0,
      "averageSpeedMph": 18.1,
      "safetyEvents": []
    },
    {
      "id": "trip_40426209_20250504_17537",
      "vehicleId": "40426209",
      "driverId": "20000005",
      "startMs": 1746346922000,
      "endMs": 1746348842000,
      "startAddress": "8686 Kathleen Springs",
      "endAddress": "102 Christian Place",
      "startCoords": {
        "latitude": 39.736458,
        "longitude": -105.03948
      },
      "endCoords": {
        "latitude": 39.793782,
        "longitude": -105.016514
      },
      "distanceMeters": 15347.0,
      "durationMs": 1920000,
      "drivingDurationMs": 1510678,
      "idlingDurationMs": 409322,
      "fuelConsumedMl": 3437,
      "fuelConsumedGallons": 0.908,
      "maxSpeedMph": 56.6,
      "averageSpeedMph": 17.9,
      "safetyEvents": []
    },
    {
      "id": "trip_40426209_20250504_17567",
      "vehicleId": "40426209",
      "driverId": "20000009",
      "startMs": 1746364242000,
      "endMs": 1746366222000,
      "startAddress": "5490 Jimenez Rest Apt. 340",
      "endAddress": "53327 Michael Stravenue Apt. 629",
      "startCoords": {
        "latitude": 39.737475,
        "longitude": -104.978888
      },
      "endCoords": {
        "latitude": 39.732685,
        "longitude": -104.90535
      },
      "distanceMeters": 13706.6,
      "durationMs": 1980000,
      "drivingDurationMs": 1572475,
      "idlingDurationMs": 407525,
      "fuelConsumedMl": 3070,
      "fuelConsumedGallons": 0.811,
      "maxSpeedMph": 58.0,
      "averageSpeedMph": 15.5,
      "safetyEvents": []
    },
    {
      "id": "trip_40426209_20250504_17596",
      "vehicleId": "40426209",
      "driverId": "20000016",
      "startMs": 1746387369000,
      "endMs": 1746389589000,
      "startAddress": "4409 Kelly Valleys Apt. 652",
      "endAddress": "138 James Mission Suite 953",
      "startCoords": {
        "latitude": 39.7167,
        "longitude": -105.050348
      },
      "endCoords": {
        "latitude": 39.777271,
        "longitude": -105.063104
      },
      "distanceMeters": 20354.1,
      "durationMs": 2220000,
      "drivingDurationMs": 1746364,
      "idlingDurationMs": 473636,
      "fuelConsumedMl": 4561,
      "fuelConsumedGallons": 1.205,
      "maxSpeedMph": 51.3,
      "averageSpeedMph": 20.5,
      "safetyEvents": []
    },
    {
      "id": "trip_40426209_20250505_17624",
      "vehicleId": "40426209",
      "driverId": "20000015",
      "startMs": 1746416371000,
      "endMs": 1746417811000,
      "startAddress": "144 Smith Wall Suite 250",
      "endAddress": "088 Brandon Stream",
      "startCoords": {
        "latitude": 39.710378,
        "longitude": -104.93683
      },
      "endCoords": {
        "latitude": 39.785598,
        "longitude": -105.086479
      },
      "distanceMeters": 12936.5,
      "durationMs": 1440000,
      "drivingDurationMs": 1142166,
      "idlingDurationMs": 297834,
      "fuelConsumedMl": 2900,
      "fuelConsumedGallons": 0.766,
      "maxSpeedMph": 53.2,
      "averageSpeedMph": 20.1,
      "safetyEvents": []
    },
    {
      "id": "trip_40426209_20250505_17654",
      "vehicleId": "40426209",
      "driverId": "20000019",
      "startMs": 1746439275000,
      "endMs": 1746457455000,
      "startAddress": "255 Meagan Lakes",
      "endAddress": "34972 Morgan Summit Apt. 760",
      "startCoords": {
        "latitude": 39.804596,
        "longitude": -105.006267
      },
      "endCoords": {
        "latitude": 39.693418,
        "longitude": -104.927495
      },
      "distanceMeters": 128479.7,
      "durationMs": 18180000,
      "drivingDurationMs": 16235259,
      "idlingDurationMs": 1944741,
      "fuelConsumedMl": 28780,
      "fuelConsumedGallons": 7.603,
      "maxSpeedMph": 47.5,
      "averageSpeedMph": 15.8,
      "safetyEvents": []
    },
    {
      "id": "trip_40426209_20250505_17693",
      "vehicleId": "40426209",
      "driverId": "20000014",
      "startMs": 1746458527000,
      "endMs": 1746463954000,
      "startAddress": "07166 Scott Camp Apt. 830",
      "endAddress": "12387 Carr Plaza",
      "startCoords": {
        "latitude": 39.726804,
        "longitude": -105.066107
      },
      "endCoords": {
        "latitude": 39.715,
        "longitude": -104.919561
      },
      "distanceMeters": 53740.8,
      "durationMs": 5427000,
      "drivingDurationMs": 4725174,
      "idlingDurationMs": 701826,
      "fuelConsumedMl": 12038,
      "fuelConsumedGallons": 3.18,
      "maxSpeedMph": 41.6,
      "averageSpeedMph": 22.2,
      "safetyEvents": []
    },
    {
      "id": "trip_40426209_20250505_17720",
      "vehicleId": "40426209",
      "driverId": "20000014",
      "startMs": 1746470749000,
      "endMs": 1746475291000,
      "startAddress": "87084 Thomas Center",
      "endAddress": "88093 Dennis Extensions",
      "startCoords": {
        "latitude": 39.801489,
        "longitude": -104.940974
      },
      "endCoords": {
        "latitude": 39.71491,
        "longitude": -105.059902
      },
      "distanceMeters": 43457.7,
      "durationMs": 4542000,
      "drivingDurationMs": 3414966,
      "idlingDurationMs": 1127034,
      "fuelConsumedMl": 9736,
      "fuelConsumedGallons": 2.572,
      "maxSpeedMph": 55.6,
      "averageSpeedMph": 21.4,
      "safetyEvents": []
    },
    {
      "id": "trip_40426209_20250505_17750",
      "vehicleId": "40426209",
      "driverId": "20000009",
      "startMs": 1746488319000,
      "endMs": 1746490059000,
      "startAddress": "4299 Donna Path Suite 070",
      "endAddress": "41761 Robertson Mount Apt. 660",
      "startCoords": {
        "latitude": 39.79775,
        "longitude": -105.081139
      },
      "endCoords": {
        "latitude": 39.722394,
        "longitude": -104.971543
      },
      "distanceMeters": 13003.9,
      "durationMs": 1740000,
      "drivingDurationMs": 1362676,
      "idlingDurationMs": 377324,
      "fuelConsumedMl": 2915,
      "fuelConsumedGallons": 0.77,
      "maxSpeedMph": 51.3,
      "averageSpeedMph": 16.7,
      "safetyEvents": []
    },
    {
      "id": "trip_40426209_20250506_17780",
      "vehicleId": "40426209",
      "driverId": "20000019",
      "startMs": 1746502233000,
      "endMs": 1746504153000,
      "startAddress": "457 Justin Meadow",
      "endAddress": "1058 Garcia Hill Apt. 149",
      "startCoords": {
        "latitude": 39.699956,
        "longitude": -105.013171
      },
      "endCoords": {
        "latitude": 39.693993,
        "longitude": -104.99274
      },
      "distanceMeters": 18454.8,
      "durationMs": 1920000,
      "drivingDurationMs": 1686667,
      "idlingDurationMs": 233333,
      "fuelConsumedMl": 4134,
      "fuelConsumedGallons": 1.092,
      "maxSpeedMph": 61.5,
      "averageSpeedMph": 21.5,
      "safetyEvents": []
    },
    {
      "id": "trip_40426209_20250506_17811",
      "vehicleId": "40426209",
      "driverId": "20000004",
      "startMs": 1746520936000,
      "endMs": 1746538221000,
      "startAddress": "3537 Tammy Throughway",
      "endAddress": "617 Ian Place",
      "startCoords": {
        "latitude": 39.755189,
        "longitude": -104.930882
      },
      "endCoords": {
        "latitude": 39.738371,
        "longitude": -104.946059
      },
      "distanceMeters": 156735.3,
      "durationMs": 17285000,
      "drivingDurationMs": 14144577,
      "idlingDurationMs": 3140423,
      "fuelConsumedMl": 35110,
      "fuelConsumedGallons": 9.275,
      "maxSpeedMph": 60.5,
      "averageSpeedMph": 20.3,
      "safetyEvents": []
    },
    {
      "id": "trip_40426209_20250506_17849",
      "vehicleId": "40426209",
      "driverId": "20000015",
      "startMs": 1746539184000,
      "endMs": 1746543892000,
      "startAddress": "6279 Maynard Crescent",
      "endAddress": "4936 Martinez Mountains Apt. 177",
      "startCoords": {
        "latitude": 39.814944,
        "longitude": -105.055196
      },
      "endCoords": {
        "latitude": 39.788681,
        "longitude": -104.957089
      },
      "distanceMeters": 33669.1,
      "durationMs": 4708000,
      "drivingDurationMs": 4105281,
      "idlingDurationMs": 602719,
      "fuelConsumedMl": 7541,
      "fuelConsumedGallons": 1.992,
      "maxSpeedMph": 49.8,
      "averageSpeedMph": 16.0,
      "safetyEvents": []
    },
    {
      "id": "trip_40426209_20250506_17878",
      "vehicleId": "40426209",
      "driverId": "20000021",
      "startMs": 1746552091000,
      "endMs": 1746554251000,
      "startAddress": "053 Carly Drives",
      "endAddress": "543 Derrick Gardens Apt. 145",
      "startCoords": {
        "latitude": 39.826395,
        "longitude": -104.982966
      },
      "endCoords": {
        "latitude": 39.727044,
        "longitude": -104.925651
      },
      "distanceMeters": 15428.8,
      "durationMs": 2160000,
      "drivingDurationMs": 1738575,
      "idlingDurationMs": 421425,
      "fuelConsumedMl": 3456,
      "fuelConsumedGallons": 0.913,
      "maxSpeedMph": 46.2,
      "averageSpeedMph": 16.0,
      "safetyEvents": []
    },
    {
      "id": "trip_40426209_20250506_17904",
      "vehicleId": "40426209",
      "driverId": "20000015",
      "startMs": 1746566139000,
      "endMs": 1746575213000,
      "startAddress": "765 Johnson Mall Apt. 741",
      "endAddress": "43387 Gomez Overpass Apt. 994",
      "startCoords": {
        "latitude": 39.729199,
        "longitude": -105.053805
      },
      "endCoords": {
        "latitude": 39.783661,
        "longitude": -105.053141
      },
      "distanceMeters": 105351.0,
      "durationMs": 9074000,
      "drivingDurationMs": 7976033,
      "idlingDurationMs": 1097967,
      "fuelConsumedMl": 23598,
      "fuelConsumedGallons": 6.234,
      "maxSpeedMph": 53.7,
      "averageSpeedMph": 26.0,
      "safetyEvents": []
    },
    {
      "id": "trip_40426209_20250507_17936",
      "vehicleId": "40426209",
      "driverId": "20000002",
      "startMs": 1746583878000,
      "endMs": 1746588056000,
      "startAddress": "36604 Xavier Motorway",
      "endAddress": "93946 Brittany Alley Apt. 407",
      "startCoords": {
        "latitude": 39.735678,
        "longitude": -105.024543
      },
      "endCoords": {
        "latitude": 39.758865,
        "longitude": -105.005912
      },
      "distanceMeters": 45398.4,
      "durationMs": 4178000,
      "drivingDurationMs": 3535345,
      "idlingDurationMs": 642655,
      "fuelConsumedMl": 10171,
      "fuelConsumedGallons": 2.687,
      "maxSpeedMph": 57.7,
      "averageSpeedMph": 24.3,
      "safetyEvents": []
    },
    {
      "id": "trip_40426209_20250507_17962",
      "vehicleId": "40426209",
      "driverId": "20000018",
      "startMs": 1746600530000,
      "endMs": 1746604568000,
      "startAddress": "821 Ferguson Grove Apt. 594",
      "endAddress": "519 William Islands",
      "startCoords": {
        "latitude": 39.700696,
        "longitude": -104.946766
      },
      "endCoords": {
        "latitude": 39.771011,
        "longitude": -104.96735
      },
      "distanceMeters": 34030.4,
      "durationMs": 4038000,
      "drivingDurationMs": 3632479,
      "idlingDurationMs": 405521,
      "fuelConsumedMl": 7624,
      "fuelConsumedGallons": 2.014,
      "maxSpeedMph": 58.4,
      "averageSpeedMph": 18.9,
      "safetyEvents": []
    },
    {
      "id": "trip_40426209_20250507_17988",
      "vehicleId": "40426209",
      "driverId": "20000012",
      "startMs": 1746611543000,
      "endMs": 1746613823000,
      "startAddress": "80414 Cox Common",
      "endAddress": "2745 Diaz Mall",
      "startCoords": {
        "latitude": 39.74304,
        "longitude": -104.955786
      },
      "endCoords": {
        "latitude": 39.826965,
        "longitude": -104.992281
      },
      "distanceMeters": 21462.2,
      "durationMs": 2280000,
      "drivingDurationMs": 1824638,
      "idlingDurationMs": 455362,
      "fuelConsumedMl": 4807,
      "fuelConsumedGallons": 1.27,
      "maxSpeedMph": 56.9,
      "averageSpeedMph": 21.1,
      "safetyEvents": []
    },
    {
      "id": "trip_40426209_20250507_18016",
      "vehicleId": "40426209",
      "driverId": "20000002",
      "startMs": 1746623733000,
      "endMs": 1746628382000,
      "startAddress": "53496 Werner Harbors",
      "endAddress": "149 Nguyen Estate Apt. 763",
      "startCoords": {
        "latitude": 39.775599,
        "longitude": -105.015059
      },
      "endCoords": {
        "latitude": 39.750211,
        "longitude": -104.919437
      },
      "distanceMeters": 49386.9,
      "durationMs": 4649000,
      "drivingDurationMs": 3646576,
      "idlingDurationMs": 1002424,
      "fuelConsumedMl": 11065,
      "fuelConsumedGallons": 2.923,
      "maxSpeedMph": 58.5,
      "averageSpeedMph": 23.8,
      "safetyEvents": []
    },
    {
      "id": "trip_40426209_20250507_18043",
      "vehicleId": "40426209",
      "driverId": "20000012",
      "startMs": 1746643368000,
      "endMs": 1746645168000,
      "startAddress": "30146 Reyes Springs",
      "endAddress": "6773 William View",
      "startCoords": {
        "latitude": 39.784972,
        "longitude": -104.950233
      },
      "endCoords": {
        "latitude": 39.746941,
        "longitude": -105.0543
      },
      "distanceMeters": 11895.1,
      "durationMs": 1800000,
      "drivingDurationMs": 1489316,
      "idlingDurationMs": 310684,
      "fuelConsumedMl": 2665,
      "fuelConsumedGallons": 0.704,
      "maxSpeedMph": 57.4,
      "averageSpeedMph": 14.8,
      "safetyEvents": []
    },
    {
      "id": "trip_40426209_20250508_18076",
      "vehicleId": "40426209",
      "driverId": "20000020",
      "startMs": 1746662868000,
      "endMs": 1746664548000,
      "startAddress": "8039 Stephanie Stream",
      "endAddress": "254 Janice Meadows",
      "startCoords": {
        "latitude": 39.795521,
        "longitude": -104.960109
      },
      "endCoords": {
        "latitude": 39.689476,
        "longitude": -104.915582
      },
      "distanceMeters": 9974.3,
      "durationMs": 1680000,
      "drivingDurationMs": 1261363,
      "idlingDurationMs": 418637,
      "fuelConsumedMl": 2233,
      "fuelConsumedGallons": 0.59,
      "maxSpeedMph": 51.4,
      "averageSpeedMph": 13.3,
      "safetyEvents": []
    },
    {
      "id": "trip_40426209_20250508_18106",
      "vehicleId": "40426209",
      "driverId": "20000009",
      "startMs": 1746684601000,
      "endMs": 1746686521000,
      "startAddress": "554 Thomas Corners Suite 044",
      "endAddress": "274 Evelyn Inlet Suite 298",
      "startCoords": {
        "latitude": 39.687818,
        "longitude": -104.996047
      },
      "endCoords": {
        "latitude": 39.800262,
        "longitude": -104.967054
      },
      "distanceMeters": 13907.8,
      "durationMs": 1920000,
      "drivingDurationMs": 1598896,
      "idlingDurationMs": 321104,
      "fuelConsumedMl": 3115,
      "fuelConsumedGallons": 0.823,
      "maxSpeedMph": 42.9,
      "averageSpeedMph": 16.2,
      "safetyEvents": []
    },
    {
      "id": "trip_40426209_20250508_18136",
      "vehicleId": "40426209",
      "driverId": "20000007",
      "startMs": 1746697528000,
      "endMs": 1746730136000,
      "startAddress": "2287 Emily Mission Apt. 398",
      "endAddress": "12216 Snyder Burgs",
      "startCoords": {
        "latitude": 39.697608,
        "longitude": -105.026731
      },
      "endCoords": {
        "latitude": 39.770015,
        "longitude": -105.033947
      },
      "distanceMeters": 239275.9,
      "durationMs": 32608000,
      "drivingDurationMs": 28770239,
      "idlingDurationMs": 3837761,
      "fuelConsumedMl": 53601,
      "fuelConsumedGallons": 14.16,
      "maxSpeedMph": 56.8,
      "averageSpeedMph": 16.4,
      "safetyEvents": []
    },
    {
      "id": "trip_40426209_20250508_18200",
      "vehicleId": "40426209",
      "driverId": "20000014",
      "startMs": 1746731194000,
      "endMs": 1746739098000,
      "startAddress": "26873 Cassandra Corner Apt. 172",
      "endAddress": "717 Lawrence Rest",
      "startCoords": {
        "latitude": 39.768321,
        "longitude": -104.949421
      },
      "endCoords": {
        "latitude": 39.787381,
        "longitude": -104.903638
      },
      "distanceMeters": 79674.1,
      "durationMs": 7904000,
      "drivingDurationMs": 5976593,
      "idlingDurationMs": 1927407,
      "fuelConsumedMl": 17848,
      "fuelConsumedGallons": 4.715,
      "maxSpeedMph": 57.0,
      "averageSpeedMph": 22.5,
      "safetyEvents": []
    },
    {
      "id": "trip_40426209_20250509_18230",
      "vehicleId": "40426209",
      "driverId": "20000013",
      "startMs": 1746751064000,
      "endMs": 1746756303000,
      "startAddress": "04326 Bell Cape",
      "endAddress": "7909 Kyle Lakes Suite 742",
      "startCoords": {
        "latitude": 39.689892,
        "longitude": -105.062386
      },
      "endCoords": {
        "latitude": 39.689256,
        "longitude": -105.071273
      },
      "distanceMeters": 53403.1,
      "durationMs": 5239000,
      "drivingDurationMs": 4034077,
      "idlingDurationMs": 1204923,
      "fuelConsumedMl": 11962,
      "fuelConsumedGallons": 3.16,
      "maxSpeedMph": 53.3,
      "averageSpeedMph": 22.8,
      "safetyEvents": []
    },
    {
      "id": "trip_40426209_20250509_18261",
      "vehicleId": "40426209",
      "driverId": "20000012",
      "startMs": 1746765720000,
      "endMs": 1746771384000,
      "startAddress": "47788 Garcia Vista",
      "endAddress": "2423 Joshua Summit",
      "startCoords": {
        "latitude": 39.756765,
        "longitude": -104.95907
      },
      "endCoords": {
        "latitude": 39.764481,
        "longitude": -104.971989
      },
      "distanceMeters": 54455.2,
      "durationMs": 5664000,
      "drivingDurationMs": 4277451,
      "idlingDurationMs": 1386549,
      "fuelConsumedMl": 12200,
      "fuelConsumedGallons": 3.223,
      "maxSpeedMph": 45.0,
      "averageSpeedMph": 21.5,
      "safetyEvents": []
    },
    {
      "id": "trip_40426209_20250509_18291",
      "vehicleId": "40426209",
      "driverId": "20000012",
      "startMs": 1746780986000,
      "endMs": 1746788167000,
      "startAddress": "50891 Katie Common Apt. 891",
      "endAddress": "51955 Booker Springs Apt. 807",
      "startCoords": {
        "latitude": 39.773882,
        "longitude": -104.957114
      },
      "endCoords": {
        "latitude": 39.762874,
        "longitude": -104.971507
      },
      "distanceMeters": 67589.6,
      "durationMs": 7181000,
      "drivingDurationMs": 6009036,
      "idlingDurationMs": 1171964,
      "fuelConsumedMl": 15142,
      "fuelConsumedGallons": 4.0,
      "maxSpeedMph": 60.3,
      "averageSpeedMph": 21.1,
      "safetyEvents": []
    },
    {
      "id": "trip_40426209_20250509_18316",
      "vehicleId": "40426209",
      "driverId": "20000018",
      "startMs": 1746793963000,
      "endMs": 1746800149000,
      "startAddress": "4274 Lopez Union",
      "endAddress": "195 Floyd Stream Apt. 507",
      "startCoords": {
        "latitude": 39.734126,
        "longitude": -105.085611
      },
      "endCoords": {
        "latitude": 39.750221,
        "longitude": -105.066285
      },
      "distanceMeters": 63917.3,
      "durationMs": 6186000,
      "drivingDurationMs": 4680042,
      "idlingDurationMs": 1505958,
      "fuelConsumedMl": 14320,
      "fuelConsumedGallons": 3.783,
      "maxSpeedMph": 56.4,
      "averageSpeedMph": 23.1,
      "safetyEvents": []
    },
    {
      "id": "trip_40426209_20250509_18349",
      "vehicleId": "40426209",
      "driverId": "20000018",
      "startMs": 1746808408000,
      "endMs": 1746810508000,
      "startAddress": "2210 David Ridge",
      "endAddress": "949 Webb Run",
      "startCoords": {
        "latitude": 39.788762,
        "longitude": -105.064293
      },
      "endCoords": {
        "latitude": 39.730583,
        "longitude": -104.939437
      },
      "distanceMeters": 23713.3,
      "durationMs": 2100000,
      "drivingDurationMs": 1828318,
      "idlingDurationMs": 271682,
      "fuelConsumedMl": 5311,
      "fuelConsumedGallons": 1.403,
      "maxSpeedMph": 46.3,
      "averageSpeedMph": 25.3,
      "safetyEvents": []
    },
    {
      "id": "trip_40426209_20250509_18374",
      "vehicleId": "40426209",
      "driverId": "20000012",
      "startMs": 1746823469000,
      "endMs": 1746825329000,
      "startAddress": "090 Michael Shoals Suite 799",
      "endAddress": "884 Tyler Terrace Apt. 219",
      "startCoords": {
        "latitude": 39.816862,
        "longitude": -104.942634
      },
      "endCoords": {
        "latitude": 39.778219,
        "longitude": -104.988866
      },
      "distanceMeters": 16181.0,
      "durationMs": 1860000,
      "drivingDurationMs": 1664048,
      "idlingDurationMs": 195952,
      "fuelConsumedMl": 3626,
      "fuelConsumedGallons": 0.958,
      "maxSpeedMph": 53.1,
      "averageSpeedMph": 19.5,
      "safetyEvents": []
    },
    {
      "id": "trip_40426209_20250510_18401",
      "vehicleId": "40426209",
      "driverId": "20000015",
      "startMs": 1746843107000,
      "endMs": 1746845207000,
      "startAddress": "261 Morrow Dam Apt. 984",
      "endAddress": "414 Justin Expressway Suite 684",
      "startCoords": {
        "latitude": 39.76415,
        "longitude": -105.041693
      },
      "endCoords": {
        "latitude": 39.825325,
        "longitude": -105.05572
      },
      "distanceMeters": 18147.5,
      "durationMs": 2100000,
      "drivingDurationMs": 1807214,
      "idlingDurationMs": 292786,
      "fuelConsumedMl": 4066,
      "fuelConsumedGallons": 1.074,
      "maxSpeedMph": 60.1,
      "averageSpeedMph": 19.3,
      "safetyEvents": []
    },
    {
      "id": "trip_40426209_20250510_18431",
      "vehicleId": "40426209",
      "driverId": "20000017",
      "startMs": 1746863794000,
      "endMs": 1746884219000,
      "startAddress": "927 Brown Bridge Suite 463",
      "endAddress": "9431 Robin Viaduct",
      "startCoords": {
        "latitude": 39.738482,
        "longitude": -105.082816
      },
      "endCoords": {
        "latitude": 39.756949,
        "longitude": -104.924464
      },
      "distanceMeters": 195668.3,
      "durationMs": 20425000,
      "drivingDurationMs": 15741370,
      "idlingDurationMs": 4683630,
      "fuelConsumedMl": 43831,
      "fuelConsumedGallons": 11.579,
      "maxSpeedMph": 60.8,
      "averageSpeedMph": 21.4,
      "safetyEvents": []
    },
    {
      "id": "trip_40426209_20250510_18474",
      "vehicleId": "40426209",
      "driverId": "20000016",
      "startMs": 1746884744000,
      "endMs": 1746887998000,
      "startAddress": "6471 Smith Crest Suite 688",
      "endAddress": "651 Bradley Hills",
      "startCoords": {
        "latitude": 39.684371,
        "longitude": -104.970185
      },
      "endCoords": {
        "latitude": 39.771623,
        "longitude": -105.086823
      },
      "distanceMeters": 34197.7,
      "durationMs": 3254000,
      "drivingDurationMs": 2603656,
      "idlingDurationMs": 650344,
      "fuelConsumedMl": 7662,
      "fuelConsumedGallons": 2.024,
      "maxSpeedMph": 59.4,
      "averageSpeedMph": 23.5,
      "safetyEvents": []
    },
    {
      "id": "trip_40426209_20250510_18504",
      "vehicleId": "40426209",
      "driverId": "20000002",
      "startMs": 1746901042000,
      "endMs": 1746903202000,
      "startAddress": "700 Kelly Meadow",
      "endAddress": "543 Lisa Islands",
      "startCoords": {
        "latitude": 39.799927,
        "longitude": -105.021378
      },
      "endCoords": {
        "latitude": 39.714517,
        "longitude": -105.031608
      },
      "distanceMeters": 15563.8,
      "durationMs": 2160000,
      "drivingDurationMs": 1854084,
      "idlingDurationMs": 305916,
      "fuelConsumedMl": 3486,
      "fuelConsumedGallons": 0.921,
      "maxSpeedMph": 55.6,
      "averageSpeedMph": 16.1,
      "safetyEvents": []
    },
    {
      "id": "trip_40426209_20250511_18539",
      "vehicleId": "40426209",
      "driverId": "20000014",
      "startMs": 1746923668000,
      "endMs": 1746929187000,
      "startAddress": "9385 King Estates Suite 497",
      "endAddress": "05033 Edward Stravenue Apt. 923",
      "startCoords": {
        "latitude": 39.787621,
        "longitude": -104.900646
      },
      "endCoords": {
        "latitude": 39.785341,
        "longitude": -104.935278
      },
      "distanceMeters": 61434.0,
      "durationMs": 5519000,
      "drivingDurationMs": 4767141,
      "idlingDurationMs": 751859,
      "fuelConsumedMl": 13764,
      "fuelConsumedGallons": 3.636,
      "maxSpeedMph": 50.6,
      "averageSpeedMph": 24.9,
      "safetyEvents": []
    },
    {
      "id": "trip_40426209_20250511_18567",
      "vehicleId": "40426209",
      "driverId": "20000002",
      "startMs": 1746944193000,
      "endMs": 1746946413000,
      "startAddress": "2570 Horne Pine Apt. 278",
      "endAddress": "64603 Mcbride Radial",
      "startCoords": {
        "latitude": 39.712201,
        "longitude": -105.012604
      },
      "endCoords": {
        "latitude": 39.718937,
        "longitude": -104.955159
      },
      "distanceMeters": 17218.6,
      "durationMs": 2220000,
      "drivingDurationMs": 1862181,
      "idlingDurationMs": 357819,
      "fuelConsumedMl": 3857,
      "fuelConsumedGallons": 1.019,
      "maxSpeedMph": 46.9,
      "averageSpeedMph": 17.3,
      "safetyEvents": []
    },
    {
      "id": "trip_40426209_20250511_18592",
      "vehicleId": "40426209",
      "driverId": "20000022",
      "startMs": 1746965622000,
      "endMs": 1746967662000,
      "startAddress": "142 Melissa Brooks",
      "endAddress": "0703 Brooks Causeway Apt. 953",
      "startCoords": {
        "latitude": 39.712068,
        "longitude": -105.035029
      },
      "endCoords": {
        "latitude": 39.740739,
        "longitude": -105.029441
      },
      "distanceMeters": 19735.0,
      "durationMs": 2040000,
      "drivingDurationMs": 1647758,
      "idlingDurationMs": 392242,
      "fuelConsumedMl": 4421,
      "fuelConsumedGallons": 1.168,
      "maxSpeedMph": 53.0,
      "averageSpeedMph": 21.6,
      "safetyEvents": []
    },
    {
      "id": "trip_40426209_20250511_18617",
      "vehicleId": "40426209",
      "driverId": "20000013",
      "startMs": 1746981656000,
      "endMs": 1746983636000,
      "startAddress": "00216 Brianna Cliff",
      "endAddress": "9012 Derrick Ramp Apt. 350",
      "startCoords": {
        "latitude": 39.775341,
        "longitude": -104.967407
      },
      "endCoords": {
        "latitude": 39.779541,
        "longitude": -104.905624
      },
      "distanceMeters": 16365.9,
      "durationMs": 1980000,
      "drivingDurationMs": 1770009,
      "idlingDurationMs": 209991,
      "fuelConsumedMl": 3668,
      "fuelConsumedGallons": 0.969,
      "maxSpeedMph": 51.6,
      "averageSpeedMph": 18.5,
      "safetyEvents": []
    },
    {
      "id": "trip_40426209_20250511_18646",
      "vehicleId": "40426209",
      "driverId": "20000005",
      "startMs": 1747003972000,
      "endMs": 1747006012000,
      "startAddress": "96366 Fox Rest",
      "endAddress": "2540 Richardson Meadow Apt. 600",
      "startCoords": {
        "latitude": 39.701226,
        "longitude": -105.040307
      },
      "endCoords": {
        "latitude": 39.702462,
        "longitude": -105.021714
      },
      "distanceMeters": 14975.6,
      "durationMs": 2040000,
      "drivingDurationMs": 1539225,
      "idlingDurationMs": 500775,
      "fuelConsumedMl": 3354,
      "fuelConsumedGallons": 0.886,
      "maxSpeedMph": 41.6,
      "averageSpeedMph": 16.4,
      "safetyEvents": []
    },
    {
      "id": "trip_40426209_20250512_18673",
      "vehicleId": "40426209",
      "driverId": "20000014",
      "startMs": 1747035475000,
      "endMs": 1747047068000,
      "startAddress": "422 Danielle Underpass Apt. 079",
      "endAddress": "4691 Katherine Neck",
      "startCoords": {
        "latitude": 39.813048,
        "longitude": -105.028154
      },
      "endCoords": {
        "latitude": 39.810973,
        "longitude": -105.00908
      },
      "distanceMeters": 77653.4,
      "durationMs": 11593000,
      "drivingDurationMs": 9980361,
      "idlingDurationMs": 1612639,
      "fuelConsumedMl": 17394,
      "fuelConsumedGallons": 4.595,
      "maxSpeedMph": 57.0,
      "averageSpeedMph": 15.0,
      "safetyEvents": []
    },
    {
      "id": "trip_40426209_20250512_18699",
      "vehicleId": "40426209",
      "driverId": "20000007",
      "startMs": 1747051165000,
      "endMs": 1747055369000,
      "startAddress": "9001 Walter Drives Apt. 734",
      "endAddress": "29657 Caleb Road",
      "startCoords": {
        "latitude": 39.743153,
        "longitude": -105.042308
      },
      "endCoords": {
        "latitude": 39.68702,
        "longitude": -104.941294
      },
      "distanceMeters": 41064.0,
      "durationMs": 4204000,
      "drivingDurationMs": 3694800,
      "idlingDurationMs": 509200,
      "fuelConsumedMl": 9199,
      "fuelConsumedGallons": 2.43,
      "maxSpeedMph": 51.6,
      "averageSpeedMph": 21.9,
      "safetyEvents": []
    },
    {
      "id": "trip_40426209_20250512_18731",
      "vehicleId": "40426209",
      "driverId": "20000018",
      "startMs": 1747063885000,
      "endMs": 1747088107000,
      "startAddress": "0354 Owens Parkways",
      "endAddress": "85327 Barbara Mission Apt. 468",
      "startCoords": {
        "latitude": 39.811956,
        "longitude": -104.980834
      },
      "endCoords": {
        "latitude": 39.785958,
        "longitude": -105.01908
      },
      "distanceMeters": 158538.2,
      "durationMs": 24222000,
      "drivingDurationMs": 19438731,
      "idlingDurationMs": 4783269,
      "fuelConsumedMl": 35515,
      "fuelConsumedGallons": 9.382,
      "maxSpeedMph": 43.7,
      "averageSpeedMph": 14.6,
      "safetyEvents": []
    },
    {
      "id": "trip_40426209_20250512_18769",
      "vehicleId": "40426209",
      "driverId": "20000012",
      "startMs": 1747088956000,
      "endMs": 1747090996000,
      "startAddress": "683 Keith Inlet Apt. 036",
      "endAddress": "01531 Kimberly Overpass",
      "startCoords": {
        "latitude": 39.719175,
        "longitude": -105.066029
      },
      "endCoords": {
        "latitude": 39.697934,
        "longitude": -104.920227
      },
      "distanceMeters": 20150.4,
      "durationMs": 2040000,
      "drivingDurationMs": 1823320,
      "idlingDurationMs": 216680,
      "fuelConsumedMl": 4512,
      "fuelConsumedGallons": 1.192,
      "maxSpeedMph": 50.1,
      "averageSpeedMph": 22.1,
      "safetyEvents": []
    },
    {
      "id": "trip_40426209_20250513_18798",
      "vehicleId": "40426209",
      "driverId": "20000008",
      "startMs": 1747102155000,
      "endMs": 1747104135000,
      "startAddress": "471 Donna Meadows",
      "endAddress": "664 Christopher Track",
      "startCoords": {
        "latitude": 39.688246,
        "longitude": -105.071269
      },
      "endCoords": {
        "latitude": 39.739086,
        "longitude": -105.08264
      },
      "distanceMeters": 16112.6,
      "durationMs": 1980000,
      "drivingDurationMs": 1711437,
      "idlingDurationMs": 268563,
      "fuelConsumedMl": 3611,
      "fuelConsumedGallons": 0.954,
      "maxSpeedMph": 50.8,
      "averageSpeedMph": 18.2,
      "safetyEvents": []
    },
    {
      "id": "trip_40426209_20250513_18824",
      "vehicleId": "40426209",
      "driverId": "20000010",
      "startMs": 1747118646000,
      "endMs": 1747120686000,
      "startAddress": "2651 John Mountain Suite 575",
      "endAddress": "443 Wilson Via Suite 958",
      "startCoords": {
        "latitude": 39.820672,
        "longitude": -105.006925
      },
      "endCoords": {
        "latitude": 39.685474,
        "longitude": -104.935834
      },
      "distanceMeters": 17797.8,
      "durationMs": 2040000,
      "drivingDurationMs": 1554665,
      "idlingDurationMs": 485335,
      "fuelConsumedMl": 3986,
      "fuelConsumedGallons": 1.053,
      "maxSpeedMph": 55.0,
      "averageSpeedMph": 19.5,
      "safetyEvents": []
    },
    {
      "id": "trip_40426209_20250513_18857",
      "vehicleId": "40426209",
      "driverId": "20000007",
      "startMs": 1747135320000,
      "endMs": 1747141212000,
      "startAddress": "1627 Holmes Squares",
      "endAddress": "724 Keller Garden Suite 362",
      "startCoords": {
        "latitude": 39.780095,
        "longitude": -104.934921
      },
      "endCoords": {
        "latitude": 39.718997,
        "longitude": -104.970671
      },
      "distanceMeters": 61499.4,
      "durationMs": 5892000,
      "drivingDurationMs": 5056896,
      "idlingDurationMs": 835104,
      "fuelConsumedMl": 13775,
      "fuelConsumedGallons": 3.639,
      "maxSpeedMph": 41.5,
      "averageSpeedMph": 23.3,
      "safetyEvents": []
    },
    {
      "id": "trip_40426209_20250513_18886",
      "vehicleId": "40426209",
      "driverId": "20000013",
      "startMs": 1747151024000,
      "endMs": 1747157443000,
      "startAddress": "68575 Williams Light Suite 303",
      "endAddress": "415 Kelly Extensions Apt. 822",
      "startCoords": {
        "latitude": 39.76772,
        "longitude": -104.908381
      },
      "endCoords": {
        "latitude": 39.704012,
        "longitude": -104.903195
      },
      "distanceMeters": 47073.5,
      "durationMs": 6419000,
      "drivingDurationMs": 5166513,
      "idlingDurationMs": 1252487,
      "fuelConsumedMl": 10546,
      "fuelConsumedGallons": 2.786,
      "maxSpeedMph": 58.0,
      "averageSpeedMph": 16.4,
      "safetyEvents": []
    },
    {
      "id": "trip_40426209_20250513_18910",
      "vehicleId": "40426209",
      "driverId": "20000016",
      "startMs": 1747162647000,
      "endMs": 1747175348000,
      "startAddress": "122 Lauren Prairie",
      "endAddress": "7652 Dwayne View",
      "startCoords": {
        "latitude": 39.777493,
        "longitude": -104.991923
      },
      "endCoords": {
        "latitude": 39.703254,
        "longitude": -104.979385
      },
      "distanceMeters": 107819.9,
      "durationMs": 12701000,
      "drivingDurationMs": 10999323,
      "idlingDurationMs": 1701677,
      "fuelConsumedMl": 24155,
      "fuelConsumedGallons": 6.381,
      "maxSpeedMph": 57.9,
      "averageSpeedMph": 19.0,
      "safetyEvents": []
    },
    {
      "id": "trip_40426209_20250513_18943",
      "vehicleId": "40426209",
      "driverId": "20000007",
      "startMs": 1747179393000,
      "endMs": 1747181313000,
      "startAddress": "945 Hernandez Land",
      "endAddress": "594 Stephen Terrace Apt. 804",
      "startCoords": {
        "latitude": 39.78264,
        "longitude": -105.03809
      },
      "endCoords": {
        "latitude": 39.712595,
        "longitude": -104.927111
      },
      "distanceMeters": 20027.5,
      "durationMs": 1920000,
      "drivingDurationMs": 1503082,
      "idlingDurationMs": 416918,
      "fuelConsumedMl": 4486,
      "fuelConsumedGallons": 1.185,
      "maxSpeedMph": 52.4,
      "averageSpeedMph": 23.3,
      "safetyEvents": []
    },
    {
      "id": "trip_40426209_20250514_18972",
      "vehicleId": "40426209",
      "driverId": "20000012",
      "startMs": 1747192583000,
      "endMs": 1747196645000,
      "startAddress": "980 Daniel Harbor",
      "endAddress": "54812 Kelly Trail",
      "startCoords": {
        "latitude": 39.733941,
        "longitude": -105.056583
      },
      "endCoords": {
        "latitude": 39.818265,
        "longitude": -105.035356
      },
      "distanceMeters": 45065.6,
      "durationMs": 4062000,
      "drivingDurationMs": 3510804,
      "idlingDurationMs": 551196,
      "fuelConsumedMl": 10096,
      "fuelConsumedGallons": 2.667,
      "maxSpeedMph": 58.7,
      "averageSpeedMph": 24.8,
      "safetyEvents": []
    },
    {
      "id": "trip_40426209_20250514_19000",
      "vehicleId": "40426209",
      "driverId": "20000005",
      "startMs": 1747210462000,
      "endMs": 1747213205000,
      "startAddress": "91758 Stewart Rapid",
      "endAddress": "8423 Hernandez Stravenue",
      "startCoords": {
        "latitude": 39.794833,
        "longitude": -104.982344
      },
      "endCoords": {
        "latitude": 39.759289,
        "longitude": -104.984157
      },
      "distanceMeters": 27203.6,
      "durationMs": 2743000,
      "drivingDurationMs": 2434531,
      "idlingDurationMs": 308469,
      "fuelConsumedMl": 6095,
      "fuelConsumedGallons": 1.61,
      "maxSpeedMph": 48.6,
      "averageSpeedMph": 22.2,
      "safetyEvents": []
    },
    {
      "id": "trip_40426209_20250514_19028",
      "vehicleId": "40426209",
      "driverId": "20000018",
      "startMs": 1747224355000,
      "endMs": 1747226575000,
      "startAddress": "463 Heather Mountains",
      "endAddress": "73606 George Branch Suite 830",
      "startCoords": {
        "latitude": 39.786567,
        "longitude": -105.033275
      },
      "endCoords": {
        "latitude": 39.707763,
        "longitude": -104.980888
      },
      "distanceMeters": 17593.6,
      "durationMs": 2220000,
      "drivingDurationMs": 1781043,
      "idlingDurationMs": 438957,
      "fuelConsumedMl": 3941,
      "fuelConsumedGallons": 1.041,
      "maxSpeedMph": 53.7,
      "averageSpeedMph": 17.7,
      "safetyEvents": []
    },
    {
      "id": "trip_40426209_20250514_19059",
      "vehicleId": "40426209",
      "driverId": "20000021",
      "startMs": 1747237568000,
      "endMs": 1747239368000,
      "startAddress": "048 Perez Run",
      "endAddress": "830 Shelton Isle Apt. 415",
      "startCoords": {
        "latitude": 39.726133,
        "longitude": -105.028498
      },
      "endCoords": {
        "latitude": 39.803426,
        "longitude": -104.975366
      },
      "distanceMeters": 19215.6,
      "durationMs": 1800000,
      "drivingDurationMs": 1406851,
      "idlingDurationMs": 393149,
      "fuelConsumedMl": 4304,
      "fuelConsumedGallons": 1.137,
      "maxSpeedMph": 47.4,
      "averageSpeedMph": 23.9,
      "safetyEvents": []
    },
    {
      "id": "trip_40426209_20250514_19083",
      "vehicleId": "40426209",
      "driverId": "20000022",
      "startMs": 1747249227000,
      "endMs": 1747251207000,
      "startAddress": "9515 Estrada Lodge Suite 918",
      "endAddress": "30507 Sutton Lodge",
      "startCoords": {
        "latitude": 39.727559,
        "longitude": -104.992864
      },
      "endCoords": {
        "latitude": 39.793708,
        "longitude": -105.019962
      },
      "distanceMeters": 19952.1,
      "durationMs": 1980000,
      "drivingDurationMs": 1652104,
      "idlingDurationMs": 327896,
      "fuelConsumedMl": 4471,
      "fuelConsumedGallons": 1.181,
      "maxSpeedMph": 47.7,
      "averageSpeedMph": 22.5,
      "safetyEvents": []
    },
    {
      "id": "trip_40426209_20250515_19115",
      "vehicleId": "40426209",
      "driverId": "20000012",
      "startMs": 1747269612000,
      "endMs": 1747271352000,
      "startAddress": "88151 Boyer Vista Suite 894",
      "endAddress": "07982 Willis Radial Apt. 394",
      "startCoords": {
        "latitude": 39.747055,
        "longitude": -105.023765
      },
      "endCoords": {
        "latitude": 39.810873,
        "longitude": -105.067661
      },
      "distanceMeters": 14301.7,
      "durationMs": 1740000,
      "drivingDurationMs": 1557456,
      "idlingDurationMs": 182544,
      "fuelConsumedMl": 3202,
      "fuelConsumedGallons": 0.846,
      "maxSpeedMph": 47.3,
      "averageSpeedMph": 18.4,
      "safetyEvents": []
    },
    {
      "id": "trip_40426209_20250515_19148",
      "vehicleId": "40426209",
      "driverId": "20000008",
      "startMs": 1747287980000,
      "endMs": 1747290620000,
      "startAddress": "91549 Thomas Mountains",
      "endAddress": "94607 Davis Crossroad Suite 508",
      "startCoords": {
        "latitude": 39.783364,
        "longitude": -104.982601
      },
      "endCoords": {
        "latitude": 39.787428,
        "longitude": -104.957487
      },
      "distanceMeters": 29293.3,
      "durationMs": 2640000,
      "drivingDurationMs": 2298185,
      "idlingDurationMs": 341815,
      "fuelConsumedMl": 6564,
      "fuelConsumedGallons": 1.734,
      "maxSpeedMph": 50.1,
      "averageSpeedMph": 24.8,
      "safetyEvents": []
    },
    {
      "id": "trip_40426209_20250515_19175",
      "vehicleId": "40426209",
      "driverId": "20000001",
      "startMs": 1747302086000,
      "endMs": 1747313712000,
      "startAddress": "87060 Lucero Village Suite 753",
      "endAddress": "46230 Reilly Pass",
      "startCoords": {
        "latitude": 39.785724,
        "longitude": -104.902877
      },
      "endCoords": {
        "latitude": 39.802755,
        "longitude": -104.979599
      },
      "distanceMeters": 114948.3,
      "durationMs": 11626000,
      "drivingDurationMs": 9806937,
      "idlingDurationMs": 1819063,
      "fuelConsumedMl": 25748,
      "fuelConsumedGallons": 6.802,
      "maxSpeedMph": 45.9,
      "averageSpeedMph": 22.1,
      "safetyEvents": []
    },
    {
      "id": "trip_40426209_20250515_19206",
      "vehicleId": "40426209",
      "driverId": "20000016",
      "startMs": 1747316451000,
      "endMs": 1747318311000,
      "startAddress": "073 Casey Streets Apt. 885",
      "endAddress": "75282 Kim Junctions",
      "startCoords": {
        "latitude": 39.71355,
        "longitude": -104.937952
      },
      "endCoords": {
        "latitude": 39.807411,
        "longitude": -105.04734
      },
      "distanceMeters": 12704.6,
      "durationMs": 1860000,
      "drivingDurationMs": 1426097,
      "idlingDurationMs": 433903,
      "fuelConsumedMl": 2847,
      "fuelConsumedGallons": 0.752,
      "maxSpeedMph": 46.6,
      "averageSpeedMph": 15.3,
      "safetyEvents": []
    },
    {
      "id": "trip_40426209_20250515_19233",
      "vehicleId": "40426209",
      "driverId": "20000020",
      "startMs": 1747332858000,
      "endMs": 1747360439000,
      "startAddress": "29895 Erin Bridge Apt. 488",
      "endAddress": "02322 Ricky Garden",
      "startCoords": {
        "latitude": 39.687977,
        "longitude": -104.974655
      },
      "endCoords": {
        "latitude": 39.767992,
        "longitude": -105.079232
      },
      "distanceMeters": 264373.0,
      "durationMs": 27581000,
      "drivingDurationMs": 20946949,
      "idlingDurationMs": 6634051,
      "fuelConsumedMl": 59223,
      "fuelConsumedGallons": 15.645,
      "maxSpeedMph": 41.0,
      "averageSpeedMph": 21.4,
      "safetyEvents": []
    },
    {
      "id": "trip_40426209_20250516_19281",
      "vehicleId": "40426209",
      "driverId": "20000018",
      "startMs": 1747360772000,
      "endMs": 1747365784000,
      "startAddress": "8793 Simon Bypass Suite 039",
      "endAddress": "057 Fisher Mountains",
      "startCoords": {
        "latitude": 39.813399,
        "longitude": -104.993632
      },
      "endCoords": {
        "latitude": 39.759679,
        "longitude": -104.916404
      },
      "distanceMeters": 55776.7,
      "durationMs": 5012000,
      "drivingDurationMs": 4155666,
      "idlingDurationMs": 856334,
      "fuelConsumedMl": 12496,
      "fuelConsumedGallons": 3.301,
      "maxSpeedMph": 62.1,
      "averageSpeedMph": 24.9,
      "safetyEvents": []
    },
    {
      "id": "trip_40426209_20250516_19314",
      "vehicleId": "40426209",
      "driverId": "20000010",
      "startMs": 1747381336000,
      "endMs": 1747388333000,
      "startAddress": "46460 Brown Isle Suite 678",
      "endAddress": "800 Amy Mission Apt. 609",
      "startCoords": {
        "latitude": 39.784804,
        "longitude": -104.932239
      },
      "endCoords": {
        "latitude": 39.709763,
        "longitude": -105.038247
      },
      "distanceMeters": 50247.8,
      "durationMs": 6997000,
      "drivingDurationMs": 6032200,
      "idlingDurationMs": 964800,
      "fuelConsumedMl": 11258,
      "fuelConsumedGallons": 2.974,
      "maxSpeedMph": 41.0,
      "averageSpeedMph": 16.1,
      "safetyEvents": []
    },
    {
      "id": "trip_40426209_20250516_19343",
      "vehicleId": "40426209",
      "driverId": "20000010",
      "startMs": 1747395982000,
      "endMs": 1747398142000,
      "startAddress": "286 Jennifer Dale",
      "endAddress": "84625 Brittany River",
      "startCoords": {
        "latitude": 39.689043,
        "longitude": -105.034378
      },
      "endCoords": {
        "latitude": 39.771611,
        "longitude": -104.933005
      },
      "distanceMeters": 24482.0,
      "durationMs": 2160000,
      "drivingDurationMs": 1804482,
      "idlingDurationMs": 355518,
      "fuelConsumedMl": 5485,
      "fuelConsumedGallons": 1.449,
      "maxSpeedMph": 61.1,
      "averageSpeedMph": 25.4,
      "safetyEvents": []
    },
    {
      "id": "trip_40426209_20250516_19375",
      "vehicleId": "40426209",
      "driverId": "20000002",
      "startMs": 1747412644000,
      "endMs": 1747417743000,
      "startAddress": "4845 Frederick Wells",
      "endAddress": "0841 Navarro Corners Suite 692",
      "startCoords": {
        "latitude": 39.766941,
        "longitude": -104.976149
      },
      "endCoords": {
        "latitude": 39.771712,
        "longitude": -104.92988
      },
      "distanceMeters": 53034.5,
      "durationMs": 5099000,
      "drivingDurationMs": 4494252,
      "idlingDurationMs": 604748,
      "fuelConsumedMl": 11879,
      "fuelConsumedGallons": 3.138,
      "maxSpeedMph": 55.4,
      "averageSpeedMph": 23.3,
      "safetyEvents": []
    },
    {
      "id": "trip_40426209_20250516_19400",
      "vehicleId": "40426209",
      "driverId": "20000004",
      "startMs": 1747423899000,
      "endMs": 1747434257000,
      "startAddress": "5090 Dennis Junction",
      "endAddress": "26123 Kelly Hill Apt. 899",
      "startCoords": {
        "latitude": 39.709742,
        "longitude": -104.99323
      },
      "endCoords": {
        "latitude": 39.816514,
        "longitude": -105.085993
      },
      "distanceMeters": 84812.4,
      "durationMs": 10358000,
      "drivingDurationMs": 8387957,
      "idlingDurationMs": 1970043,
      "fuelConsumedMl": 18999,
      "fuelConsumedGallons": 5.019,
      "maxSpeedMph": 51.7,
      "averageSpeedMph": 18.3,
      "safetyEvents": []
    },
    {
      "id": "trip_40426209_20250517_19433",
      "vehicleId": "40426209",
      "driverId": "20000020",
      "startMs": 1747441154000,
      "endMs": 1747442774000,
      "startAddress": "137 Nichols Forest",
      "endAddress": "59321 Smith Wall",
      "startCoords": {
        "latitude": 39.717421,
        "longitude": -105.047275
      },
      "endCoords": {
        "latitude": 39.726951,
        "longitude": -104.941159
      },
      "distanceMeters": 11373.6,
      "durationMs": 1620000,
      "drivingDurationMs": 1414423,
      "idlingDurationMs": 205577,
      "fuelConsumedMl": 2548,
      "fuelConsumedGallons": 0.673,
      "maxSpeedMph": 49.6,
      "averageSpeedMph": 15.7,
      "safetyEvents": []
    },
    {
      "id": "trip_40426209_20250517_19459",
      "vehicleId": "40426209",
      "driverId": "20000009",
      "startMs": 1747460196000,
      "endMs": 1747475042000,
      "startAddress": "4383 Jennifer Plaza",
      "endAddress": "90631 Paul Trafficway",
      "startCoords": {
        "latitude": 39.714311,
        "longitude": -104.993097
      },
      "endCoords": {
        "latitude": 39.7935,
        "longitude": -105.058072
      },
      "distanceMeters": 139486.7,
      "durationMs": 14846000,
      "drivingDurationMs": 13011013,
      "idlingDurationMs": 1834987,
      "fuelConsumedMl": 31249,
      "fuelConsumedGallons": 8.255,
      "maxSpeedMph": 46.7,
      "averageSpeedMph": 21.0,
      "safetyEvents": []
    },
    {
      "id": "trip_40426209_20250517_19492",
      "vehicleId": "40426209",
      "driverId": "20000015",
      "startMs": 1747480592000,
      "endMs": 1747491677000,
      "startAddress": "7484 William Port Apt. 083",
      "endAddress": "1081 Michael Street",
      "startCoords": {
        "latitude": 39.724807,
        "longitude": -104.971494
      },
      "endCoords": {
        "latitude": 39.758342,
        "longitude": -104.998939
      },
      "distanceMeters": 91140.5,
      "durationMs": 11085000,
      "drivingDurationMs": 9270565,
      "idlingDurationMs": 1814435,
      "fuelConsumedMl": 20419,
      "fuelConsumedGallons": 5.394,
      "maxSpeedMph": 49.0,
      "averageSpeedMph": 18.4,
      "safetyEvents": []
    },
    {
      "id": "trip_40426209_20250517_19522",
      "vehicleId": "40426209",
      "driverId": "20000014",
      "startMs": 1747497886000,
      "endMs": 1747503236000,
      "startAddress": "859 Emily Loaf",
      "endAddress": "87152 Forbes Cove",
      "startCoords": {
        "latitude": 39.755614,
        "longitude": -104.920544
      },
      "endCoords": {
        "latitude": 39.728649,
        "longitude": -104.953214
      },
      "distanceMeters": 44248.1,
      "durationMs": 5350000,
      "drivingDurationMs": 4487914,
      "idlingDurationMs": 862086,
      "fuelConsumedMl": 9914,
      "fuelConsumedGallons": 2.619,
      "maxSpeedMph": 41.5,
      "averageSpeedMph": 18.5,
      "safetyEvents": []
    },
    {
      "id": "trip_40426209_20250517_19552",
      "vehicleId": "40426209",
      "driverId": "20000020",
      "startMs": 1747511607000,
      "endMs": 1747515314000,
      "startAddress": "32438 Hull Lodge Suite 100",
      "endAddress": "271 William Loop Apt. 714",
      "startCoords": {
        "latitude": 39.809446,
        "longitude": -104.910185
      },
      "endCoords": {
        "latitude": 39.69578,
        "longitude": -104.971726
      },
      "distanceMeters": 26054.0,
      "durationMs": 3707000,
      "drivingDurationMs": 2780509,
      "idlingDurationMs": 926491,
      "fuelConsumedMl": 5837,
      "fuelConsumedGallons": 1.542,
      "maxSpeedMph": 61.9,
      "averageSpeedMph": 15.7,
      "safetyEvents": []
    },
    {
      "id": "trip_40426209_20250518_19580",
      "vehicleId": "40426209",
      "driverId": "20000015",
      "startMs": 1747536282000,
      "endMs": 1747538322000,
      "startAddress": "619 Melanie Skyway Suite 729",
      "endAddress": "68549 Spencer Heights",
      "startCoords": {
        "latitude": 39.735157,
        "longitude": -105.042313
      },
      "endCoords": {
        "latitude": 39.809752,
        "longitude": -105.046045
      },
      "distanceMeters": 18135.6,
      "durationMs": 2040000,
      "drivingDurationMs": 1556793,
      "idlingDurationMs": 483207,
      "fuelConsumedMl": 4062,
      "fuelConsumedGallons": 1.073,
      "maxSpeedMph": 60.0,
      "averageSpeedMph": 19.9,
      "safetyEvents": []
    },
    {
      "id": "trip_40426209_20250518_19609",
      "vehicleId": "40426209",
      "driverId": "20000013",
      "startMs": 1747556366000,
      "endMs": 1747560538000,
      "startAddress": "247 Mercer Center",
      "endAddress": "47046 Campbell Camp",
      "startCoords": {
        "latitude": 39.795992,
        "longitude": -104.946655
      },
      "endCoords": {
        "latitude": 39.70394,
        "longitude": -104.996583
      },
      "distanceMeters": 27416.8,
      "durationMs": 4172000,
      "drivingDurationMs": 3415596,
      "idlingDurationMs": 756404,
      "fuelConsumedMl": 6140,
      "fuelConsumedGallons": 1.622,
      "maxSpeedMph": 49.5,
      "averageSpeedMph": 14.7,
      "safetyEvents": []
    },
    {
      "id": "trip_40426209_20250518_19633",
      "vehicleId": "40426209",
      "driverId": "20000011",
      "startMs": 1747574079000,
      "endMs": 1747576239000,
      "startAddress": "3022 King Drives",
      "endAddress": "4649 Reed Lodge Apt. 912",
      "startCoords": {
        "latitude": 39.712148,
        "longitude": -105.057411
      },
      "endCoords": {
        "latitude": 39.750087,
        "longitude": -104.931594
      },
      "distanceMeters": 23607.9,
      "durationMs": 2160000,
      "drivingDurationMs": 1800671,
      "idlingDurationMs": 359329,
      "fuelConsumedMl": 5288,
      "fuelConsumedGallons": 1.397,
      "maxSpeedMph": 59.2,
      "averageSpeedMph": 24.4,
      "safetyEvents": []
    },
    {
      "id": "trip_40426209_20250518_19662",
      "vehicleId": "40426209",
      "driverId": "20000012",
      "startMs": 1747595572000,
      "endMs": 1747597672000,
      "startAddress": "96556 Aaron Island",
      "endAddress": "1247 Roman Ramp",
      "startCoords": {
        "latitude": 39.796804,
        "longitude": -104.993657
      },
      "endCoords": {
        "latitude": 39.685861,
        "longitude": -105.067623
      },
      "distanceMeters": 20347.2,
      "durationMs": 2100000,
      "drivingDurationMs": 1659950,
      "idlingDurationMs": 440050,
      "fuelConsumedMl": 4558,
      "fuelConsumedGallons": 1.204,
      "maxSpeedMph": 49.2,
      "averageSpeedMph": 21.7,
      "safetyEvents": []
    },
    {
      "id": "trip_40426209_20250519_19690",
      "vehicleId": "40426209",
      "driverId": "20000008",
      "startMs": 1747645845000,
      "endMs": 1747648185000,
      "startAddress": "701 Justin Locks",
      "endAddress": "33844 Larson Vista Apt. 968",
      "startCoords": {
        "latitude": 39.767362,
        "longitude": -104.930222
      },
      "endCoords": {
        "latitude": 39.786514,
        "longitude": -105.071905
      },
      "distanceMeters": 17898.2,
      "durationMs": 2340000,
      "drivingDurationMs": 2001660,
      "idlingDurationMs": 338340,
      "fuelConsumedMl": 4009,
      "fuelConsumedGallons": 1.059,
      "maxSpeedMph": 58.8,
      "averageSpeedMph": 17.1,
      "safetyEvents": []
    },
    {
      "id": "trip_40426209_20250519_19721",
      "vehicleId": "40426209",
      "driverId": "20000020",
      "startMs": 1747659843000,
      "endMs": 1747662087000,
      "startAddress": "9336 Valentine Pines",
      "endAddress": "8943 Abbott Gardens Apt. 348",
      "startCoords": {
        "latitude": 39.799974,
        "longitude": -105.029402
      },
      "endCoords": {
        "latitude": 39.735498,
        "longitude": -104.913546
      },
      "distanceMeters": 13552.3,
      "durationMs": 2244000,
      "drivingDurationMs": 1708909,
      "idlingDurationMs": 535091,
      "fuelConsumedMl": 3036,
      "fuelConsumedGallons": 0.802,
      "maxSpeedMph": 48.2,
      "averageSpeedMph": 13.5,
      "safetyEvents": []
    },
    {
      "id": "trip_40426209_20250519_19749",
      "vehicleId": "40426209",
      "driverId": "20000001",
      "startMs": 1747674584000,
      "endMs": 1747685185000,
      "startAddress": "32314 Hicks Cove Suite 118",
      "endAddress": "38244 Gonzalez Camp",
      "startCoords": {
        "latitude": 39.695665,
        "longitude": -105.051338
      },
      "endCoords": {
        "latitude": 39.693006,
        "longitude": -105.078952
      },
      "distanceMeters": 75889.4,
      "durationMs": 10601000,
      "drivingDurationMs": 9211085,
      "idlingDurationMs": 1389915,
      "fuelConsumedMl": 17000,
      "fuelConsumedGallons": 4.491,
      "maxSpeedMph": 50.0,
      "averageSpeedMph": 16.0,
      "safetyEvents": []
    },
    {
      "id": "trip_40426209_20250519_19779",
      "vehicleId": "40426209",
      "driverId": "20000012",
      "startMs": 1747693581000,
      "endMs": 1747695381000,
      "startAddress": "4103 Kelley Gateway",
      "endAddress": "52019 Jack Village",
      "startCoords": {
        "latitude": 39.738394,
        "longitude": -104.972453
      },
      "endCoords": {
        "latitude": 39.751834,
        "longitude": -104.90973
      },
      "distanceMeters": 19673.2,
      "durationMs": 1800000,
      "drivingDurationMs": 1552590,
      "idlingDurationMs": 247410,
      "fuelConsumedMl": 4406,
      "fuelConsumedGallons": 1.164,
      "maxSpeedMph": 61.9,
      "averageSpeedMph": 24.4,
      "safetyEvents": []
    },
    {
      "id": "trip_40426209_20250520_19806",
      "vehicleId": "40426209",
      "driverId": "20000010",
      "startMs": 1747709620000,
      "endMs": 1747716202000,
      "startAddress": "6733 Eric Glen",
      "endAddress": "5468 Hurst Parkways Apt. 497",
      "startCoords": {
        "latitude": 39.805548,
        "longitude": -104.903041
      },
      "endCoords": {
        "latitude": 39.689833,
        "longitude": -105.013819
      },
      "distanceMeters": 41992.8,
      "durationMs": 6582000,
      "drivingDurationMs": 5368676,
      "idlingDurationMs": 1213324,
      "fuelConsumedMl": 9407,
      "fuelConsumedGallons": 2.485,
      "maxSpeedMph": 50.2,
      "averageSpeedMph": 14.3,
      "safetyEvents": []
    },
    {
      "id": "trip_40426209_20250520_19833",
      "vehicleId": "40426209",
      "driverId": "20000014",
      "startMs": 1747725882000,
      "endMs": 1747757066000,
      "startAddress": "6684 Douglas Extensions Suite 149",
      "endAddress": "6470 David Hill Suite 047",
      "startCoords": {
        "latitude": 39.724513,
        "longitude": -104.942536
      },
      "endCoords": {
        "latitude": 39.686991,
        "longitude": -104.951164
      },
      "distanceMeters": 309176.7,
      "durationMs": 31184000,
      "drivingDurationMs": 27206513,
      "idlingDurationMs": 3977487,
      "fuelConsumedMl": 69262,
      "fuelConsumedGallons": 18.297,
      "maxSpeedMph": 52.9,
      "averageSpeedMph": 22.2,
      "safetyEvents": []
    },
    {
      "id": "trip_40426209_20250520_19895",
      "vehicleId": "40426209",
      "driverId": "20000002",
      "startMs": 1747757444000,
      "endMs": 1747762807000,
      "startAddress": "395 Bell Gateway",
      "endAddress": "306 Shaun Prairie",
      "startCoords": {
        "latitude": 39.707078,
        "longitude": -105.027267
      },
      "endCoords": {
        "latitude": 39.73571,
        "longitude": -105.036647
      },
      "distanceMeters": 37177.2,
      "durationMs": 5363000,
      "drivingDurationMs": 4662113,
      "idlingDurationMs": 700887,
      "fuelConsumedMl": 8328,
      "fuelConsumedGallons": 2.2,
      "maxSpeedMph": 44.3,
      "averageSpeedMph": 15.5,
      "safetyEvents": []
    },
    {
      "id": "trip_40426209_20250520_19926",
      "vehicleId": "40426209",
      "driverId": "20000010",
      "startMs": 1747773226000,
      "endMs": 1747776650000,
      "startAddress": "28387 Faulkner Drives",
      "endAddress": "2919 Sara Lodge Suite 249",
      "startCoords": {
        "latitude": 39.80389,
        "longitude": -105.027926
      },
      "endCoords": {
        "latitude": 39.79541,
        "longitude": -105.075497
      },
      "distanceMeters": 23625.0,
      "durationMs": 3424000,
      "drivingDurationMs": 2922361,
      "idlingDurationMs": 501639,
      "fuelConsumedMl": 5292,
      "fuelConsumedGallons": 1.398,
      "maxSpeedMph": 44.4,
      "averageSpeedMph": 15.4,
      "safetyEvents": []
    },
    {
      "id": "trip_40426209_20250521_19956",
      "vehicleId": "40426209",
      "driverId": "20000001",
      "startMs": 1747792874000,
      "endMs": 1747812473000,
      "startAddress": "817 Lawrence Drives Apt. 157",
      "endAddress": "0805 Mccoy Mills Suite 569",
      "startCoords": {
        "latitude": 39.688411,
        "longitude": -104.967927
      },
      "endCoords": {
        "latitude": 39.764896,
        "longitude": -105.059468
      },
      "distanceMeters": 150491.7,
      "durationMs": 19599000,
      "drivingDurationMs": 15098876,
      "idlingDurationMs": 4500124,
      "fuelConsumedMl": 33713,
      "fuelConsumedGallons": 8.906,
      "maxSpeedMph": 58.3,
      "averageSpeedMph": 17.2,
      "safetyEvents": []
    },
    {
      "id": "trip_40426209_20250521_19985",
      "vehicleId": "40426209",
      "driverId": "20000016",
      "startMs": 1747814219000,
      "endMs": 1747816019000,
      "startAddress": "6083 Eric Mount Suite 622",
      "endAddress": "00985 Ford Island",
      "startCoords": {
        "latitude": 39.822118,
        "longitude": -105.004158
      },
      "endCoords": {
        "latitude": 39.763929,
        "longitude": -104.965974
      },
      "distanceMeters": 12657.3,
      "durationMs": 1800000,
      "drivingDurationMs": 1565159,
      "idlingDurationMs": 234841,
      "fuelConsumedMl": 2835,
      "fuelConsumedGallons": 0.749,
      "maxSpeedMph": 48.6,
      "averageSpeedMph": 15.7,
      "safetyEvents": []
    },
    {
      "id": "trip_40426209_20250521_20015",
      "vehicleId": "40426209",
      "driverId": "20000019",
      "startMs": 1747831340000,
      "endMs": 1747832600000,
      "startAddress": "8065 Donovan Track",
      "endAddress": "47385 Pedro Orchard Suite 067",
      "startCoords": {
        "latitude": 39.767736,
        "longitude": -105.031285
      },
      "endCoords": {
        "latitude": 39.761934,
        "longitude": -105.010035
      },
      "distanceMeters": 13029.7,
      "durationMs": 1260000,
      "drivingDurationMs": 1022414,
      "idlingDurationMs": 237586,
      "fuelConsumedMl": 2919,
      "fuelConsumedGallons": 0.771,
      "maxSpeedMph": 45.2,
      "averageSpeedMph": 23.1,
      "safetyEvents": []
    },
    {
      "id": "trip_40426209_20250521_20046",
      "vehicleId": "40426209",
      "driverId": "20000007",
      "startMs": 1747848960000,
      "endMs": 1747853340000,
      "startAddress": "947 Crystal Coves Suite 967",
      "endAddress": "640 Trevor Dale Suite 687",
      "startCoords": {
        "latitude": 39.690633,
        "longitude": -104.922588
      },
      "endCoords": {
        "latitude": 39.695873,
        "longitude": -105.037439
      },
      "distanceMeters": 44172.9,
      "durationMs": 4380000,
      "drivingDurationMs": 3920200,
      "idlingDurationMs": 459800,
      "fuelConsumedMl": 9895,
      "fuelConsumedGallons": 2.614,
      "maxSpeedMph": 44.7,
      "averageSpeedMph": 22.6,
      "safetyEvents": []
    },
    {
      "id": "trip_40426209_20250521_20072",
      "vehicleId": "40426209",
      "driverId": "20000018",
      "startMs": 1747856965000,
      "endMs": 1747863311000,
      "startAddress": "935 Zuniga Plains",
      "endAddress": "383 Ingram Plain",
      "startCoords": {
        "latitude": 39.751325,
        "longitude": -105.02582
      },
      "endCoords": {
        "latitude": 39.733028,
        "longitude": -104.95661
      },
      "distanceMeters": 62248.8,
      "durationMs": 6346000,
      "drivingDurationMs": 4910929,
      "idlingDurationMs": 1435071,
      "fuelConsumedMl": 13945,
      "fuelConsumedGallons": 3.684,
      "maxSpeedMph": 44.6,
      "averageSpeedMph": 21.9,
      "safetyEvents": []
    },
    {
      "id": "trip_40426209_20250522_20105",
      "vehicleId": "40426209",
      "driverId": "20000012",
      "startMs": 1747874384000,
      "endMs": 1747882741000,
      "startAddress": "083 Dawson Points",
      "endAddress": "53855 Carroll Terrace Suite 830",
      "startCoords": {
        "latitude": 39.822235,
        "longitude": -105.050616
      },
      "endCoords": {
        "latitude": 39.802747,
        "longitude": -104.90081
      },
      "distanceMeters": 71362.7,
      "durationMs": 8357000,
      "drivingDurationMs": 6331438,
      "idlingDurationMs": 2025562,
      "fuelConsumedMl": 15986,
      "fuelConsumedGallons": 4.223,
      "maxSpeedMph": 60.2,
      "averageSpeedMph": 19.1,
      "safetyEvents": []
    },
    {
      "id": "trip_40426209_20250522_20137",
      "vehicleId": "40426209",
      "driverId": "20000001",
      "startMs": 1747899093000,
      "endMs": 1747902098000,
      "startAddress": "22812 Blackwell Corner Suite 916",
      "endAddress": "73671 Montes Glens Suite 575",
      "startCoords": {
        "latitude": 39.684075,
        "longitude": -104.921995
      },
      "endCoords": {
        "latitude": 39.759776,
        "longitude": -105.038394
      },
      "distanceMeters": 26277.5,
      "durationMs": 3005000,
      "drivingDurationMs": 2652829,
      "idlingDurationMs": 352171,
      "fuelConsumedMl": 5886,
      "fuelConsumedGallons": 1.555,
      "maxSpeedMph": 55.6,
      "averageSpeedMph": 19.6,
      "safetyEvents": []
    },
    {
      "id": "trip_40426209_20250522_20166",
      "vehicleId": "40426209",
      "driverId": "20000014",
      "startMs": 1747913381000,
      "endMs": 1747922817000,
      "startAddress": "465 Gina Hills",
      "endAddress": "09812 Weeks Gateway",
      "startCoords": {
        "latitude": 39.724891,
        "longitude": -104.924616
      },
      "endCoords": {
        "latitude": 39.703119,
        "longitude": -104.970536
      },
      "distanceMeters": 106231.8,
      "durationMs": 9436000,
      "drivingDurationMs": 7925053,
      "idlingDurationMs": 1510947,
      "fuelConsumedMl": 23799,
      "fuelConsumedGallons": 6.287,
      "maxSpeedMph": 59.7,
      "averageSpeedMph": 25.2,
      "safetyEvents": []
    },
    {
      "id": "trip_40426209_20250522_20198",
      "vehicleId": "40426209",
      "driverId": "20000018",
      "startMs": 1747928984000,
      "endMs": 1747938670000,
      "startAddress": "6968 Tyler Springs",
      "endAddress": "899 Chang Place",
      "startCoords": {
        "latitude": 39.772336,
        "longitude": -105.056069
      },
      "endCoords": {
        "latitude": 39.716068,
        "longitude": -104.990871
      },
      "distanceMeters": 90462.0,
      "durationMs": 9686000,
      "drivingDurationMs": 7341854,
      "idlingDurationMs": 2344146,
      "fuelConsumedMl": 20263,
      "fuelConsumedGallons": 5.353,
      "maxSpeedMph": 60.7,
      "averageSpeedMph": 20.9,
      "safetyEvents": []
    },
    {
      "id": "trip_40426209_20250522_20229",
      "vehicleId": "40426209",
      "driverId": "20000021",
      "startMs": 1747943438000,
      "endMs": 1747945358000,
      "startAddress": "6573 Grace Prairie",
      "endAddress": "2211 Nathaniel Trafficway Suite 660",
      "startCoords": {
        "latitude": 39.80018,
        "longitude": -105.066511
      },
      "endCoords": {
        "latitude": 39.754226,
        "longitude": -104.904578
      },
      "distanceMeters": 18957.9,
      "durationMs": 1920000,
      "drivingDurationMs": 1724082,
      "idlingDurationMs": 195918,
      "fuelConsumedMl": 4247,
      "fuelConsumedGallons": 1.122,
      "maxSpeedMph": 52.8,
      "averageSpeedMph": 22.1,
      "safetyEvents": []
    },
    {
      "id": "trip_40426209_20250523_20256",
      "vehicleId": "40426209",
      "driverId": "20000004",
      "startMs": 1747958572000,
      "endMs": 1747960841000,
      "startAddress": "09731 Garrett Point",
      "endAddress": "6522 Torres Well",
      "startCoords": {
        "latitude": 39.825207,
        "longitude": -105.020124
      },
      "endCoords": {
        "latitude": 39.822236,
        "longitude": -104.903854
      },
      "distanceMeters": 23176.7,
      "durationMs": 2269000,
      "drivingDurationMs": 1744975,
      "idlingDurationMs": 524025,
      "fuelConsumedMl": 5194,
      "fuelConsumedGallons": 1.372,
      "maxSpeedMph": 55.4,
      "averageSpeedMph": 22.8,
      "safetyEvents": []
    },
    {
      "id": "trip_40426209_20250523_20281",
      "vehicleId": "40426209",
      "driverId": "20000008",
      "startMs": 1747974211000,
      "endMs": 1747975771000,
      "startAddress": "413 Robert Trail",
      "endAddress": "1018 Grant Rue Suite 542",
      "startCoords": {
        "latitude": 39.784032,
        "longitude": -104.98636
      },
      "endCoords": {
        "latitude": 39.720885,
        "longitude": -104.90388
      },
      "distanceMeters": 15813.2,
      "durationMs": 1560000,
      "drivingDurationMs": 1189715,
      "idlingDurationMs": 370285,
      "fuelConsumedMl": 3543,
      "fuelConsumedGallons": 0.936,
      "maxSpeedMph": 49.4,
      "averageSpeedMph": 22.7,
      "safetyEvents": []
    },
    {
      "id": "trip_40426209_20250523_20310",
      "vehicleId": "40426209",
      "driverId": "20000013",
      "startMs": 1747989797000,
      "endMs": 1747992197000,
      "startAddress": "613 Richards Walk",
      "endAddress": "804 Klein Trace Suite 417",
      "startCoords": {
        "latitude": 39.689973,
        "longitude": -105.041569
      },
      "endCoords": {
        "latitude": 39.806116,
        "longitude": -104.900277
      },
      "distanceMeters": 23119.3,
      "durationMs": 2400000,
      "drivingDurationMs": 1826904,
      "idlingDurationMs": 573096,
      "fuelConsumedMl": 5178,
      "fuelConsumedGallons": 1.368,
      "maxSpeedMph": 50.7,
      "averageSpeedMph": 21.5,
      "safetyEvents": []
    },
    {
      "id": "trip_40426209_20250523_20347",
      "vehicleId": "40426209",
      "driverId": "20000009",
      "startMs": 1748009487000,
      "endMs": 1748020140000,
      "startAddress": "89961 Gene Landing Suite 773",
      "endAddress": "162 Kathleen Street",
      "startCoords": {
        "latitude": 39.737696,
        "longitude": -105.001117
      },
      "endCoords": {
        "latitude": 39.703991,
        "longitude": -104.99664
      },
      "distanceMeters": 105969.4,
      "durationMs": 10653000,
      "drivingDurationMs": 8925577,
      "idlingDurationMs": 1727423,
      "fuelConsumedMl": 23738,
      "fuelConsumedGallons": 6.271,
      "maxSpeedMph": 52.3,
      "averageSpeedMph": 22.3,
      "safetyEvents": []
    },
    {
      "id": "trip_40426209_20250523_20376",
      "vehicleId": "40426209",
      "driverId": "20000007",
      "startMs": 1748024924000,
      "endMs": 1748026724000,
      "startAddress": "5912 Sandoval Station Apt. 245",
      "endAddress": "399 Michael Mountains",
      "startCoords": {
        "latitude": 39.820146,
        "longitude": -105.005912
      },
      "endCoords": {
        "latitude": 39.820582,
        "longitude": -105.019231
      },
      "distanceMeters": 16307.8,
      "durationMs": 1800000,
      "drivingDurationMs": 1572808,
      "idlingDurationMs": 227192,
      "fuelConsumedMl": 3653,
      "fuelConsumedGallons": 0.965,
      "maxSpeedMph": 51.1,
      "averageSpeedMph": 20.3,
      "safetyEvents": []
    },
    {
      "id": "trip_40426209_20250523_20406",
      "vehicleId": "40426209",
      "driverId": "20000008",
      "startMs": 1748040097000,
      "endMs": 1748041897000,
      "startAddress": "0660 Jose Village",
      "endAddress": "5095 Melissa Fords Apt. 374",
      "startCoords": {
        "latitude": 39.745395,
        "longitude": -104.967347
      },
      "endCoords": {
        "latitude": 39.712345,
        "longitude": -104.900103
      },
      "distanceMeters": 20175.4,
      "durationMs": 1800000,
      "drivingDurationMs": 1453220,
      "idlingDurationMs": 346780,
      "fuelConsumedMl": 4520,
      "fuelConsumedGallons": 1.194,
      "maxSpeedMph": 50.4,
      "averageSpeedMph": 25.1,
      "safetyEvents": []
    },
    {
      "id": "trip_40426209_20250524_20436",
      "vehicleId": "40426209",
      "driverId": "20000004",
      "startMs": 1748056601000,
      "endMs": 1748058161000,
      "startAddress": "95179 Perkins Lakes Apt. 951",
      "endAddress": "63971 Fields Light Suite 914",
      "startCoords": {
        "latitude": 39.716942,
        "longitude": -104.914333
      },
      "endCoords": {
        "latitude": 39.789885,
        "longitude": -104.914517
      },
      "distanceMeters": 13639.9,
      "durationMs": 1560000,
      "drivingDurationMs": 1278397,
      "idlingDurationMs": 281603,
      "fuelConsumedMl": 3055,
      "fuelConsumedGallons": 0.807,
      "maxSpeedMph": 50.7,
      "averageSpeedMph": 19.6,
      "safetyEvents": []
    },
    {
      "id": "trip_40426209_20250524_20464",
      "vehicleId": "40426209",
      "driverId": "20000007",
      "startMs": 1748075258000,
      "endMs": 1748077958000,
      "startAddress": "45891 Catherine Greens",
      "endAddress": "686 Flores Station",
      "startCoords": {
        "latitude": 39.710882,
        "longitude": -105.007486
      },
      "endCoords": {
        "latitude": 39.808417,
        "longitude": -104.954068
      },
      "distanceMeters": 21639.3,
      "durationMs": 2700000,
      "drivingDurationMs": 2304570,
      "idlingDurationMs": 395430,
      "fuelConsumedMl": 4849,
      "fuelConsumedGallons": 1.281,
      "maxSpeedMph": 50.9,
      "averageSpeedMph": 17.9,
      "safetyEvents": []
    },
    {
      "id": "trip_40426209_20250524_20491",
      "vehicleId": "40426209",
      "driverId": "20000022",
      "startMs": 1748086989000,
      "endMs": 1748092256000,
      "startAddress": "4093 Katherine Road Suite 913",
      "endAddress": "1471 Anderson Gardens Suite 950",
      "startCoords": {
        "latitude": 39.767714,
        "longitude": -104.989026
      },
      "endCoords": {
        "latitude": 39.765325,
        "longitude": -105.036069
      },
      "distanceMeters": 58166.4,
      "durationMs": 5267000,
      "drivingDurationMs": 4628544,
      "idlingDurationMs": 638456,
      "fuelConsumedMl": 13029,
      "fuelConsumedGallons": 3.442,
      "maxSpeedMph": 48.4,
      "averageSpeedMph": 24.7,
      "safetyEvents": []
    },
    {
      "id": "trip_40426209_20250524_20521",
      "vehicleId": "40426209",
      "driverId": "20000005",
      "startMs": 1748102892000,
      "endMs": 1748104932000,
      "startAddress": "6918 Matthew Gateway Apt. 498",
      "endAddress": "702 Gregory Point Apt. 778",
      "startCoords": {
        "latitude": 39.738563,
        "longitude": -105.055006
      },
      "endCoords": {
        "latitude": 39.807773,
        "longitude": -104.930486
      },
      "distanceMeters": 14015.3,
      "durationMs": 2040000,
      "drivingDurationMs": 1560029,
      "idlingDurationMs": 479971,
      "fuelConsumedMl": 3138,
      "fuelConsumedGallons": 0.829,
      "maxSpeedMph": 46.4,
      "averageSpeedMph": 15.4,
      "safetyEvents": []
    },
    {
      "id": "trip_40426209_20250524_20549",
      "vehicleId": "40426209",
      "driverId": "20000021",
      "startMs": 1748116377000,
      "endMs": 1748119682000,
      "startAddress": "521 Elizabeth Dam",
      "endAddress": "525 Reyes Viaduct",
      "startCoords": {
        "latitude": 39.769394,
        "longitude": -104.931081
      },
      "endCoords": {
        "latitude": 39.826384,
        "longitude": -105.033232
      },
      "distanceMeters": 29691.1,
      "durationMs": 3305000,
      "drivingDurationMs": 2967218,
      "idlingDurationMs": 337782,
      "fuelConsumedMl": 6651,
      "fuelConsumedGallons": 1.757,
      "maxSpeedMph": 40.7,
      "averageSpeedMph": 20.1,
      "safetyEvents": []
    },
    {
      "id": "trip_40426209_20250525_20577",
      "vehicleId": "40426209",
      "driverId": "20000007",
      "startMs": 1748132118000,
      "endMs": 1748138824000,
      "startAddress": "4088 King Islands Apt. 403",
      "endAddress": "5275 Dennis Harbors",
      "startCoords": {
        "latitude": 39.696164,
        "longitude": -105.000803
      },
      "endCoords": {
        "latitude": 39.705686,
        "longitude": -104.907691
      },
      "distanceMeters": 70177.6,
      "durationMs": 6706000,
      "drivingDurationMs": 5391843,
      "idlingDurationMs": 1314157,
      "fuelConsumedMl": 15721,
      "fuelConsumedGallons": 4.153,
      "maxSpeedMph": 44.7,
      "averageSpeedMph": 23.4,
      "safetyEvents": []
    },
    {
      "id": "trip_40426209_20250525_20607",
      "vehicleId": "40426209",
      "driverId": "20000012",
      "startMs": 1748154916000,
      "endMs": 1748161822000,
      "startAddress": "2324 Faith Spurs Suite 283",
      "endAddress": "2797 Patrick Drives",
      "startCoords": {
        "latitude": 39.75976,
        "longitude": -104.964312
      },
      "endCoords": {
        "latitude": 39.758633,
        "longitude": -104.996577
      },
      "distanceMeters": 68343.0,
      "durationMs": 6906000,
      "drivingDurationMs": 5430536,
      "idlingDurationMs": 1475464,
      "fuelConsumedMl": 15308,
      "fuelConsumedGallons": 4.044,
      "maxSpeedMph": 43.0,
      "averageSpeedMph": 22.1,
      "safetyEvents": []
    },
    {
      "id": "trip_40426209_20250525_20636",
      "vehicleId": "40426209",
      "driverId": "20000022",
      "startMs": 1748176654000,
      "endMs": 1748190004000,
      "startAddress": "8316 Andrews Fall",
      "endAddress": "96234 Marie Cape Suite 988",
      "startCoords": {
        "latitude": 39.786818,
        "longitude": -104.937081
      },
      "endCoords": {
        "latitude": 39.713855,
        "longitude": -104.963593
      },
      "distanceMeters": 90879.3,
      "durationMs": 13350000,
      "drivingDurationMs": 10836827,
      "idlingDurationMs": 2513173,
      "fuelConsumedMl": 20358,
      "fuelConsumedGallons": 5.378,
      "maxSpeedMph": 53.1,
      "averageSpeedMph": 15.2,
      "safetyEvents": []
    },
    {
      "id": "trip_40426209_20250525_20663",
      "vehicleId": "40426209",
      "driverId": "20000012",
      "startMs": 1748194201000,
      "endMs": 1748195761000,
      "startAddress": "568 Charles Squares Suite 476",
      "endAddress": "84218 Aguilar Ridges",
      "startCoords": {
        "latitude": 39.785454,
        "longitude": -104.993196
      },
      "endCoords": {
        "latitude": 39.72693,
        "longitude": -104.932239
      },
      "distanceMeters": 15346.3,
      "durationMs": 1560000,
      "drivingDurationMs": 1261606,
      "idlingDurationMs": 298394,
      "fuelConsumedMl": 3437,
      "fuelConsumedGallons": 0.908,
      "maxSpeedMph": 55.1,
      "averageSpeedMph": 22.0,
      "safetyEvents": []
    },
    {
      "id": "trip_40426209_20250526_20692",
      "vehicleId": "40426209",
      "driverId": "20000009",
      "startMs": 1748223157000,
      "endMs": 1748225317000,
      "startAddress": "962 Brown Run Suite 444",
      "endAddress": "004 Guerra Loaf Suite 110",
      "startCoords": {
        "latitude": 39.692353,
        "longitude": -104.962193
      },
      "endCoords": {
        "latitude": 39.722676,
        "longitude": -104.95556
      },
      "distanceMeters": 15781.0,
      "durationMs": 2160000,
      "drivingDurationMs": 1655023,
      "idlingDurationMs": 504977,
      "fuelConsumedMl": 3536,
      "fuelConsumedGallons": 0.934,
      "maxSpeedMph": 54.9,
      "averageSpeedMph": 16.3,
      "safetyEvents": []
    },
    {
      "id": "trip_40426209_20250526_20722",
      "vehicleId": "40426209",
      "driverId": "20000006",
      "startMs": 1748250679000,
      "endMs": 1748260247000,
      "startAddress": "18963 Heath Pines",
      "endAddress": "6410 Veronica Station",
      "startCoords": {
        "latitude": 39.765226,
        "longitude": -105.024549
      },
      "endCoords": {
        "latitude": 39.720247,
        "longitude": -105.018876
      },
      "distanceMeters": 74508.5,
      "durationMs": 9568000,
      "drivingDurationMs": 7598438,
      "idlingDurationMs": 1969562,
      "fuelConsumedMl": 16690,
      "fuelConsumedGallons": 4.409,
      "maxSpeedMph": 44.1,
      "averageSpeedMph": 17.4,
      "safetyEvents": []
    },
    {
      "id": "trip_40426209_20250526_20754",
      "vehicleId": "40426209",
      "driverId": "20000022",
      "startMs": 1748266029000,
      "endMs": 1748268009000,
      "startAddress": "012 Fry Fields",
      "endAddress": "3970 Singh Knoll",
      "startCoords": {
        "latitude": 39.75345,
        "longitude": -105.041403
      },
      "endCoords": {
        "latitude": 39.757419,
        "longitude": -104.968069
      },
      "distanceMeters": 20448.7,
      "durationMs": 1980000,
      "drivingDurationMs": 1564184,
      "idlingDurationMs": 415816,
      "fuelConsumedMl": 4580,
      "fuelConsumedGallons": 1.21,
      "maxSpeedMph": 46.1,
      "averageSpeedMph": 23.1,
      "safetyEvents": []
    },
    {
      "id": "trip_40426209_20250526_20780",
      "vehicleId": "40426209",
      "driverId": "20000008",
      "startMs": 1748280186000,
      "endMs": 1748288042000,
      "startAddress": "928 Klein Drives Suite 750",
      "endAddress": "324 Karla Burgs",
      "startCoords": {
        "latitude": 39.755259,
        "longitude": -104.97705
      },
      "endCoords": {
        "latitude": 39.711951,
        "longitude": -105.070236
      },
      "distanceMeters": 82556.2,
      "durationMs": 7856000,
      "drivingDurationMs": 6072975,
      "idlingDurationMs": 1783025,
      "fuelConsumedMl": 18496,
      "fuelConsumedGallons": 4.886,
      "maxSpeedMph": 54.8,
      "averageSpeedMph": 23.5,
      "safetyEvents": []
    },
    {
      "id": "trip_40426209_20250526_20810",
      "vehicleId": "40426209",
      "driverId": "20000022",
      "startMs": 1748299105000,
      "endMs": 1748305637000,
      "startAddress": "01715 John Street",
      "endAddress": "43350 Allen Drives Suite 319",
      "startCoords": {
        "latitude": 39.692907,
        "longitude": -104.911304
      },
      "endCoords": {
        "latitude": 39.705779,
        "longitude": -104.90939
      },
      "distanceMeters": 64168.7,
      "durationMs": 6532000,
      "drivingDurationMs": 5005278,
      "idlingDurationMs": 1526722,
      "fuelConsumedMl": 14373,
      "fuelConsumedGallons": 3.797,
      "maxSpeedMph": 45.7,
      "averageSpeedMph": 22.0,
      "safetyEvents": []
    },
    {
      "id": "trip_40426209_20250527_20839",
      "vehicleId": "40426209",
      "driverId": "20000021",
      "startMs": 1748315505000,
      "endMs": 1748317005000,
      "startAddress": "467 Reid Club Apt. 021",
      "endAddress": "6856 Young Drive",
      "startCoords": {
        "latitude": 39.771574,
        "longitude": -104.986068
      },
      "endCoords": {
        "latitude": 39.782648,
        "longitude": -104.944098
      },
      "distanceMeters": 15656.6,
      "durationMs": 1500000,
      "drivingDurationMs": 1130204,
      "idlingDurationMs": 369796,
      "fuelConsumedMl": 3509,
      "fuelConsumedGallons": 0.927,
      "maxSpeedMph": 48.7,
      "averageSpeedMph": 23.3,
      "safetyEvents": []
    },
    {
      "id": "trip_40426209_20250527_20867",
      "vehicleId": "40426209",
      "driverId": "20000004",
      "startMs": 1748335019000,
      "endMs": 1748336699000,
      "startAddress": "1821 Villarreal Drives Apt. 596",
      "endAddress": "0109 Rose Freeway Suite 323",
      "startCoords": {
        "latitude": 39.826499,
        "longitude": -105.014578
      },
      "endCoords": {
        "latitude": 39.820702,
        "longitude": -105.014444
      },
      "distanceMeters": 16402.7,
      "durationMs": 1680000,
      "drivingDurationMs": 1365498,
      "idlingDurationMs": 314502,
      "fuelConsumedMl": 3676,
      "fuelConsumedGallons": 0.971,
      "maxSpeedMph": 48.7,
      "averageSpeedMph": 21.8,
      "safetyEvents": []
    },
    {
      "id": "trip_40426209_20250527_20893",
      "vehicleId": "40426209",
      "driverId": "20000016",
      "startMs": 1748347013000,
      "endMs": 1748349925000,
      "startAddress": "586 Kim Bridge",
      "endAddress": "57560 Davis Stravenue",
      "startCoords": {
        "latitude": 39.814586,
        "longitude": -105.057052
      },
      "endCoords": {
        "latitude": 39.732336,
        "longitude": -105.008744
      },
      "distanceMeters": 19110.3,
      "durationMs": 2912000,
      "drivingDurationMs": 2299982,
      "idlingDurationMs": 612018,
      "fuelConsumedMl": 4281,
      "fuelConsumedGallons": 1.131,
      "maxSpeedMph": 59.3,
      "averageSpeedMph": 14.7,
      "safetyEvents": []
    },
    {
      "id": "trip_40426209_20250527_20924",
      "vehicleId": "40426209",
      "driverId": "20000013",
      "startMs": 1748361320000,
      "endMs": 1748367265000,
      "startAddress": "7732 Joseph Lights",
      "endAddress": "875 Elizabeth Cape Suite 306",
      "startCoords": {
        "latitude": 39.740202,
        "longitude": -104.92946
      },
      "endCoords": {
        "latitude": 39.820978,
        "longitude": -105.07379
      },
      "distanceMeters": 55500.9,
      "durationMs": 5945000,
      "drivingDurationMs": 4667266,
      "idlingDurationMs": 1277734,
      "fuelConsumedMl": 12431,
      "fuelConsumedGallons": 3.284,
      "maxSpeedMph": 61.5,
      "averageSpeedMph": 20.9,
      "safetyEvents": []
    },
    {
      "id": "trip_40426209_20250527_20955",
      "vehicleId": "40426209",
      "driverId": "20000016",
      "startMs": 1748375783000,
      "endMs": 1748380999000,
      "startAddress": "48240 Sharon Mission",
      "endAddress": "61729 Coleman Plains",
      "startCoords": {
        "latitude": 39.697059,
        "longitude": -104.908139
      },
      "endCoords": {
        "latitude": 39.784106,
        "longitude": -105.01156
      },
      "distanceMeters": 38239.0,
      "durationMs": 5216000,
      "drivingDurationMs": 4025618,
      "idlingDurationMs": 1190382,
      "fuelConsumedMl": 8566,
      "fuelConsumedGallons": 2.263,
      "maxSpeedMph": 45.9,
      "averageSpeedMph": 16.4,
      "safetyEvents": []
    },
    {
      "id": "trip_40426209_20250528_20983",
      "vehicleId": "40426209",
      "driverId": "20000009",
      "startMs": 1748394767000,
      "endMs": 1748402160000,
      "startAddress": "973 Ochoa Island Suite 510",
      "endAddress": "738 Rodriguez Plains",
      "startCoords": {
        "latitude": 39.758868,
        "longitude": -104.940291
      },
      "endCoords": {
        "latitude": 39.824955,
        "longitude": -104.970928
      },
      "distanceMeters": 75398.3,
      "durationMs": 7393000,
      "drivingDurationMs": 6471269,
      "idlingDurationMs": 921731,
      "fuelConsumedMl": 16890,
      "fuelConsumedGallons": 4.462,
      "maxSpeedMph": 51.5,
      "averageSpeedMph": 22.8,
      "safetyEvents": []
    },
    {
      "id": "trip_40426209_20250528_21015",
      "vehicleId": "40426209",
      "driverId": "20000014",
      "startMs": 1748414319000,
      "endMs": 1748425485000,
      "startAddress": "874 Daniel Springs",
      "endAddress": "2594 Robinson Mountains",
      "startCoords": {
        "latitude": 39.742916,
        "longitude": -104.969832
      },
      "endCoords": {
        "latitude": 39.725024,
        "longitude": -105.044164
      },
      "distanceMeters": 74967.8,
      "durationMs": 11166000,
      "drivingDurationMs": 8844820,
      "idlingDurationMs": 2321180,
      "fuelConsumedMl": 16792,
      "fuelConsumedGallons": 4.436,
      "maxSpeedMph": 51.3,
      "averageSpeedMph": 15.0,
      "safetyEvents": []
    },
    {
      "id": "trip_40426209_20250528_21039",
      "vehicleId": "40426209",
      "driverId": "20000021",
      "startMs": 1748427012000,
      "endMs": 1748436479000,
      "startAddress": "88732 Steven Pine",
      "endAddress": "59046 Tina Manors",
      "startCoords": {
        "latitude": 39.798277,
        "longitude": -104.997186
      },
      "endCoords": {
        "latitude": 39.71276,
        "longitude": -104.916239
      },
      "distanceMeters": 70371.1,
      "durationMs": 9467000,
      "drivingDurationMs": 7480347,
      "idlingDurationMs": 1986653,
      "fuelConsumedMl": 15762,
      "fuelConsumedGallons": 4.164,
      "maxSpeedMph": 53.3,
      "averageSpeedMph": 16.6,
      "safetyEvents": []
    },
    {
      "id": "trip_40426209_20250528_21073",
      "vehicleId": "40426209",
      "driverId": "20000010",
      "startMs": 1748443849000,
      "endMs": 1748445229000,
      "startAddress": "69892 Johnson Lock",
      "endAddress": "2042 Joshua Drive Apt. 905",
      "startCoords": {
        "latitude": 39.734655,
        "longitude": -105.009924
      },
      "endCoords": {
        "latitude": 39.703869,
        "longitude": -105.038147
      },
      "distanceMeters": 12849.3,
      "durationMs": 1380000,
      "drivingDurationMs": 1037141,
      "idlingDurationMs": 342859,
      "fuelConsumedMl": 2877,
      "fuelConsumedGallons": 0.76,
      "maxSpeedMph": 44.1,
      "averageSpeedMph": 20.8,
      "safetyEvents": []
    },
    {
      "id": "trip_40426209_20250528_21106",
      "vehicleId": "40426209",
      "driverId": "20000019",
      "startMs": 1748459404000,
      "endMs": 1748461144000,
      "startAddress": "7066 Frederick Station Apt. 202",
      "endAddress": "956 Isaac Alley Apt. 964",
      "startCoords": {
        "latitude": 39.789791,
        "longitude": -104.903492
      },
      "endCoords": {
        "latitude": 39.752196,
        "longitude": -104.917604
      },
      "distanceMeters": 13656.2,
      "durationMs": 1740000,
      "drivingDurationMs": 1404796,
      "idlingDurationMs": 335204,
      "fuelConsumedMl": 3059,
      "fuelConsumedGallons": 0.808,
      "maxSpeedMph": 57.6,
      "averageSpeedMph": 17.6,
      "safetyEvents": []
    },
    {
      "id": "trip_40426209_20250529_21138",
      "vehicleId": "40426209",
      "driverId": "20000021",
      "startMs": 1748482570000,
      "endMs": 1748484250000,
      "startAddress": "682 Rogers Cliff Suite 781",
      "endAddress": "6275 Cooper Lodge",
      "startCoords": {
        "latitude": 39.770605,
        "longitude": -104.993287
      },
      "endCoords": {
        "latitude": 39.696926,
        "longitude": -105.047832
      },