{
  "vehicleId": "42554227",
  "vehicleName": "ABQ-MOTO-01",
  "month": "2025_05",
  "pagination": {
    "endCursor": "trip_42554227_20250531_21540",
    "hasNextPage": false
  },
  "trips": [
    {
      "id": "trip_42554227_20250501_17085",
      "vehicleId": "42554227",
      "driverId": "20000045",
      "startMs": 1746070856000,
      "endMs": 1746073136000,
      "startAddress": "73451 Erica Tunnel Apt. 429",
      "endAddress": "48984 Rivas Shores Suite 883",
      "startCoords": {
        "latitude": 35.055354,
        "longitude": -106.55275
      },
      "endCoords": {
        "latitude": 35.081545,
        "longitude": -106.594707
      },
      "distanceMeters": 15009.8,
      "durationMs": 2280000,
      "drivingDurationMs": 1854935,
      "idlingDurationMs": 425065,
      "fuelConsumedMl": 678,
      "fuelConsumedGallons": 0.179,
      "maxSpeedMph": 34.3,
      "averageSpeedMph": 14.7,
      "safetyEvents": []
    },
    {
      "id": "trip_42554227_20250501_17107",
      "vehicleId": "42554227",
      "driverId": "20000045",
      "startMs": 1746084063000,
      "endMs": 1746086103000,
      "startAddress": "25220 Hayes Flats",
      "endAddress": "5635 Michael Groves Apt. 024",
      "startCoords": {
        "latitude": 35.068661,
        "longitude": -106.710094
      },
      "endCoords": {
        "latitude": 35.091366,
        "longitude": -106.545636
      },
      "distanceMeters": 15297.1,
      "durationMs": 2040000,
      "drivingDurationMs": 1620700,
      "idlingDurationMs": 419300,
      "fuelConsumedMl": 693,
      "fuelConsumedGallons": 0.183,
      "maxSpeedMph": 45.7,
      "averageSpeedMph": 16.8,
      "safetyEvents": []
    },
    {
      "id": "trip_42554227_20250501_17158",
      "vehicleId": "42554227",
      "driverId": "20000045",
      "startMs": 1746112997000,
      "endMs": 1746122413000,
      "startAddress": "34854 Donna Lock Suite 543",
      "endAddress": "062 Flores Isle Suite 245",
      "startCoords": {
        "latitude": 35.154463,
        "longitude": -106.55287
      },
      "endCoords": {
        "latitude": 35.100515,
        "longitude": -106.634077
      },
      "distanceMeters": 52218.6,
      "durationMs": 9416000,
      "drivingDurationMs": 7301042,
      "idlingDurationMs": 2114958,
      "fuelConsumedMl": 2362,
      "fuelConsumedGallons": 0.624,
      "maxSpeedMph": 34.9,
      "averageSpeedMph": 12.4,
      "safetyEvents": []
    },
    {
      "id": "trip_42554227_20250501_17189",
      "vehicleId": "42554227",
      "driverId": "20000044",
      "startMs": 1746130521000,
      "endMs": 1746138408000,
      "startAddress": "78985 Nicholas Junction",
      "endAddress": "125 Joseph Springs Suite 302",
      "startCoords": {
        "latitude": 35.146959,
        "longitude": -106.701668
      },
      "endCoords": {
        "latitude": 35.170458,
        "longitude": -106.569551
      },
      "distanceMeters": 56742.2,
      "durationMs": 7887000,
      "drivingDurationMs": 6412136,
      "idlingDurationMs": 1474864,
      "fuelConsumedMl": 2567,
      "fuelConsumedGallons": 0.678,
      "maxSpeedMph": 36.1,
      "averageSpeedMph": 16.1,
      "safetyEvents": []
    },
    {
      "id": "trip_42554227_20250502_17243",
      "vehicleId": "42554227",
      "driverId": "20000045",
      "startMs": 1746166174000,
      "endMs": 1746170390000,
      "startAddress": "0528 Linda Ville Apt. 296",
      "endAddress": "07822 Wilson Corners Apt. 293",
      "startCoords": {
        "latitude": 35.080111,
        "longitude": -106.682302
      },
      "endCoords": {
        "latitude": 35.179838,
        "longitude": -106.548899
      },
      "distanceMeters": 21219.3,
      "durationMs": 4216000,
      "drivingDurationMs": 3350520,
      "idlingDurationMs": 865480,
      "fuelConsumedMl": 961,
      "fuelConsumedGallons": 0.254,
      "maxSpeedMph": 40.1,
      "averageSpeedMph": 11.3,
      "safetyEvents": []
    },
    {
      "id": "trip_42554227_20250502_17284",
      "vehicleId": "42554227",
      "driverId": "20000046",
      "startMs": 1746184911000,
      "endMs": 1746186651000,
      "startAddress": "52033 Lawson Islands Suite 960",
      "endAddress": "548 Barber Landing Apt. 306",
      "startCoords": {
        "latitude": 35.056276,
        "longitude": -106.692992
      },
      "endCoords": {
        "latitude": 35.132973,
        "longitude": -106.590743
      },
      "distanceMeters": 12566.8,
      "durationMs": 1740000,
      "drivingDurationMs": 1330217,
      "idlingDurationMs": 409783,
      "fuelConsumedMl": 568,
      "fuelConsumedGallons": 0.15,
      "maxSpeedMph": 39.3,
      "averageSpeedMph": 16.2,
      "safetyEvents": []
    },
    {
      "id": "trip_42554227_20250502_17335",
      "vehicleId": "42554227",
      "driverId": "20000044",
      "startMs": 1746214941000,
      "endMs": 1746216621000,
      "startAddress": "665 Keith Grove",
      "endAddress": "911 Jacobs Prairie Apt. 908",
      "startCoords": {
        "latitude": 35.081989,
        "longitude": -106.671755
      },
      "endCoords": {
        "latitude": 35.095323,
        "longitude": -106.6227
      },
      "distanceMeters": 10403.8,
      "durationMs": 1680000,
      "drivingDurationMs": 1412477,
      "idlingDurationMs": 267523,
      "fuelConsumedMl": 469,
      "fuelConsumedGallons": 0.124,
      "maxSpeedMph": 45.3,
      "averageSpeedMph": 13.9,
      "safetyEvents": []
    },
    {
      "id": "trip_42554227_20250503_17400",
      "vehicleId": "42554227",
      "driverId": "20000044",
      "startMs": 1746253579000,
      "endMs": 1746255379000,
      "startAddress": "91419 Simmons Radial",
      "endAddress": "57767 Brett Islands",
      "startCoords": {
        "latitude": 35.120006,
        "longitude": -106.617784
      },
      "endCoords": {
        "latitude": 35.041834,
        "longitude": -106.65841
      },
      "distanceMeters": 15211.0,
      "durationMs": 1800000,
      "drivingDurationMs": 1460539,
      "idlingDurationMs": 339461,
      "fuelConsumedMl": 689,
      "fuelConsumedGallons": 0.182,
      "maxSpeedMph": 38.8,
      "averageSpeedMph": 18.9,
      "safetyEvents": []
    },
    {
      "id": "trip_42554227_20250503_17446",
      "vehicleId": "42554227",
      "driverId": "20000044",
      "startMs": 1746279668000,
      "endMs": 1746285079000,
      "startAddress": "152 Paul Flat",
      "endAddress": "996 Anderson Mews",
      "startCoords": {
        "latitude": 35.085823,
        "longitude": -106.564979
      },
      "endCoords": {
        "latitude": 35.141878,
        "longitude": -106.633494
      },
      "distanceMeters": 36955.6,
      "durationMs": 5411000,
      "drivingDurationMs": 4259672,
      "idlingDurationMs": 1151328,
      "fuelConsumedMl": 1673,
      "fuelConsumedGallons": 0.442,
      "maxSpeedMph": 35.2,
      "averageSpeedMph": 15.3,
      "safetyEvents": []
    },
    {
      "id": "trip_42554227_20250503_17487",
      "vehicleId": "42554227",
      "driverId": "20000044",
      "startMs": 1746302498000,
      "endMs": 1746306790000,
      "startAddress": "5057 Tate Extension Apt. 047",
      "endAddress": "67415 Aaron Forge",
      "startCoords": {
        "latitude": 35.092409,
        "longitude": -106.701626
      },
      "endCoords": {
        "latitude": 35.105484,
        "longitude": -106.604438
      },
      "distanceMeters": 34839.1,
      "durationMs": 4292000,
      "drivingDurationMs": 3413374,
      "idlingDurationMs": 878626,
      "fuelConsumedMl": 1575,
      "fuelConsumedGallons": 0.416,
      "maxSpeedMph": 42.1,
      "averageSpeedMph": 18.2,
      "safetyEvents": []
    },
    {
      "id": "trip_42554227_20250504_17528",
      "vehicleId": "42554227",
      "driverId": "20000045",
      "startMs": 1746336391000,
      "endMs": 1746337891000,
      "startAddress": "5332 Gardner Trail Suite 887",
      "endAddress": "86732 Christine Hollow Apt. 646",
      "startCoords": {
        "latitude": 35.060872,
        "longitude": -106.667006
      },
      "endCoords": {
        "latitude": 35.086618,
        "longitude": -106.681226
      },
      "distanceMeters": 7514.3,
      "durationMs": 1500000,
      "drivingDurationMs": 1144144,
      "idlingDurationMs": 355856,
      "fuelConsumedMl": 341,
      "fuelConsumedGallons": 0.09,
      "maxSpeedMph": 32.2,
      "averageSpeedMph": 11.2,
      "safetyEvents": []
    },
    {
      "id": "trip_42554227_20250504_17559",
      "vehicleId": "42554227",
      "driverId": "20000044",
      "startMs": 1746359001000,
      "endMs": 1746360981000,
      "startAddress": "973 Kenneth Prairie Suite 164",
      "endAddress": "6022 Miller Prairie Suite 816",
      "startCoords": {
        "latitude": 35.092913,
        "longitude": -106.636185
      },
      "endCoords": {
        "latitude": 35.137454,
        "longitude": -106.685259
      },
      "distanceMeters": 12815.9,
      "durationMs": 1980000,
      "drivingDurationMs": 1659476,
      "idlingDurationMs": 320524,
      "fuelConsumedMl": 579,
      "fuelConsumedGallons": 0.153,
      "maxSpeedMph": 42.0,
      "averageSpeedMph": 14.5,
      "safetyEvents": []
    },
    {
      "id": "trip_42554227_20250505_17610",
      "vehicleId": "42554227",
      "driverId": "20000045",
      "startMs": 1746403732000,
      "endMs": 1746405052000,
      "startAddress": "7671 Baldwin Creek Suite 106",
      "endAddress": "34947 Stephen Underpass Suite 087",
      "startCoords": {
        "latitude": 35.140531,
        "longitude": -106.67759
      },
      "endCoords": {
        "latitude": 35.166752,
        "longitude": -106.629958
      },
      "distanceMeters": 9517.2,
      "durationMs": 1320000,
      "drivingDurationMs": 1103126,
      "idlingDurationMs": 216874,
      "fuelConsumedMl": 432,
      "fuelConsumedGallons": 0.114,
      "maxSpeedMph": 46.5,
      "averageSpeedMph": 16.1,
      "safetyEvents": []
    },
    {
      "id": "trip_42554227_20250505_17669",
      "vehicleId": "42554227",
      "driverId": "20000046",
      "startMs": 1746445878000,
      "endMs": 1746460388000,
      "startAddress": "52754 Smith Creek Suite 898",
      "endAddress": "32448 Laura Heights",
      "startCoords": {
        "latitude": 35.139637,
        "longitude": -106.661503
      },
      "endCoords": {
        "latitude": 35.0677,
        "longitude": -106.594965
      },
      "distanceMeters": 81342.4,
      "durationMs": 14510000,
      "drivingDurationMs": 11194699,
      "idlingDurationMs": 3315301,
      "fuelConsumedMl": 3679,
      "fuelConsumedGallons": 0.972,
      "maxSpeedMph": 44.9,
      "averageSpeedMph": 12.5,
      "safetyEvents": []
    },
    {
      "id": "trip_42554227_20250505_17724",
      "vehicleId": "42554227",
      "driverId": "20000045",
      "startMs": 1746472240000,
      "endMs": 1746477852000,
      "startAddress": "048 Joann Trace Suite 445",
      "endAddress": "4778 Craig Fork Apt. 697",
      "startCoords": {
        "latitude": 35.122849,
        "longitude": -106.549428
      },
      "endCoords": {
        "latitude": 35.082209,
        "longitude": -106.69348
      },
      "distanceMeters": 40852.1,
      "durationMs": 5612000,
      "drivingDurationMs": 4827209,
      "idlingDurationMs": 784791,
      "fuelConsumedMl": 1847,
      "fuelConsumedGallons": 0.488,
      "maxSpeedMph": 42.6,
      "averageSpeedMph": 16.3,
      "safetyEvents": []
    },
    {
      "id": "trip_42554227_20250506_17760",
      "vehicleId": "42554227",
      "driverId": "20000044",
      "startMs": 1746492618000,
      "endMs": 1746494778000,
      "startAddress": "2258 Stephanie Falls",
      "endAddress": "232 Jones Corner",
      "startCoords": {
        "latitude": 35.159614,
        "longitude": -106.562562
      },
      "endCoords": {
        "latitude": 35.042037,
        "longitude": -106.718843
      },
      "distanceMeters": 14873.7,
      "durationMs": 2160000,
      "drivingDurationMs": 1765312,
      "idlingDurationMs": 394688,
      "fuelConsumedMl": 674,
      "fuelConsumedGallons": 0.178,
      "maxSpeedMph": 37.5,
      "averageSpeedMph": 15.4,
      "safetyEvents": []
    },
    {
      "id": "trip_42554227_20250506_17794",
      "vehicleId": "42554227",
      "driverId": "20000046",
      "startMs": 1746513198000,
      "endMs": 1746515658000,
      "startAddress": "0335 Rios Way Suite 452",
      "endAddress": "0436 Mason Keys Apt. 544",
      "startCoords": {
        "latitude": 35.094033,
        "longitude": -106.686896
      },
      "endCoords": {
        "latitude": 35.080981,
        "longitude": -106.667782
      },
      "distanceMeters": 13045.4,
      "durationMs": 2460000,
      "drivingDurationMs": 1868761,
      "idlingDurationMs": 591239,
      "fuelConsumedMl": 591,
      "fuelConsumedGallons": 0.156,
      "maxSpeedMph": 39.2,
      "averageSpeedMph": 11.9,
      "safetyEvents": []
    },
    {
      "id": "trip_42554227_20250506_17835",
      "vehicleId": "42554227",
      "driverId": "20000044",
      "startMs": 1746532285000,
      "endMs": 1746535389000,
      "startAddress": "5463 Chang Wells Suite 962",
      "endAddress": "6936 Mills Mount",
      "startCoords": {
        "latitude": 35.130788,
        "longitude": -106.606765
      },
      "endCoords": {
        "latitude": 35.113887,
        "longitude": -106.560162
      },
      "distanceMeters": 16419.9,
      "durationMs": 3104000,
      "drivingDurationMs": 2523338,
      "idlingDurationMs": 580662,
      "fuelConsumedMl": 742,
      "fuelConsumedGallons": 0.196,
      "maxSpeedMph": 45.9,
      "averageSpeedMph": 11.8,
      "safetyEvents": []
    },
    {
      "id": "trip_42554227_20250506_17860",
      "vehicleId": "42554227",
      "driverId": "20000046",
      "startMs": 1746544951000,
      "endMs": 1746546031000,
      "startAddress": "5140 Patricia Valleys Suite 540",
      "endAddress": "51392 Brooke Village",
      "startCoords": {
        "latitude": 35.05352,
        "longitude": -106.689161
      },
      "endCoords": {
        "latitude": 35.11893,
        "longitude": -106.66334
      },
      "distanceMeters": 7986.9,
      "durationMs": 1080000,
      "drivingDurationMs": 893912,
      "idlingDurationMs": 186088,
      "fuelConsumedMl": 360,
      "fuelConsumedGallons": 0.095,
      "maxSpeedMph": 37.9,
      "averageSpeedMph": 16.5,
      "safetyEvents": []
    },
    {
      "id": "trip_42554227_20250506_17895",
      "vehicleId": "42554227",
      "driverId": "20000044",
      "startMs": 1746561493000,
      "endMs": 1746568362000,
      "startAddress": "0506 Horton Route",
      "endAddress": "50038 Gray Cove Suite 153",
      "startCoords": {
        "latitude": 35.055919,
        "longitude": -106.61974
      },
      "endCoords": {
        "latitude": 35.118898,
        "longitude": -106.596641
      },
      "distanceMeters": 60294.0,
      "durationMs": 6869000,
      "drivingDurationMs": 5976557,
      "idlingDurationMs": 892443,
      "fuelConsumedMl": 2725,
      "fuelConsumedGallons": 0.72,
      "maxSpeedMph": 38.3,
      "averageSpeedMph": 19.6,
      "safetyEvents": []
    },
    {
      "id": "trip_42554227_20250507_17927",
      "vehicleId": "42554227",
      "driverId": "20000046",
      "startMs": 1746580553000,
      "endMs": 1746592887000,
      "startAddress": "5228 Robinson Points Apt. 325",
      "endAddress": "4216 Carter Tunnel Suite 464",
      "startCoords": {
        "latitude": 35.175202,
        "longitude": -106.603812
      },
      "endCoords": {
        "latitude": 35.18114,
        "longitude": -106.717191
      },
      "distanceMeters": 84959.9,
      "durationMs": 12334000,
      "drivingDurationMs": 10209468,
      "idlingDurationMs": 2124532,
      "fuelConsumedMl": 3842,
      "fuelConsumedGallons": 1.015,
      "maxSpeedMph": 33.9,
      "averageSpeedMph": 15.4,
      "safetyEvents": []
    },
    {
      "id": "trip_42554227_20250507_17982",
      "vehicleId": "42554227",
      "driverId": "20000044",
      "startMs": 1746608104000,
      "endMs": 1746614680000,
      "startAddress": "309 Walter Forks",
      "endAddress": "313 Lee Field",
      "startCoords": {
        "latitude": 35.148906,
        "longitude": -106.65207
      },
      "endCoords": {
        "latitude": 35.038495,
        "longitude": -106.660173
      },
      "distanceMeters": 34409.7,
      "durationMs": 6576000,
      "drivingDurationMs": 5091149,
      "idlingDurationMs": 1484851,
      "fuelConsumedMl": 1556,
      "fuelConsumedGallons": 0.411,
      "maxSpeedMph": 41.4,
      "averageSpeedMph": 11.7,
      "safetyEvents": []
    },
    {
      "id": "trip_42554227_20250507_18013",
      "vehicleId": "42554227",
      "driverId": "20000045",
      "startMs": 1746622447000,
      "endMs": 1746629782000,
      "startAddress": "98082 Tina Corner",
      "endAddress": "6155 White Locks Apt. 812",
      "startCoords": {
        "latitude": 35.063345,
        "longitude": -106.581245
      },
      "endCoords": {
        "latitude": 35.159685,
        "longitude": -106.599194
      },
      "distanceMeters": 45522.6,
      "durationMs": 7335000,
      "drivingDurationMs": 6004717,
      "idlingDurationMs": 1330283,
      "fuelConsumedMl": 2059,
      "fuelConsumedGallons": 0.544,
      "maxSpeedMph": 45.7,
      "averageSpeedMph": 13.9,
      "safetyEvents": []
    },
    {
      "id": "trip_42554227_20250507_18066",
      "vehicleId": "42554227",
      "driverId": "20000046",
      "startMs": 1746653935000,
      "endMs": 1746658874000,
      "startAddress": "3164 Patel Mills Apt. 766",
      "endAddress": "2489 Mckenzie Circle Suite 822",
      "startCoords": {
        "latitude": 35.094159,
        "longitude": -106.630435
      },
      "endCoords": {
        "latitude": 35.052413,
        "longitude": -106.596441
      },
      "distanceMeters": 32299.9,
      "durationMs": 4939000,
      "drivingDurationMs": 3762898,
      "idlingDurationMs": 1176102,
      "fuelConsumedMl": 1461,
      "fuelConsumedGallons": 0.386,
      "maxSpeedMph": 36.8,
      "averageSpeedMph": 14.6,
      "safetyEvents": []
    },
    {
      "id": "trip_42554227_20250508_18084",
      "vehicleId": "42554227",
      "driverId": "20000044",
      "startMs": 1746666948000,
      "endMs": 1746671025000,
      "startAddress": "81155 Cox Forest Suite 095",
      "endAddress": "23059 Nielsen Mount",
      "startCoords": {
        "latitude": 35.108912,
        "longitude": -106.545029
      },
      "endCoords": {
        "latitude": 35.058492,
        "longitude": -106.601606
      },
      "distanceMeters": 30582.2,
      "durationMs": 4077000,
      "drivingDurationMs": 3196029,
      "idlingDurationMs": 880971,
      "fuelConsumedMl": 1382,
      "fuelConsumedGallons": 0.365,
      "maxSpeedMph": 31.0,
      "averageSpeedMph": 16.8,
      "safetyEvents": []
    },
    {
      "id": "trip_42554227_20250508_18118",
      "vehicleId": "42554227",
      "driverId": "20000046",
      "startMs": 1746690147000,
      "endMs": 1746693553000,
      "startAddress": "6567 Williams Haven",
      "endAddress": "246 Matthew River",
      "startCoords": {
        "latitude": 35.087237,
        "longitude": -106.711033
      },
      "endCoords": {
        "latitude": 35.147201,
        "longitude": -106.545068
      },
      "distanceMeters": 18721.0,
      "durationMs": 3406000,
      "drivingDurationMs": 2687995,
      "idlingDurationMs": 718005,
      "fuelConsumedMl": 848,
      "fuelConsumedGallons": 0.224,
      "maxSpeedMph": 33.0,
      "averageSpeedMph": 12.3,
      "safetyEvents": []
    },
    {
      "id": "trip_42554227_20250508_18156",
      "vehicleId": "42554227",
      "driverId": "20000046",
      "startMs": 1746706347000,
      "endMs": 1746709596000,
      "startAddress": "06190 Parker Creek",
      "endAddress": "47291 Kathleen Land",
      "startCoords": {
        "latitude": 35.152123,
        "longitude": -106.716612
      },
      "endCoords": {
        "latitude": 35.143948,
        "longitude": -106.714755
      },
      "distanceMeters": 23419.7,
      "durationMs": 3249000,
      "drivingDurationMs": 2480217,
      "idlingDurationMs": 768783,
      "fuelConsumedMl": 1060,
      "fuelConsumedGallons": 0.28,
      "maxSpeedMph": 35.9,
      "averageSpeedMph": 16.1,
      "safetyEvents": []
    },
    {
      "id": "trip_42554227_20250508_18194",
      "vehicleId": "42554227",
      "driverId": "20000045",
      "startMs": 1746725587000,
      "endMs": 1746754076000,
      "startAddress": "01975 John Flat Suite 756",
      "endAddress": "316 Little Branch",
      "startCoords": {
        "latitude": 35.042102,
        "longitude": -106.585443
      },
      "endCoords": {
        "latitude": 35.138325,
        "longitude": -106.672055
      },
      "distanceMeters": 166899.4,
      "durationMs": 28489000,
      "drivingDurationMs": 25041368,
      "idlingDurationMs": 3447632,
      "fuelConsumedMl": 7548,
      "fuelConsumedGallons": 1.994,
      "maxSpeedMph": 43.5,
      "averageSpeedMph": 13.1,
      "safetyEvents": []
    },
    {
      "id": "trip_42554227_20250509_18242",
      "vehicleId": "42554227",
      "driverId": "20000044",
      "startMs": 1746757852000,
      "endMs": 1746759772000,
      "startAddress": "381 Curtis Trace Apt. 324",
      "endAddress": "03605 Butler Mill",
      "startCoords": {
        "latitude": 35.126852,
        "longitude": -106.67634
      },
      "endCoords": {
        "latitude": 35.114705,
        "longitude": -106.649467
      },
      "distanceMeters": 15665.0,
      "durationMs": 1920000,
      "drivingDurationMs": 1527307,
      "idlingDurationMs": 392693,
      "fuelConsumedMl": 708,
      "fuelConsumedGallons": 0.187,
      "maxSpeedMph": 38.0,
      "averageSpeedMph": 18.3,
      "safetyEvents": []
    },
    {
      "id": "trip_42554227_20250509_18269",
      "vehicleId": "42554227",
      "driverId": "20000046",
      "startMs": 1746771505000,
      "endMs": 1746785263000,
      "startAddress": "51252 Hart Key Suite 038",
      "endAddress": "5013 Lambert Hills Suite 353",
      "startCoords": {
        "latitude": 35.126567,
        "longitude": -106.64441
      },
      "endCoords": {
        "latitude": 35.139802,
        "longitude": -106.701392
      },
      "distanceMeters": 92143.8,
      "durationMs": 13758000,
      "drivingDurationMs": 12072441,
      "idlingDurationMs": 1685559,
      "fuelConsumedMl": 4168,
      "fuelConsumedGallons": 1.101,
      "maxSpeedMph": 44.1,
      "averageSpeedMph": 15.0,
      "safetyEvents": []
    },
    {
      "id": "trip_42554227_20250509_18319",
      "vehicleId": "42554227",
      "driverId": "20000046",
      "startMs": 1746796402000,
      "endMs": 1746799119000,
      "startAddress": "9133 James Camp Suite 401",
      "endAddress": "9543 Lee Inlet",
      "startCoords": {
        "latitude": 35.109224,
        "longitude": -106.65085
      },
      "endCoords": {
        "latitude": 35.087181,
        "longitude": -106.665188
      },
      "distanceMeters": 21179.7,
      "durationMs": 2717000,
      "drivingDurationMs": 2044639,
      "idlingDurationMs": 672361,
      "fuelConsumedMl": 958,
      "fuelConsumedGallons": 0.253,
      "maxSpeedMph": 30.9,
      "averageSpeedMph": 17.4,
      "safetyEvents": []
    },
    {
      "id": "trip_42554227_20250509_18356",
      "vehicleId": "42554227",
      "driverId": "20000046",
      "startMs": 1746812889000,
      "endMs": 1746816848000,
      "startAddress": "03463 Sharon Terrace",
      "endAddress": "0237 Martin Tunnel",
      "startCoords": {
        "latitude": 35.111124,
        "longitude": -106.617136
      },
      "endCoords": {
        "latitude": 35.13935,
        "longitude": -106.590413
      },
      "distanceMeters": 30501.9,
      "durationMs": 3959000,
      "drivingDurationMs": 3447519,
      "idlingDurationMs": 511481,
      "fuelConsumedMl": 1378,
      "fuelConsumedGallons": 0.364,
      "maxSpeedMph": 32.3,
      "averageSpeedMph": 17.2,
      "safetyEvents": []
    },
    {
      "id": "trip_42554227_20250510_18410",
      "vehicleId": "42554227",
      "driverId": "20000046",
      "startMs": 1746849783000,
      "endMs": 1746852363000,
      "startAddress": "4044 Allen Isle Apt. 590",
      "endAddress": "702 Leslie Bridge",
      "startCoords": {
        "latitude": 35.14186,
        "longitude": -106.589278
      },
      "endCoords": {
        "latitude": 35.144182,
        "longitude": -106.5803
      },
      "distanceMeters": 13275.0,
      "durationMs": 2580000,
      "drivingDurationMs": 2011057,
      "idlingDurationMs": 568943,
      "fuelConsumedMl": 602,
      "fuelConsumedGallons": 0.159,
      "maxSpeedMph": 44.8,
      "averageSpeedMph": 11.5,
      "safetyEvents": []
    },
    {
      "id": "trip_42554227_20250510_18455",
      "vehicleId": "42554227",
      "driverId": "20000045",
      "startMs": 1746873929000,
      "endMs": 1746880481000,
      "startAddress": "85437 Michaela Valleys Suite 034",
      "endAddress": "0658 Jonathan Crossroad Suite 331",
      "startCoords": {
        "latitude": 35.132173,
        "longitude": -106.697165
      },
      "endCoords": {
        "latitude": 35.054959,
        "longitude": -106.684259
      },
      "distanceMeters": 43552.7,
      "durationMs": 6552000,
      "drivingDurationMs": 5647602,
      "idlingDurationMs": 904398,
      "fuelConsumedMl": 1968,
      "fuelConsumedGallons": 0.52,
      "maxSpeedMph": 43.1,
      "averageSpeedMph": 14.9,
      "safetyEvents": []
    },
    {
      "id": "trip_42554227_20250510_18499",
      "vehicleId": "42554227",
      "driverId": "20000044",
      "startMs": 1746896820000,
      "endMs": 1746899580000,
      "startAddress": "82549 Miller Forges Apt. 635",
      "endAddress": "282 Mark Viaduct Apt. 724",
      "startCoords": {
        "latitude": 35.150728,
        "longitude": -106.62957
      },
      "endCoords": {
        "latitude": 35.156037,
        "longitude": -106.673195
      },
      "distanceMeters": 14769.6,
      "durationMs": 2760000,
      "drivingDurationMs": 2318114,
      "idlingDurationMs": 441886,
      "fuelConsumedMl": 666,
      "fuelConsumedGallons": 0.176,
      "maxSpeedMph": 34.9,
      "averageSpeedMph": 12.0,
      "safetyEvents": []
    },
    {
      "id": "trip_42554227_20250510_18527",
      "vehicleId": "42554227",
      "driverId": "20000044",
      "startMs": 1746913423000,
      "endMs": 1746915223000,
      "startAddress": "33525 Perry Mountain",
      "endAddress": "88167 Miller Keys Apt. 906",
      "startCoords": {
        "latitude": 35.045657,
        "longitude": -106.720594
      },
      "endCoords": {
        "latitude": 35.12848,
        "longitude": -106.649031
      },
      "distanceMeters": 11488.2,
      "durationMs": 1800000,
      "drivingDurationMs": 1567002,
      "idlingDurationMs": 232998,
      "fuelConsumedMl": 519,
      "fuelConsumedGallons": 0.137,
      "maxSpeedMph": 46.0,
      "averageSpeedMph": 14.3,
      "safetyEvents": []
    },
    {
      "id": "trip_42554227_20250511_18577",
      "vehicleId": "42554227",
      "driverId": "20000045",
      "startMs": 1746952757000,
      "endMs": 1746954437000,
      "startAddress": "5498 Castillo Bridge Suite 344",
      "endAddress": "33813 Kelsey Highway",
      "startCoords": {
        "latitude": 35.069326,
        "longitude": -106.546819
      },
      "endCoords": {
        "latitude": 35.062241,
        "longitude": -106.551237
      },
      "distanceMeters": 9653.2,
      "durationMs": 1680000,
      "drivingDurationMs": 1303970,
      "idlingDurationMs": 376030,
      "fuelConsumedMl": 435,
      "fuelConsumedGallons": 0.115,
      "maxSpeedMph": 33.4,
      "averageSpeedMph": 12.9,
      "safetyEvents": []
    },
    {
      "id": "trip_42554227_20250511_18648",
      "vehicleId": "42554227",
      "driverId": "20000044",
      "startMs": 1747005461000,
      "endMs": 1747010268000,
      "startAddress": "6586 Johns Creek",
      "endAddress": "2964 Walter Lodge",
      "startCoords": {
        "latitude": 35.108955,
        "longitude": -106.654482
      },
      "endCoords": {
        "latitude": 35.06776,
        "longitude": -106.588686
      },
      "distanceMeters": 33977.0,
      "durationMs": 4807000,
      "drivingDurationMs": 4058563,
      "idlingDurationMs": 748437,
      "fuelConsumedMl": 1537,
      "fuelConsumedGallons": 0.406,
      "maxSpeedMph": 35.7,
      "averageSpeedMph": 15.8,
      "safetyEvents": []
    },
    {
      "id": "trip_42554227_20250512_18704",
      "vehicleId": "42554227",
      "driverId": "20000044",
      "startMs": 1747053627000,
      "endMs": 1747055787000,
      "startAddress": "99395 Joseph Pike Apt. 070",
      "endAddress": "90766 Bradford Land",
      "startCoords": {
        "latitude": 35.087811,
        "longitude": -106.549041
      },
      "endCoords": {
        "latitude": 35.115566,
        "longitude": -106.703543
      },
      "distanceMeters": 14271.8,
      "durationMs": 2160000,
      "drivingDurationMs": 1784114,
      "idlingDurationMs": 375886,
      "fuelConsumedMl": 647,
      "fuelConsumedGallons": 0.171,
      "maxSpeedMph": 35.8,
      "averageSpeedMph": 14.8,
      "safetyEvents": []
    },
    {
      "id": "trip_42554227_20250512_18727",
      "vehicleId": "42554227",
      "driverId": "20000046",
      "startMs": 1747061574000,
      "endMs": 1747063374000,
      "startAddress": "545 Anna Shoal",
      "endAddress": "423 Lee Viaduct",
      "startCoords": {
        "latitude": 35.04726,
        "longitude": -106.630417
      },
      "endCoords": {
        "latitude": 35.166697,
        "longitude": -106.549837
      },
      "distanceMeters": 10334.8,
      "durationMs": 1800000,
      "drivingDurationMs": 1404787,
      "idlingDurationMs": 395213,
      "fuelConsumedMl": 466,
      "fuelConsumedGallons": 0.123,
      "maxSpeedMph": 33.9,
      "averageSpeedMph": 12.8,
      "safetyEvents": []
    },
    {
      "id": "trip_42554227_20250512_18751",
      "vehicleId": "42554227",
      "driverId": "20000045",
      "startMs": 1747077593000,
      "endMs": 1747090688000,
      "startAddress": "0050 Nancy Squares Apt. 610",
      "endAddress": "069 Garrett Row Suite 147",
      "startCoords": {
        "latitude": 35.143213,
        "longitude": -106.659245
      },
      "endCoords": {
        "latitude": 35.056533,
        "longitude": -106.698443
      },
      "distanceMeters": 77840.4,
      "durationMs": 13095000,
      "drivingDurationMs": 10457445,
      "idlingDurationMs": 2637555,
      "fuelConsumedMl": 3520,
      "fuelConsumedGallons": 0.93,
      "maxSpeedMph": 44.2,
      "averageSpeedMph": 13.3,
      "safetyEvents": []
    },
    {
      "id": "trip_42554227_20250513_18828",
      "vehicleId": "42554227",
      "driverId": "20000046",
      "startMs": 1747122269000,
      "endMs": 1747125791000,
      "startAddress": "3528 Gary Skyway",
      "endAddress": "703 Frank Isle Apt. 488",
      "startCoords": {
        "latitude": 35.181536,
        "longitude": -106.557916
      },
      "endCoords": {
        "latitude": 35.15348,
        "longitude": -106.642124
      },
      "distanceMeters": 19219.7,
      "durationMs": 3522000,
      "drivingDurationMs": 2669839,
      "idlingDurationMs": 852161,
      "fuelConsumedMl": 871,
      "fuelConsumedGallons": 0.23,
      "maxSpeedMph": 32.7,
      "averageSpeedMph": 12.2,
      "safetyEvents": []
    },
    {
      "id": "trip_42554227_20250513_18869",
      "vehicleId": "42554227",
      "driverId": "20000044",
      "startMs": 1747143312000,
      "endMs": 1747150636000,
      "startAddress": "670 Linda Place Apt. 986",
      "endAddress": "897 Katherine Radial",
      "startCoords": {
        "latitude": 35.096074,
        "longitude": -106.688066
      },
      "endCoords": {
        "latitude": 35.11739,
        "longitude": -106.605023
      },
      "distanceMeters": 36780.6,
      "durationMs": 7324000,
      "drivingDurationMs": 5967507,
      "idlingDurationMs": 1356493,
      "fuelConsumedMl": 1666,
      "fuelConsumedGallons": 0.44,
      "maxSpeedMph": 45.1,
      "averageSpeedMph": 11.2,
      "safetyEvents": []
    },
    {
      "id": "trip_42554227_20250513_18907",
      "vehicleId": "42554227",
      "driverId": "20000045",
      "startMs": 1747161844000,
      "endMs": 1747165975000,
      "startAddress": "59178 Cody Fort",
      "endAddress": "76391 Denise Point Suite 684",
      "startCoords": {
        "latitude": 35.143271,
        "longitude": -106.540186
      },
      "endCoords": {
        "latitude": 35.115906,
        "longitude": -106.59817
      },
      "distanceMeters": 24055.4,
      "durationMs": 4131000,
      "drivingDurationMs": 3579487,
      "idlingDurationMs": 551513,
      "fuelConsumedMl": 1086,
      "fuelConsumedGallons": 0.287,
      "maxSpeedMph": 44.7,
      "averageSpeedMph": 13.0,
      "safetyEvents": []
    },
    {
      "id": "trip_42554227_20250514_18948",
      "vehicleId": "42554227",
      "driverId": "20000046",
      "startMs": 1747181587000,
      "endMs": 1747183507000,
      "startAddress": "699 Alvarez Alley",
      "endAddress": "8397 Griffin Circle Suite 648",
      "startCoords": {
        "latitude": 35.119168,
        "longitude": -106.710026
      },
      "endCoords": {
        "latitude": 35.05546,
        "longitude": -106.643617
      },
      "distanceMeters": 14583.4,
      "durationMs": 1920000,
      "drivingDurationMs": 1655006,
      "idlingDurationMs": 264994,
      "fuelConsumedMl": 659,
      "fuelConsumedGallons": 0.174,
      "maxSpeedMph": 41.7,
      "averageSpeedMph": 17.0,
      "safetyEvents": []
    },
    {
      "id": "trip_42554227_20250514_18975",
      "vehicleId": "42554227",
      "driverId": "20000044",
      "startMs": 1747194340000,
      "endMs": 1747196320000,
      "startAddress": "882 Cordova Radial",
      "endAddress": "124 Sarah Street",
      "startCoords": {
        "latitude": 35.143487,
        "longitude": -106.569531
      },
      "endCoords": {
        "latitude": 35.173568,
        "longitude": -106.55971
      },
      "distanceMeters": 14455.3,
      "durationMs": 1980000,
      "drivingDurationMs": 1589027,
      "idlingDurationMs": 390973,
      "fuelConsumedMl": 655,
      "fuelConsumedGallons": 0.173,
      "maxSpeedMph": 47.0,
      "averageSpeedMph": 16.3,
      "safetyEvents": []
    },
    {
      "id": "trip_42554227_20250514_19008",
      "vehicleId": "42554227",
      "driverId": "20000046",
      "startMs": 1747216510000,
      "endMs": 1747222171000,
      "startAddress": "5865 Roberto Streets Apt. 109",
      "endAddress": "83527 Bonnie Lane",
      "startCoords": {
        "latitude": 35.085154,
        "longitude": -106.676007
      },
      "endCoords": {
        "latitude": 35.081452,
        "longitude": -106.698346
      },
      "distanceMeters": 46630.8,
      "durationMs": 5661000,
      "drivingDurationMs": 4508620,
      "idlingDurationMs": 1152380,
      "fuelConsumedMl": 2108,
      "fuelConsumedGallons": 0.557,
      "maxSpeedMph": 44.6,
      "averageSpeedMph": 18.4,
      "safetyEvents": []
    },
    {
      "id": "trip_42554227_20250514_19042",
      "vehicleId": "42554227",
      "driverId": "20000045",
      "startMs": 1747231397000,
      "endMs": 1747233737000,
      "startAddress": "4391 Lewis Port",
      "endAddress": "7828 Mueller Mill Suite 799",
      "startCoords": {
        "latitude": 35.073753,
        "longitude": -106.660977
      },
      "endCoords": {
        "latitude": 35.157537,
        "longitude": -106.642552
      },
      "distanceMeters": 14761.2,
      "durationMs": 2340000,
      "drivingDurationMs": 1784962,
      "idlingDurationMs": 555038,
      "fuelConsumedMl": 666,
      "fuelConsumedGallons": 0.176,
      "maxSpeedMph": 30.8,
      "averageSpeedMph": 14.1,
      "safetyEvents": []
    },
    {
      "id": "trip_42554227_20250514_19069",
      "vehicleId": "42554227",
      "driverId": "20000044",
      "startMs": 1747241505000,
      "endMs": 1747242885000,
      "startAddress": "336 Robert Alley",
      "endAddress": "954 Brown Stream Apt. 275",
      "startCoords": {
        "latitude": 35.083647,
        "longitude": -106.571105
      },
      "endCoords": {
        "latitude": 35.166069,
        "longitude": -106.619664
      },
      "distanceMeters": 11128.7,
      "durationMs": 1380000,
      "drivingDurationMs": 1119794,
      "idlingDurationMs": 260206,
      "fuelConsumedMl": 503,
      "fuelConsumedGallons": 0.133,
      "maxSpeedMph": 34.7,
      "averageSpeedMph": 18.0,
      "safetyEvents": []
    },
    {
      "id": "trip_42554227_20250515_19120",
      "vehicleId": "42554227",
      "driverId": "20000044",
      "startMs": 1747272212000,
      "endMs": 1747276968000,
      "startAddress": "3010 Ochoa Crescent Suite 275",
      "endAddress": "0046 Kelly Branch Suite 204",
      "startCoords": {
        "latitude": 35.1122,
        "longitude": -106.543741
      },
      "endCoords": {
        "latitude": 35.117699,
        "longitude": -106.719966
      },
      "distanceMeters": 30999.9,
      "durationMs": 4756000,
      "drivingDurationMs": 4101467,
      "idlingDurationMs": 654533,
      "fuelConsumedMl": 1401,
      "fuelConsumedGallons": 0.37,
      "maxSpeedMph": 36.5,
      "averageSpeedMph": 14.6,
      "safetyEvents": []
    },
    {
      "id": "trip_42554227_20250515_19147",
      "vehicleId": "42554227",
      "driverId": "20000046",
      "startMs": 1747287898000,
      "endMs": 1747289338000,
      "startAddress": "1456 Richard Station",
      "endAddress": "67811 Shaw Knolls Apt. 510",
      "startCoords": {
        "latitude": 35.089545,
        "longitude": -106.68631
      },
      "endCoords": {
        "latitude": 35.044841,
        "longitude": -106.585254
      },
      "distanceMeters": 9410.2,
      "durationMs": 1440000,
      "drivingDurationMs": 1152364,
      "idlingDurationMs": 287636,
      "fuelConsumedMl": 424,
      "fuelConsumedGallons": 0.112,
      "maxSpeedMph": 31.1,
      "averageSpeedMph": 14.6,
      "safetyEvents": []
    },
    {
      "id": "trip_42554227_20250515_19204",
      "vehicleId": "42554227",
      "driverId": "20000044",
      "startMs": 1747315190000,
      "endMs": 1747322615000,
      "startAddress": "33905 Wesley Manors",
      "endAddress": "9619 David Square",
      "startCoords": {
        "latitude": 35.160522,
        "longitude": -106.635173
      },
      "endCoords": {
        "latitude": 35.110608,
        "longitude": -106.644946
      },
      "distanceMeters": 41214.5,
      "durationMs": 7425000,
      "drivingDurationMs": 6658949,
      "idlingDurationMs": 766051,
      "fuelConsumedMl": 1862,
      "fuelConsumedGallons": 0.492,
      "maxSpeedMph": 45.9,
      "averageSpeedMph": 12.4,
      "safetyEvents": []
    },
    {
      "id": "trip_42554227_20250515_19246",
      "vehicleId": "42554227",
      "driverId": "20000044",
      "startMs": 1747338897000,
      "endMs": 1747341580000,
      "startAddress": "14306 Miller Hollow Suite 798",
      "endAddress": "1577 Leblanc Common",
      "startCoords": {
        "latitude": 35.167031,
        "longitude": -106.667865
      },
      "endCoords": {
        "latitude": 35.176884,
        "longitude": -106.648261
      },
      "distanceMeters": 20187.7,
      "durationMs": 2683000,
      "drivingDurationMs": 2314546,
      "idlingDurationMs": 368454,
      "fuelConsumedMl": 912,
      "fuelConsumedGallons": 0.241,
      "maxSpeedMph": 36.0,
      "averageSpeedMph": 16.8,
      "safetyEvents": []
    },
    {
      "id": "trip_42554227_20250515_19269",
      "vehicleId": "42554227",
      "driverId": "20000046",
      "startMs": 1747351948000,
      "endMs": 1747355299000,
      "startAddress": "3569 Miranda Corners Apt. 038",
      "endAddress": "7759 Michael Center Apt. 951",
      "startCoords": {
        "latitude": 35.060271,
        "longitude": -106.599909
      },
      "endCoords": {
        "latitude": 35.105325,
        "longitude": -106.583174
      },
      "distanceMeters": 24315.8,
      "durationMs": 3351000,
      "drivingDurationMs": 2766458,
      "idlingDurationMs": 584542,
      "fuelConsumedMl": 1102,
      "fuelConsumedGallons": 0.291,
      "maxSpeedMph": 38.0,
      "averageSpeedMph": 16.2,
      "safetyEvents": []
    },
    {
      "id": "trip_42554227_20250516_19303",
      "vehicleId": "42554227",
      "driverId": "20000046",
      "startMs": 1747374935000,
      "endMs": 1747376795000,
      "startAddress": "5713 Blevins Streets",
      "endAddress": "8337 Wayne Crest",
      "startCoords": {
        "latitude": 35.137921,
        "longitude": -106.594251
      },
      "endCoords": {
        "latitude": 35.056106,
        "longitude": -106.557417
      },
      "distanceMeters": 12259.3,
      "durationMs": 1860000,
      "drivingDurationMs": 1445174,
      "idlingDurationMs": 414826,
      "fuelConsumedMl": 553,
      "fuelConsumedGallons": 0.146,
      "maxSpeedMph": 46.3,
      "averageSpeedMph": 14.7,
      "safetyEvents": []
    },
    {
      "id": "trip_42554227_20250516_19360",
      "vehicleId": "42554227",
      "driverId": "20000045",
      "startMs": 1747403280000,
      "endMs": 1747405800000,
      "startAddress": "51951 Ronald Court",
      "endAddress": "250 Rivera Glens",
      "startCoords": {
        "latitude": 35.17979,
        "longitude": -106.535875
      },
      "endCoords": {
        "latitude": 35.120565,
        "longitude": -106.672257
      },
      "distanceMeters": 16793.4,
      "durationMs": 2520000,
      "drivingDurationMs": 2065250,
      "idlingDurationMs": 454750,
      "fuelConsumedMl": 761,
      "fuelConsumedGallons": 0.201,
      "maxSpeedMph": 32.1,
      "averageSpeedMph": 14.9,
      "safetyEvents": []
    },
    {
      "id": "trip_42554227_20250516_19408",
      "vehicleId": "42554227",
      "driverId": "20000046",
      "startMs": 1747427022000,
      "endMs": 1747433109000,
      "startAddress": "6502 Burch Drive Suite 757",
      "endAddress": "473 Anthony Meadows Apt. 984",
      "startCoords": {
        "latitude": 35.108628,
        "longitude": -106.709939
      },
      "endCoords": {
        "latitude": 35.165377,
        "longitude": -106.612591
      },
      "distanceMeters": 49155.4,
      "durationMs": 6087000,
      "drivingDurationMs": 5273446,
      "idlingDurationMs": 813554,
      "fuelConsumedMl": 2222,
      "fuelConsumedGallons": 0.587,
      "maxSpeedMph": 44.4,
      "averageSpeedMph": 18.1,
      "safetyEvents": []
    },
    {
      "id": "trip_42554227_20250517_19457",
      "vehicleId": "42554227",
      "driverId": "20000044",
      "startMs": 1747458041000,
      "endMs": 1747460561000,
      "startAddress": "88097 Leonard Vista Apt. 715",
      "endAddress": "901 Frank Burgs",
      "startCoords": {
        "latitude": 35.050025,
        "longitude": -106.657731
      },
      "endCoords": {
        "latitude": 35.127627,
        "longitude": -106.701196
      },
      "distanceMeters": 17306.6,
      "durationMs": 2520000,
      "drivingDurationMs": 2237924,
      "idlingDurationMs": 282076,
      "fuelConsumedMl": 784,
      "fuelConsumedGallons": 0.207,
      "maxSpeedMph": 46.0,
      "averageSpeedMph": 15.4,
      "safetyEvents": []
    },
    {
      "id": "trip_42554227_20250517_19488",
      "vehicleId": "42554227",
      "driverId": "20000045",
      "startMs": 1747478374000,
      "endMs": 1747480234000,
      "startAddress": "42116 Hunt Parkways",
      "endAddress": "0825 Taylor Spur",
      "startCoords": {
        "latitude": 35.070082,
        "longitude": -106.596595
      },
      "endCoords": {
        "latitude": 35.047017,
        "longitude": -106.587911
      },
      "distanceMeters": 15446.0,
      "durationMs": 1860000,
      "drivingDurationMs": 1570122,
      "idlingDurationMs": 289878,
      "fuelConsumedMl": 700,
      "fuelConsumedGallons": 0.185,
      "maxSpeedMph": 32.8,
      "averageSpeedMph": 18.6,
      "safetyEvents": []
    },
    {
      "id": "trip_42554227_20250517_19512",
      "vehicleId": "42554227",
      "driverId": "20000044",
      "startMs": 1747488474000,
      "endMs": 1747490574000,
      "startAddress": "498 Green Islands Suite 633",
      "endAddress": "16112 Stanley Springs Apt. 132",
      "startCoords": {
        "latitude": 35.180359,
        "longitude": -106.639594
      },
      "endCoords": {
        "latitude": 35.07957,
        "longitude": -106.586314
      },
      "distanceMeters": 17972.5,
      "durationMs": 2100000,
      "drivingDurationMs": 1764144,
      "idlingDurationMs": 335856,
      "fuelConsumedMl": 814,
      "fuelConsumedGallons": 0.215,
      "maxSpeedMph": 37.4,
      "averageSpeedMph": 19.1,
      "safetyEvents": []
    },
    {
      "id": "trip_42554227_20250517_19548",
      "vehicleId": "42554227",
      "driverId": "20000046",
      "startMs": 1747510212000,
      "endMs": 1747511892000,
      "startAddress": "2681 Morales Way",
      "endAddress": "13345 Melanie Meadows Apt. 744",
      "startCoords": {
        "latitude": 35.179781,
        "longitude": -106.721598
      },
      "endCoords": {
        "latitude": 35.117555,
        "longitude": -106.643962
      },
      "distanceMeters": 9643.3,
      "durationMs": 1680000,
      "drivingDurationMs": 1407481,
      "idlingDurationMs": 272519,
      "fuelConsumedMl": 435,
      "fuelConsumedGallons": 0.115,
      "maxSpeedMph": 43.6,
      "averageSpeedMph": 12.8,
      "safetyEvents": []
    },
    {
      "id": "trip_42554227_20250517_19569",
      "vehicleId": "42554227",
      "driverId": "20000046",
      "startMs": 1747524588000,
      "endMs": 1747529397000,
      "startAddress": "0468 Wendy Coves Suite 564",
      "endAddress": "220 Teresa Square Apt. 744",
      "startCoords": {
        "latitude": 35.056456,
        "longitude": -106.637671
      },
      "endCoords": {
        "latitude": 35.045971,
        "longitude": -106.569748
      },
      "distanceMeters": 30381.1,
      "durationMs": 4809000,
      "drivingDurationMs": 4174061,
      "idlingDurationMs": 634939,
      "fuelConsumedMl": 1374,
      "fuelConsumedGallons": 0.363,
      "maxSpeedMph": 38.0,
      "averageSpeedMph": 14.1,
      "safetyEvents": []
    },
    {
      "id": "trip_42554227_20250518_19666",
      "vehicleId": "42554227",
      "driverId": "20000044",
      "startMs": 1747600058000,
      "endMs": 1747602338000,
      "startAddress": "50050 Bonnie Grove",
      "endAddress": "432 Walker Cape",
      "startCoords": {
        "latitude": 35.135136,
        "longitude": -106.676327
      },
      "endCoords": {
        "latitude": 35.111059,
        "longitude": -106.582417
      },
      "distanceMeters": 20062.1,
      "durationMs": 2280000,
      "drivingDurationMs": 2028594,
      "idlingDurationMs": 251406,
      "fuelConsumedMl": 908,
      "fuelConsumedGallons": 0.24,
      "maxSpeedMph": 33.5,
      "averageSpeedMph": 19.7,
      "safetyEvents": []
    },
    {
      "id": "trip_42554227_20250519_19702",
      "vehicleId": "42554227",
      "driverId": "20000044",
      "startMs": 1747650855000,
      "endMs": 1747653555000,
      "startAddress": "99472 Damon Lock",
      "endAddress": "2856 Smith Drive Apt. 356",
      "startCoords": {
        "latitude": 35.14769,
        "longitude": -106.625211
      },
      "endCoords": {
        "latitude": 35.15462,
        "longitude": -106.634566
      },
      "distanceMeters": 17083.2,
      "durationMs": 2700000,
      "drivingDurationMs": 2282092,
      "idlingDurationMs": 417908,
      "fuelConsumedMl": 772,
      "fuelConsumedGallons": 0.204,
      "maxSpeedMph": 39.0,
      "averageSpeedMph": 14.2,
      "safetyEvents": []
    },
    {
      "id": "trip_42554227_20250519_19745",
      "vehicleId": "42554227",
      "driverId": "20000044",
      "startMs": 1747673100000,
      "endMs": 1747678022000,
      "startAddress": "2051 Julian Meadow Suite 099",
      "endAddress": "657 Thomas Parkway Apt. 343",
      "startCoords": {
        "latitude": 35.072655,
        "longitude": -106.585493
      },
      "endCoords": {
        "latitude": 35.05408,
        "longitude": -106.60631
      },
      "distanceMeters": 34702.3,
      "durationMs": 4922000,
      "drivingDurationMs": 3816417,
      "idlingDurationMs": 1105583,
      "fuelConsumedMl": 1571,
      "fuelConsumedGallons": 0.415,
      "maxSpeedMph": 41.3,
      "averageSpeedMph": 15.8,
      "safetyEvents": []
    },
    {
      "id": "trip_42554227_20250519_19780",
      "vehicleId": "42554227",
      "driverId": "20000046",
      "startMs": 1747693730000,
      "endMs": 1747695530000,
      "startAddress": "50469 Elizabeth Bypass",
      "endAddress": "381 Monica Union",
      "startCoords": {
        "latitude": 35.125332,
        "longitude": -106.697667
      },
      "endCoords": {
        "latitude": 35.042841,
        "longitude": -106.555106
      },
      "distanceMeters": 11333.1,
      "durationMs": 1800000,
      "drivingDurationMs": 1482003,
      "idlingDurationMs": 317997,
      "fuelConsumedMl": 511,
      "fuelConsumedGallons": 0.135,
      "maxSpeedMph": 44.3,
      "averageSpeedMph": 14.1,
      "safetyEvents": []
    },
    {
      "id": "trip_42554227_20250520_19839",
      "vehicleId": "42554227",
      "driverId": "20000046",
      "startMs": 1747729262000,
      "endMs": 1747745283000,
      "startAddress": "60834 James Keys Apt. 796",
      "endAddress": "3066 Diana Locks Apt. 149",
      "startCoords": {
        "latitude": 35.061207,
        "longitude": -106.703124
      },
      "endCoords": {
        "latitude": 35.075996,
        "longitude": -106.680819
      },
      "distanceMeters": 106545.6,
      "durationMs": 16021000,
      "drivingDurationMs": 12290951,
      "idlingDurationMs": 3730049,
      "fuelConsumedMl": 4819,
      "fuelConsumedGallons": 1.273,
      "maxSpeedMph": 43.5,
      "averageSpeedMph": 14.9,
      "safetyEvents": []
    },
    {
      "id": "trip_42554227_20250520_19886",
      "vehicleId": "42554227",
      "driverId": "20000046",
      "startMs": 1747753739000,
      "endMs": 1747758248000,
      "startAddress": "4875 Randy Island Apt. 633",
      "endAddress": "39429 Hayley Junction",
      "startCoords": {
        "latitude": 35.099223,
        "longitude": -106.707908
      },
      "endCoords": {
        "latitude": 35.14744,
        "longitude": -106.653923
      },
      "distanceMeters": 35770.1,
      "durationMs": 4509000,
      "drivingDurationMs": 3756004,
      "idlingDurationMs": 752996,
      "fuelConsumedMl": 1616,
      "fuelConsumedGallons": 0.427,
      "maxSpeedMph": 32.7,
      "averageSpeedMph": 17.7,
      "safetyEvents": []
    },
    {
      "id": "trip_42554227_20250520_19918",
      "vehicleId": "42554227",
      "driverId": "20000044",
      "startMs": 1747767623000,
      "endMs": 1747769663000,
      "startAddress": "981 Chang Stravenue",
      "endAddress": "50701 Warner Ridges Suite 511",
      "startCoords": {
        "latitude": 35.081484,
        "longitude": -106.684775
      },
      "endCoords": {
        "latitude": 35.09225,
        "longitude": -106.651316
      },
      "distanceMeters": 11128.7,
      "durationMs": 2040000,
      "drivingDurationMs": 1545214,
      "idlingDurationMs": 494786,
      "fuelConsumedMl": 503,
      "fuelConsumedGallons": 0.133,
      "maxSpeedMph": 37.5,
      "averageSpeedMph": 12.2,
      "safetyEvents": []
    },
    {
      "id": "trip_42554227_20250521_19945",
      "vehicleId": "42554227",
      "driverId": "20000046",
      "startMs": 1747786605000,
      "endMs": 1747796305000,
      "startAddress": "250 Anderson Creek",
      "endAddress": "242 Greene Vista Apt. 800",
      "startCoords": {
        "latitude": 35.153899,
        "longitude": -106.569024
      },
      "endCoords": {
        "latitude": 35.147249,
        "longitude": -106.54739
      },
      "distanceMeters": 54299.7,
      "durationMs": 9700000,
      "drivingDurationMs": 8205797,
      "idlingDurationMs": 1494203,
      "fuelConsumedMl": 2457,
      "fuelConsumedGallons": 0.649,
      "maxSpeedMph": 36.8,
      "averageSpeedMph": 12.5,
      "safetyEvents": []
    },
    {
      "id": "trip_42554227_20250521_19969",
      "vehicleId": "42554227",
      "driverId": "20000046",
      "startMs": 1747804696000,
      "endMs": 1747819360000,
      "startAddress": "82750 Jennifer Highway Suite 902",
      "endAddress": "57462 Kimberly Vista Apt. 605",
      "startCoords": {
        "latitude": 35.155037,
        "longitude": -106.672927
      },
      "endCoords": {
        "latitude": 35.121806,
        "longitude": -106.638448
      },
      "distanceMeters": 121587.2,
      "durationMs": 14664000,
      "drivingDurationMs": 12709471,
      "idlingDurationMs": 1954529,
      "fuelConsumedMl": 5500,
      "fuelConsumedGallons": 1.453,
      "maxSpeedMph": 35.7,
      "averageSpeedMph": 18.5,
      "safetyEvents": []
    },
    {
      "id": "trip_42554227_20250521_20002",
      "vehicleId": "42554227",
      "driverId": "20000044",
      "startMs": 1747823049000,
      "endMs": 1747828885000,
      "startAddress": "0945 Mary Fords Apt. 957",
      "endAddress": "3726 Wood Forge Suite 218",
      "startCoords": {
        "latitude": 35.070732,
        "longitude": -106.704257
      },
      "endCoords": {
        "latitude": 35.157305,
        "longitude": -106.608326
      },
      "distanceMeters": 46564.3,
      "durationMs": 5836000,
      "drivingDurationMs": 4911080,
      "idlingDurationMs": 924920,
      "fuelConsumedMl": 2105,
      "fuelConsumedGallons": 0.556,
      "maxSpeedMph": 32.8,
      "averageSpeedMph": 17.8,
      "safetyEvents": []
    },
    {
      "id": "trip_42554227_20250521_20032",
      "vehicleId": "42554227",
      "driverId": "20000045",
      "startMs": 1747840375000,
      "endMs": 1747847726000,
      "startAddress": "586 Kara Hill Apt. 192",
      "endAddress": "04196 Alison Underpass Suite 261",
      "startCoords": {
        "latitude": 35.062073,
        "longitude": -106.698768
      },
      "endCoords": {
        "latitude": 35.075093,
        "longitude": -106.625503
      },
      "distanceMeters": 40050.7,
      "durationMs": 7351000,
      "drivingDurationMs": 5536988,
      "idlingDurationMs": 1814012,
      "fuelConsumedMl": 1813,
      "fuelConsumedGallons": 0.479,
      "maxSpeedMph": 39.8,
      "averageSpeedMph": 12.2,
      "safetyEvents": []
    },
    {
      "id": "trip_42554227_20250521_20088",
      "vehicleId": "42554227",
      "driverId": "20000046",
      "startMs": 1747866118000,
      "endMs": 1747867978000,
      "startAddress": "9564 Cox Way",
      "endAddress": "1495 Mark Garden Apt. 476",
      "startCoords": {
        "latitude": 35.175308,
        "longitude": -106.567427
      },
      "endCoords": {
        "latitude": 35.053698,
        "longitude": -106.719405
      },
      "distanceMeters": 12878.2,
      "durationMs": 1860000,
      "drivingDurationMs": 1620172,
      "idlingDurationMs": 239828,
      "fuelConsumedMl": 583,
      "fuelConsumedGallons": 0.154,
      "maxSpeedMph": 40.9,
      "averageSpeedMph": 15.5,
      "safetyEvents": []
    },
    {
      "id": "trip_42554227_20250522_20131",
      "vehicleId": "42554227",
      "driverId": "20000046",
      "startMs": 1747894590000,
      "endMs": 1747896030000,
      "startAddress": "2299 Brianna Oval",
      "endAddress": "62939 Patricia Stravenue",
      "startCoords": {
        "latitude": 35.163972,
        "longitude": -106.626302
      },
      "endCoords": {
        "latitude": 35.054513,
        "longitude": -106.659718
      },
      "distanceMeters": 9771.3,
      "durationMs": 1440000,
      "drivingDurationMs": 1205543,
      "idlingDurationMs": 234457,
      "fuelConsumedMl": 443,
      "fuelConsumedGallons": 0.117,
      "maxSpeedMph": 36.1,
      "averageSpeedMph": 15.2,
      "safetyEvents": []
    },
    {
      "id": "trip_42554227_20250522_20153",
      "vehicleId": "42554227",
      "driverId": "20000045",
      "startMs": 1747906428000,
      "endMs": 1747910173000,
      "startAddress": "9387 Benjamin Prairie Suite 435",
      "endAddress": "31516 Paul Rue",
      "startCoords": {
        "latitude": 35.04168,
        "longitude": -106.689806
      },
      "endCoords": {
        "latitude": 35.094346,
        "longitude": -106.569456
      },
      "distanceMeters": 20698.2,
      "durationMs": 3745000,
      "drivingDurationMs": 2946527,
      "idlingDurationMs": 798473,
      "fuelConsumedMl": 935,
      "fuelConsumedGallons": 0.247,
      "maxSpeedMph": 47.1,
      "averageSpeedMph": 12.4,
      "safetyEvents": []
    },
    {
      "id": "trip_42554227_20250522_20209",
      "vehicleId": "42554227",
      "driverId": "20000046",
      "startMs": 1747934451000,
      "endMs": 1747962354000,
      "startAddress": "75674 Morris Ports Apt. 609",
      "endAddress": "47283 Morse Oval Suite 059",
      "startCoords": {
        "latitude": 35.054126,
        "longitude": -106.624511
      },
      "endCoords": {
        "latitude": 35.090103,
        "longitude": -106.618282
      },
      "distanceMeters": 232019.6,
      "durationMs": 27903000,
      "drivingDurationMs": 24844061,
      "idlingDurationMs": 3058939,
      "fuelConsumedMl": 10497,
      "fuelConsumedGallons": 2.773,
      "maxSpeedMph": 43.1,
      "averageSpeedMph": 18.6,
      "safetyEvents": []
    },
    {
      "id": "trip_42554227_20250523_20267",
      "vehicleId": "42554227",
      "driverId": "20000045",
      "startMs": 1747967040000,
      "endMs": 1747975446000,
      "startAddress": "4347 Anderson Drives Apt. 460",
      "endAddress": "17966 Johnson Summit Suite 261",
      "startCoords": {
        "latitude": 35.07632,
        "longitude": -106.638674
      },
      "endCoords": {
        "latitude": 35.180138,
        "longitude": -106.702797
      },
      "distanceMeters": 69417.4,
      "durationMs": 8406000,
      "drivingDurationMs": 7281764,
      "idlingDurationMs": 1124236,
      "fuelConsumedMl": 3138,
      "fuelConsumedGallons": 0.829,
      "maxSpeedMph": 46.4,
      "averageSpeedMph": 18.5,
      "safetyEvents": []
    },
    {
      "id": "trip_42554227_20250523_20301",
      "vehicleId": "42554227",
      "driverId": "20000044",
      "startMs": 1747985119000,
      "endMs": 1747990924000,
      "startAddress": "448 Jeffrey Stream Suite 956",
      "endAddress": "9315 David Roads Suite 533",
      "startCoords": {
        "latitude": 35.175365,
        "longitude": -106.639889
      },
      "endCoords": {
        "latitude": 35.116788,
        "longitude": -106.546974
      },
      "distanceMeters": 43492.1,
      "durationMs": 5805000,
      "drivingDurationMs": 5169743,
      "idlingDurationMs": 635257,
      "fuelConsumedMl": 1968,
      "fuelConsumedGallons": 0.52,
      "maxSpeedMph": 40.9,
      "averageSpeedMph": 16.8,
      "safetyEvents": []
    },
    {
      "id": "trip_42554227_20250523_20335",
      "vehicleId": "42554227",
      "driverId": "20000044",
      "startMs": 1748002639000,
      "endMs": 1748004859000,
      "startAddress": "317 Watts Shore Suite 496",
      "endAddress": "1240 Martha Loop Suite 659",
      "startCoords": {
        "latitude": 35.112731,
        "longitude": -106.663819
      },
      "endCoords": {
        "latitude": 35.125889,
        "longitude": -106.623674
      },
      "distanceMeters": 10417.0,
      "durationMs": 2220000,
      "drivingDurationMs": 1687238,
      "idlingDurationMs": 532762,
      "fuelConsumedMl": 469,
      "fuelConsumedGallons": 0.124,
      "maxSpeedMph": 45.2,
      "averageSpeedMph": 10.5,
      "safetyEvents": []
    },
    {
      "id": "trip_42554227_20250523_20353",
      "vehicleId": "42554227",
      "driverId": "20000044",
      "startMs": 1748011145000,
      "endMs": 1748012885000,
      "startAddress": "53847 Rojas Shore",
      "endAddress": "4165 Joy Dam",
      "startCoords": {
        "latitude": 35.077353,
        "longitude": -106.637494
      },
      "endCoords": {
        "latitude": 35.084937,
        "longitude": -106.709322
      },
      "distanceMeters": 10967.2,
      "durationMs": 1740000,
      "drivingDurationMs": 1380250,
      "idlingDurationMs": 359750,
      "fuelConsumedMl": 496,
      "fuelConsumedGallons": 0.131,
      "maxSpeedMph": 42.2,
      "averageSpeedMph": 14.1,
      "safetyEvents": []
    },
    {
      "id": "trip_42554227_20250523_20403",
      "vehicleId": "42554227",
      "driverId": "20000046",
      "startMs": 1748039177000,
      "endMs": 1748041817000,
      "startAddress": "917 Lindsey Ferry Suite 216",
      "endAddress": "7650 Barnes Mountain Apt. 078",
      "startCoords": {
        "latitude": 35.073115,
        "longitude": -106.542905
      },
      "endCoords": {
        "latitude": 35.050256,
        "longitude": -106.62115
      },
      "distanceMeters": 22718.0,
      "durationMs": 2640000,
      "drivingDurationMs": 2243965,
      "idlingDurationMs": 396035,
      "fuelConsumedMl": 1026,
      "fuelConsumedGallons": 0.271,
      "maxSpeedMph": 46.2,
      "averageSpeedMph": 19.2,
      "safetyEvents": []
    },
    {
      "id": "trip_42554227_20250524_20445",
      "vehicleId": "42554227",
      "driverId": "20000045",
      "startMs": 1748063578000,
      "endMs": 1748070994000,
      "startAddress": "5537 Hall Flat Suite 413",
      "endAddress": "1456 Harris Isle Apt. 746",
      "startCoords": {
        "latitude": 35.135233,
        "longitude": -106.53928
      },
      "endCoords": {
        "latitude": 35.173103,
        "longitude": -106.574121
      },
      "distanceMeters": 36001.5,
      "durationMs": 7416000,
      "drivingDurationMs": 5577098,
      "idlingDurationMs": 1838902,
      "fuelConsumedMl": 1628,
      "fuelConsumedGallons": 0.43,
      "maxSpeedMph": 31.0,
      "averageSpeedMph": 10.9,
      "safetyEvents": []
    },
    {
      "id": "trip_42554227_20250524_20499",
      "vehicleId": "42554227",
      "driverId": "20000045",
      "startMs": 1748091920000,
      "endMs": 1748096885000,
      "startAddress": "217 Timothy Vista Apt. 706",
      "endAddress": "9615 Danielle Streets",
      "startCoords": {
        "latitude": 35.091769,
        "longitude": -106.556194
      },
      "endCoords": {
        "latitude": 35.039547,
        "longitude": -106.562229
      },
      "distanceMeters": 39533.9,
      "durationMs": 4965000,
      "drivingDurationMs": 3795386,
      "idlingDurationMs": 1169614,
      "fuelConsumedMl": 1787,
      "fuelConsumedGallons": 0.472,
      "maxSpeedMph": 45.4,
      "averageSpeedMph": 17.8,
      "safetyEvents": []
    },
    {
      "id": "trip_42554227_20250524_20523",
      "vehicleId": "42554227",
      "driverId": "20000046",
      "startMs": 1748103670000,
      "endMs": 1748105950000,
      "startAddress": "18150 Lisa Knoll Suite 167",
      "endAddress": "1527 Steve Fields",
      "startCoords": {
        "latitude": 35.174937,
        "longitude": -106.66196
      },
      "endCoords": {
        "latitude": 35.150014,
        "longitude": -106.623606
      },
      "distanceMeters": 17137.9,
      "durationMs": 2280000,
      "drivingDurationMs": 1817117,
      "idlingDurationMs": 462883,
      "fuelConsumedMl": 776,
      "fuelConsumedGallons": 0.205,
      "maxSpeedMph": 41.2,
      "averageSpeedMph": 16.8,
      "safetyEvents": []
    },
    {
      "id": "trip_42554227_20250524_20557",
      "vehicleId": "42554227",
      "driverId": "20000046",
      "startMs": 1748119003000,
      "endMs": 1748120743000,
      "startAddress": "69150 Thomas Crossing",
      "endAddress": "6113 Deanna Courts Suite 986",
      "startCoords": {
        "latitude": 35.076929,
        "longitude": -106.662935
      },
      "endCoords": {
        "latitude": 35.050395,
        "longitude": -106.63892
      },
      "distanceMeters": 10039.7,
      "durationMs": 1740000,
      "drivingDurationMs": 1549143,
      "idlingDurationMs": 190857,
      "fuelConsumedMl": 454,
      "fuelConsumedGallons": 0.12,
      "maxSpeedMph": 37.6,
      "averageSpeedMph": 12.9,
      "safetyEvents": []
    },
    {
      "id": "trip_42554227_20250525_20603",
      "vehicleId": "42554227",
      "driverId": "20000044",
      "startMs": 1748153297000,
      "endMs": 1748159812000,
      "startAddress": "3922 Larson Hill Suite 247",
      "endAddress": "76994 Johnson Freeway",
      "startCoords": {
        "latitude": 35.075884,
        "longitude": -106.564982
      },
      "endCoords": {
        "latitude": 35.065561,
        "longitude": -106.648747
      },
      "distanceMeters": 43155.5,
      "durationMs": 6515000,
      "drivingDurationMs": 4939519,
      "idlingDurationMs": 1575481,
      "fuelConsumedMl": 1953,
      "fuelConsumedGallons": 0.516,
      "maxSpeedMph": 42.9,
      "averageSpeedMph": 14.8,
      "safetyEvents": []
    },
    {
      "id": "trip_42554227_20250525_20648",
      "vehicleId": "42554227",
      "driverId": "20000044",
      "startMs": 1748185133000,
      "endMs": 1748199569000,
      "startAddress": "93984 Cook Flats Suite 414",
      "endAddress": "377 Rogers Mount Apt. 068",
      "startCoords": {
        "latitude": 35.059465,
        "longitude": -106.604718
      },
      "endCoords": {
        "latitude": 35.133362,
        "longitude": -106.681757
      },
      "distanceMeters": 97368.5,
      "durationMs": 14436000,
      "drivingDurationMs": 12966289,
      "idlingDurationMs": 1469711,
      "fuelConsumedMl": 4402,
      "fuelConsumedGallons": 1.163,
      "maxSpeedMph": 37.7,
      "averageSpeedMph": 15.1,
      "safetyEvents": []
    },
    {
      "id": "trip_42554227_20250526_20711",
      "vehicleId": "42554227",
      "driverId": "20000045",
      "startMs": 1748246270000,
      "endMs": 1748248370000,
      "startAddress": "88003 Jackson Pines",
      "endAddress": "526 Palmer Forges Suite 001",
      "startCoords": {
        "latitude": 35.097614,
        "longitude": -106.676351
      },
      "endCoords": {
        "latitude": 35.064971,
        "longitude": -106.560183
      },
      "distanceMeters": 13902.2,
      "durationMs": 2100000,
      "drivingDurationMs": 1661259,
      "idlingDurationMs": 438741,
      "fuelConsumedMl": 628,
      "fuelConsumedGallons": 0.166,
      "maxSpeedMph": 47.2,
      "averageSpeedMph": 14.8,
      "safetyEvents": []
    },
    {
      "id": "trip_42554227_20250526_20745",
      "vehicleId": "42554227",
      "driverId": "20000046",
      "startMs": 1748261452000,
      "endMs": 1748272023000,
      "startAddress": "9124 Christina Mount",
      "endAddress": "22331 Michael Court Suite 309",
      "startCoords": {
        "latitude": 35.070798,
        "longitude": -106.607309
      },
      "endCoords": {
        "latitude": 35.11711,
        "longitude": -106.626928
      },
      "distanceMeters": 75302.2,
      "durationMs": 10571000,
      "drivingDurationMs": 8254349,
      "idlingDurationMs": 2316651,
      "fuelConsumedMl": 3407,
      "fuelConsumedGallons": 0.9,
      "maxSpeedMph": 34.2,
      "averageSpeedMph": 15.9,
      "safetyEvents": []
    },
    {
      "id": "trip_42554227_20250526_20776",
      "vehicleId": "42554227",
      "driverId": "20000046",
      "startMs": 1748278192000,
      "endMs": 1748286812000,
      "startAddress": "6752 Hansen Forest Apt. 440",
      "endAddress": "9154 Michael Lakes Suite 063",
      "startCoords": {
        "latitude": 35.157216,
        "longitude": -106.69326
      },
      "endCoords": {
        "latitude": 35.167115,
        "longitude": -106.589701
      },
      "distanceMeters": 43523.0,
      "durationMs": 8620000,
      "drivingDurationMs": 6685319,
      "idlingDurationMs": 1934681,
      "fuelConsumedMl": 1968,
      "fuelConsumedGallons": 0.52,
      "maxSpeedMph": 44.7,
      "averageSpeedMph": 11.3,
      "safetyEvents": []
    },
    {
      "id": "trip_42554227_20250527_20818",
      "vehicleId": "42554227",
      "driverId": "20000046",
      "startMs": 1748304354000,
      "endMs": 1748306111000,
      "startAddress": "22824 Thomas Square Apt. 352",
      "endAddress": "232 Robinson Road Apt. 316",
      "startCoords": {
        "latitude": 35.162311,
        "longitude": -106.548758
      },
      "endCoords": {
        "latitude": 35.167373,
        "longitude": -106.548514
      },
      "distanceMeters": 12586.7,
      "durationMs": 1757000,
      "drivingDurationMs": 1515617,
      "idlingDurationMs": 241383,
      "fuelConsumedMl": 568,
      "fuelConsumedGallons": 0.15,
      "maxSpeedMph": 36.2,
      "averageSpeedMph": 16.0,
      "safetyEvents": []
    },
    {
      "id": "trip_42554227_20250527_20864",
      "vehicleId": "42554227",
      "driverId": "20000045",
      "startMs": 1748332791000,
      "endMs": 1748334891000,
      "startAddress": "268 Dylan Expressway",
      "endAddress": "8020 Haynes Points Apt. 279",
      "startCoords": {
        "latitude": 35.044813,
        "longitude": -106.705111
      },
      "endCoords": {
        "latitude": 35.108967,
        "longitude": -106.653515
      },
      "distanceMeters": 17678.1,
      "durationMs": 2100000,
      "drivingDurationMs": 1770992,
      "idlingDurationMs": 329008,
      "fuelConsumedMl": 799,
      "fuelConsumedGallons": 0.211,
      "maxSpeedMph": 34.7,
      "averageSpeedMph": 18.8,
      "safetyEvents": []
    },
    {
      "id": "trip_42554227_20250527_20910",
      "vehicleId": "42554227",
      "driverId": "20000044",
      "startMs": 1748354247000,
      "endMs": 1748355747000,
      "startAddress": "12168 Lori Ports Apt. 907",
      "endAddress": "78868 Johnson Lodge",
      "startCoords": {
        "latitude": 35.136543,
        "longitude": -106.587597
      },
      "endCoords": {
        "latitude": 35.154611,
        "longitude": -106.581329
      },
      "distanceMeters": 9831.4,
      "durationMs": 1500000,
      "drivingDurationMs": 1178701,
      "idlingDurationMs": 321299,
      "fuelConsumedMl": 443,
      "fuelConsumedGallons": 0.117,
      "maxSpeedMph": 46.9,
      "averageSpeedMph": 14.7,
      "safetyEvents": []
    },
    {
      "id": "trip_42554227_20250527_20950",
      "vehicleId": "42554227",
      "driverId": "20000044",
      "startMs": 1748374621000,
      "endMs": 1748376361000,
      "startAddress": "95793 Samantha Canyon Apt. 883",
      "endAddress": "97065 Rios Place Apt. 459",
      "startCoords": {
        "latitude": 35.096063,
        "longitude": -106.658287
      },
      "endCoords": {
        "latitude": 35.061299,
        "longitude": -106.685408
      },
      "distanceMeters": 15273.8,
      "durationMs": 1740000,
      "drivingDurationMs": 1544102,
      "idlingDurationMs": 195898,
      "fuelConsumedMl": 693,
      "fuelConsumedGallons": 0.183,
      "maxSpeedMph": 35.6,
      "averageSpeedMph": 19.6,
      "safetyEvents": []
    },
    {
      "id": "trip_42554227_20250528_20981",
      "vehicleId": "42554227",
      "driverId": "20000046",
      "startMs": 1748394091000,
      "endMs": 1748396251000,
      "startAddress": "242 Hawkins Extensions Apt. 007",
      "endAddress": "72503 Abbott Forges",
      "startCoords": {
        "latitude": 35.043944,
        "longitude": -106.666198
      },
      "endCoords": {
        "latitude": 35.075837,
        "longitude": -106.629512
      },
      "distanceMeters": 15343.2,
      "durationMs": 2160000,
      "drivingDurationMs": 1759397,
      "idlingDurationMs": 400603,
      "fuelConsumedMl": 693,
      "fuelConsumedGallons": 0.183,
      "maxSpeedMph": 40.6,
      "averageSpeedMph": 15.9,
      "safetyEvents": []
    },
    {
      "id": "trip_42554227_20250528_21011",
      "vehicleId": "42554227",
      "driverId": "20000045",
      "startMs": 1748412186000,
      "endMs": 1748420034000,
      "startAddress": "92361 Tracy Bridge",
      "endAddress": "06476 Christopher Dam",
      "startCoords": {
        "latitude": 35.075557,
        "longitude": -106.594567
      },
      "endCoords": {
        "latitude": 35.141331,
        "longitude": -106.674705
      },
      "distanceMeters": 52659.4,
      "durationMs": 7848000,
      "drivingDurationMs": 6897126,
      "idlingDurationMs": 950874,
      "fuelConsumedMl": 2381,
      "fuelConsumedGallons": 0.629,
      "maxSpeedMph": 45.8,
      "averageSpeedMph": 15.0,
      "safetyEvents": []
    },
    {
      "id": "trip_42554227_20250528_21051",
      "vehicleId": "42554227",
      "driverId": "20000044",
      "startMs": 1748431717000,
      "endMs": 1748448608000,
      "startAddress": "97781 Castillo Cliff Apt. 567",
      "endAddress": "7816 Hart Mill",
      "startCoords": {
        "latitude": 35.167359,
        "longitude": -106.563923
      },
      "endCoords": {
        "latitude": 35.119339,
        "longitude": -106.543513
      },
      "distanceMeters": 103926.4,
      "durationMs": 16891000,
      "drivingDurationMs": 14957137,
      "idlingDurationMs": 1933863,
      "fuelConsumedMl": 4701,
      "fuelConsumedGallons": 1.242,
      "maxSpeedMph": 42.8,
      "averageSpeedMph": 13.8,
      "safetyEvents": []
    },
    {
      "id": "trip_42554227_20250528_21097",
      "vehicleId": "42554227",
      "driverId": "20000045",
      "startMs": 1748455361000,
      "endMs": 1748457986000,
      "startAddress": "316 Wendy Inlet",
      "endAddress": "56861 Carol Tunnel Apt. 569",
      "startCoords": {
        "latitude": 35.087056,
        "longitude": -106.652227
      },
      "endCoords": {
        "latitude": 35.068479,
        "longitude": -106.657596
      },
      "distanceMeters": 14288.6,
      "durationMs": 2625000,
      "drivingDurationMs": 1983968,
      "idlingDurationMs": 641032,
      "fuelConsumedMl": 647,
      "fuelConsumedGallons": 0.171,
      "maxSpeedMph": 31.2,
      "averageSpeedMph": 12.2,
      "safetyEvents": []
    },
    {
      "id": "trip_42554227_20250528_21128",
      "vehicleId": "42554227",
      "driverId": "20000044",
      "startMs": 1748473441000,
      "endMs": 1748478892000,
      "startAddress": "663 Martin Meadows",
      "endAddress": "179 Janice Roads",
      "startCoords": {
        "latitude": 35.130153,
        "longitude": -106.541931
      },
      "endCoords": {
        "latitude": 35.16425,
        "longitude": -106.712836
      },
      "distanceMeters": 48083.7,
      "durationMs": 5451000,
      "drivingDurationMs": 4569299,
      "idlingDurationMs": 881701,
      "fuelConsumedMl": 2177,
      "fuelConsumedGallons": 0.575,
      "maxSpeedMph": 42.4,
      "averageSpeedMph": 19.7,
      "safetyEvents": []
    },
    {
      "id": "trip_42554227_20250529_21157",
      "vehicleId": "42554227",
      "driverId": "20000045",
      "startMs": 1748491670000,
      "endMs": 1748493470000,
      "startAddress": "68715 Angela Hollow Apt. 314",
      "endAddress": "550 Miller Fall",
      "startCoords": {
        "latitude": 35.05577,
        "longitude": -106.673374
      },
      "endCoords": {
        "latitude": 35.175643,
        "longitude": -106.564595
      },
      "distanceMeters": 10006.1,
      "durationMs": 1800000,
      "drivingDurationMs": 1525067,
      "idlingDurationMs": 274933,
      "fuelConsumedMl": 454,
      "fuelConsumedGallons": 0.12,
      "maxSpeedMph": 36.8,
      "averageSpeedMph": 12.4,
      "safetyEvents": []
    },
    {
      "id": "trip_42554227_20250529_21197",
      "vehicleId": "42554227",
      "driverId": "20000045",
      "startMs": 1748517126000,
      "endMs": 1748519706000,
      "startAddress": "82654 Thomas Key",
      "endAddress": "68877 James Green Suite 698",
      "startCoords": {
        "latitude": 35.131528,
        "longitude": -106.696901
      },
      "endCoords": {
        "latitude": 35.125951,
        "longitude": -106.671611
      },
      "distanceMeters": 20721.3,
      "durationMs": 2580000,
      "drivingDurationMs": 2177322,
      "idlingDurationMs": 402678,
      "fuelConsumedMl": 939,
      "fuelConsumedGallons": 0.248,
      "maxSpeedMph": 43.9,
      "averageSpeedMph": 18.0,
      "safetyEvents": []
    },
    {
      "id": "trip_42554227_20250529_21235",
      "vehicleId": "42554227",
      "driverId": "20000044",
      "startMs": 1748535636000,
      "endMs": 1748557269000,
      "startAddress": "78742 Wong Lane Apt. 925",
      "endAddress": "4265 Patricia Lodge Suite 016",
      "startCoords": {
        "latitude": 35.12332,
        "longitude": -106.697406
      },
      "endCoords": {
        "latitude": 35.065995,
        "longitude": -106.619921
      },
      "distanceMeters": 127711.5,
      "durationMs": 21633000,
      "drivingDurationMs": 18930282,
      "idlingDurationMs": 2702718,
      "fuelConsumedMl": 5777,
      "fuelConsumedGallons": 1.526,
      "maxSpeedMph": 43.1,
      "averageSpeedMph": 13.2,
      "safetyEvents": []
    },
    {
      "id": "trip_42554227_20250530_21305",
      "vehicleId": "42554227",
      "driverId": "20000045",
      "startMs": 1748581168000,
      "endMs": 1748582788000,
      "startAddress": "25544 Hughes Square Suite 669",
      "endAddress": "310 John Mission",
      "startCoords": {
        "latitude": 35.1263,
        "longitude": -106.645011
      },
      "endCoords": {
        "latitude": 35.160861,
        "longitude": -106.617566
      },
      "distanceMeters": 8646.9,
      "durationMs": 1620000,
      "drivingDurationMs": 1222218,
      "idlingDurationMs": 397782,
      "fuelConsumedMl": 390,
      "fuelConsumedGallons": 0.103,
      "maxSpeedMph": 40.8,
      "averageSpeedMph": 11.9,
      "safetyEvents": []
    },
    {
      "id": "trip_42554227_20250530_21336",
      "vehicleId": "42554227",
      "driverId": "20000045",
      "startMs": 1748598748000,
      "endMs": 1748600428000,
      "startAddress": "388 Jeffrey Gardens",
      "endAddress": "30830 Ramsey Loaf Apt. 436",
      "startCoords": {
        "latitude": 35.050267,
        "longitude": -106.715979
      },
      "endCoords": {
        "latitude": 35.167837,
        "longitude": -106.543367
      },
      "distanceMeters": 13182.0,
      "durationMs": 1680000,
      "drivingDurationMs": 1324871,
      "idlingDurationMs": 355129,
      "fuelConsumedMl": 598,
      "fuelConsumedGallons": 0.158,
      "maxSpeedMph": 36.6,
      "averageSpeedMph": 17.6,
      "safetyEvents": []
    },
    {
      "id": "trip_42554227_20250530_21372",
      "vehicleId": "42554227",
      "driverId": "20000045",
      "startMs": 1748618591000,
      "endMs": 1748620151000,
      "startAddress": "73470 Brewer Cove Apt. 666",
      "endAddress": "808 Diana Ridge Apt. 951",
      "startCoords": {
        "latitude": 35.13255,
        "longitude": -106.622481
      },
      "endCoords": {
        "latitude": 35.152494,
        "longitude": -106.546609
      },
      "distanceMeters": 13240.5,
      "durationMs": 1560000,
      "drivingDurationMs": 1397834,
      "idlingDurationMs": 162166,
      "fuelConsumedMl": 598,
      "fuelConsumedGallons": 0.158,
      "maxSpeedMph": 31.6,
      "averageSpeedMph": 19.0,
      "safetyEvents": []
    },
    {
      "id": "trip_42554227_20250530_21399",
      "vehicleId": "42554227",
      "driverId": "20000046",
      "startMs": 1748632053000,
      "endMs": 1748633553000,
      "startAddress": "17719 Lang Common",
      "endAddress": "380 Angela Freeway",
      "startCoords": {
        "latitude": 35.095036,
        "longitude": -106.651292
      },
      "endCoords": {
        "latitude": 35.129684,
        "longitude": -106.54395
      },
      "distanceMeters": 10109.3,
      "durationMs": 1500000,
      "drivingDurationMs": 1324639,
      "idlingDurationMs": 175361,
      "fuelConsumedMl": 458,
      "fuelConsumedGallons": 0.121,
      "maxSpeedMph": 44.5,
      "averageSpeedMph": 15.1,
      "safetyEvents": []
    },
    {
      "id": "trip_42554227_20250531_21454",
      "vehicleId": "42554227",
      "driverId": "20000046",
      "startMs": 1748667107000,
      "endMs": 1748673465000,
      "startAddress": "741 Martinez Creek",
      "endAddress": "3978 Smith Passage",
      "startCoords": {
        "latitude": 35.115932,
        "longitude": -106.611911
      },
      "endCoords": {
        "latitude": 35.093913,
        "longitude": -106.568442
      },
      "distanceMeters": 52582.9,
      "durationMs": 6358000,
      "drivingDurationMs": 5256492,
      "idlingDurationMs": 1101508,
      "fuelConsumedMl": 2377,
      "fuelConsumedGallons": 0.628,
      "maxSpeedMph": 33.2,
      "averageSpeedMph": 18.5,
      "safetyEvents": []
    },
    {
      "id": "trip_42554227_20250531_21499",
      "vehicleId": "42554227",
      "driverId": "20000046",
      "startMs": 1748694769000,
      "endMs": 1748704556000,
      "startAddress": "9424 Beltran Road Apt. 842",
      "endAddress": "18025 Johnson Ways",
      "startCoords": {
        "latitude": 35.057994,
        "longitude": -106.538157
      },
      "endCoords": {
        "latitude": 35.041741,
        "longitude": -106.6662
      },
      "distanceMeters": 68661.2,
      "durationMs": 9787000,
      "drivingDurationMs": 7459763,
      "idlingDurationMs": 2327237,
      "fuelConsumedMl": 3104,
      "fuelConsumedGallons": 0.82,
      "maxSpeedMph": 32.8,
      "averageSpeedMph": 15.7,
      "safetyEvents": []
    },
    {
      "id": "trip_42554227_20250531_21540",
      "vehicleId": "42554227",
      "driverId": "20000045",
      "startMs": 1748716743000,
      "endMs": 1748718423000,
      "startAddress": "897 Hannah Rapid Suite 807",
      "endAddress": "110 Ricardo Mountains Suite 679",
      "startCoords": {
        "latitude": 35.080518,
        "longitude": -106.611574
      },
      "endCoords": {
        "latitude": 35.078455,
        "longitude": -106.546389
      },
      "distanceMeters": 14946.4,
      "durationMs": 1680000,
      "drivingDurationMs": 1435039,
      "idlingDurationMs": 244961,
      "fuelConsumedMl": 678,
      "fuelConsumedGallons": 0.179,
      "maxSpeedMph": 38.7,
      "averageSpeedMph": 19.9,
      "safetyEvents": []
    }
  ]
}