{
  "vehicleId": "42554227",
  "vehicleName": "ABQ-MOTO-01",
  "month": "2025_05",
  "pagination": {
    "endCursor": "trip_42554227_20250531_013",
    "hasNextPage": false
  },
  "trips": [
    {
      "id": "trip_42554227_20250501_001",
      "vehicleId": "42554227",
      "driverId": "20000045",
      "startMs": 1746088320000,
      "endMs": 1746088958474,
      "startAddress": "09832 Cannon Estates",
      "endAddress": "8417 Michael Rest",
      "startCoords": {
        "latitude": 35.109859,
        "longitude": -106.657172
      },
      "endCoords": {
        "latitude": 35.103693,
        "longitude": -106.721826
      },
      "distanceMeters": 4443.0,
      "durationMs": 638474,
      "drivingDurationMs": 459279,
      "idlingDurationMs": 179195,
      "fuelConsumedMl": 201,
      "fuelConsumedGallons": 0.053,
      "maxSpeedMph": 39.3,
      "averageSpeedMph": 15.6,
      "safetyEvents": []
    },
    {
      "id": "trip_42554227_20250501_002",
      "vehicleId": "42554227",
      "driverId": "20000045",
      "startMs": 1746111960000,
      "endMs": 1746114208299,
      "startAddress": "3050 Kelly Rue",
      "endAddress": "08705 Debbie Ford",
      "startCoords": {
        "latitude": 35.120081,
        "longitude": -106.655365
      },
      "endCoords": {
        "latitude": 35.065946,
        "longitude": -106.663603
      },
      "distanceMeters": 16206.7,
      "durationMs": 2248299,
      "drivingDurationMs": 1865896,
      "idlingDurationMs": 382403,
      "fuelConsumedMl": 734,
      "fuelConsumedGallons": 0.194,
      "maxSpeedMph": 55.8,
      "averageSpeedMph": 16.1,
      "safetyEvents": []
    },
    {
      "id": "trip_42554227_20250501_003",
      "vehicleId": "42554227",
      "driverId": "20000045",
      "startMs": 1746089880000,
      "endMs": 1746091468027,
      "startAddress": "22851 Garrett Neck",
      "endAddress": "03530 Christopher Knolls",
      "startCoords": {
        "latitude": 35.149946,
        "longitude": -106.577146
      },
      "endCoords": {
        "latitude": 35.171313,
        "longitude": -106.611618
      },
      "distanceMeters": 12203.9,
      "durationMs": 1588027,
      "drivingDurationMs": 1297564,
      "idlingDurationMs": 290464,
      "fuelConsumedMl": 553,
      "fuelConsumedGallons": 0.146,
      "maxSpeedMph": 41.3,
      "averageSpeedMph": 17.2,
      "safetyEvents": []
    },
    {
      "id": "trip_42554227_20250501_004",
      "vehicleId": "42554227",
      "driverId": null,
      "startMs": 1746101940000,
      "endMs": 1746102934763,
      "startAddress": "243 Pearson Glens",
      "endAddress": "3684 Sarah Village",
      "startCoords": {
        "latitude": 35.070778,
        "longitude": -106.604621
      },
      "endCoords": {
        "latitude": 35.163976,
        "longitude": -106.538006
      },
      "distanceMeters": 5444.4,
      "durationMs": 994764,
      "drivingDurationMs": 803783,
      "idlingDurationMs": 190981,
      "fuelConsumedMl": 246,
      "fuelConsumedGallons": 0.065,
      "maxSpeedMph": 29.9,
      "averageSpeedMph": 12.2,
      "safetyEvents": []
    },
    {
      "id": "trip_42554227_20250501_005",
      "vehicleId": "42554227",
      "driverId": "20000045",
      "startMs": 1746111000000,
      "endMs": 1746115292851,
      "startAddress": "553 Sandra Stravenue Suite 896",
      "endAddress": "7918 Patrick Village Apt. 935",
      "startCoords": {
        "latitude": 35.114777,
        "longitude": -106.600026
      },
      "endCoords": {
        "latitude": 35.170566,
        "longitude": -106.676608
      },
      "distanceMeters": 24555.9,
      "durationMs": 4292852,
      "drivingDurationMs": 3523077,
      "idlingDurationMs": 769775,
      "fuelConsumedMl": 1109,
      "fuelConsumedGallons": 0.293,
      "maxSpeedMph": 29.7,
      "averageSpeedMph": 12.8,
      "safetyEvents": []
    },
    {
      "id": "trip_42554227_20250501_006",
      "vehicleId": "42554227",
      "driverId": "20000045",
      "startMs": 1746096360000,
      "endMs": 1746098832760,
      "startAddress": "678 Deleon Forest Apt. 470",
      "endAddress": "76349 Lauren Club",
      "startCoords": {
        "latitude": 35.173593,
        "longitude": -106.648357
      },
      "endCoords": {
        "latitude": 35.059423,
        "longitude": -106.60471
      },
      "distanceMeters": 14398.2,
      "durationMs": 2472760,
      "drivingDurationMs": 2198670,
      "idlingDurationMs": 274091,
      "fuelConsumedMl": 651,
      "fuelConsumedGallons": 0.172,
      "maxSpeedMph": 39.5,
      "averageSpeedMph": 13.0,
      "safetyEvents": []
    },
    {
      "id": "trip_42554227_20250501_007",
      "vehicleId": "42554227",
      "driverId": "20000045",
      "startMs": 1746122880000,
      "endMs": 1746123807352,
      "startAddress": "03557 Ward Center Suite 425",
      "endAddress": "016 Hammond Extensions",
      "startCoords": {
        "latitude": 35.100664,
        "longitude": -106.542794
      },
      "endCoords": {
        "latitude": 35.039732,
        "longitude": -106.64882
      },
      "distanceMeters": 7240.0,
      "durationMs": 927353,
      "drivingDurationMs": 744876,
      "idlingDurationMs": 182477,
      "fuelConsumedMl": 329,
      "fuelConsumedGallons": 0.087,
      "maxSpeedMph": 34.0,
      "averageSpeedMph": 17.5,
      "safetyEvents": []
    },
    {
      "id": "trip_42554227_20250501_008",
      "vehicleId": "42554227",
      "driverId": "20000045",
      "startMs": 1746114840000,
      "endMs": 1746116048945,
      "startAddress": "1182 Pham Turnpike",
      "endAddress": "99010 Gonzales Glens",
      "startCoords": {
        "latitude": 35.081018,
        "longitude": -106.592161
      },
      "endCoords": {
        "latitude": 35.136428,
        "longitude": -106.668747
      },
      "distanceMeters": 10006.1,
      "durationMs": 1208945,
      "drivingDurationMs": 1002030,
      "idlingDurationMs": 206916,
      "fuelConsumedMl": 454,
      "fuelConsumedGallons": 0.12,
      "maxSpeedMph": 52.2,
      "averageSpeedMph": 18.5,
      "safetyEvents": []
    },
    {
      "id": "trip_42554227_20250501_009",
      "vehicleId": "42554227",
      "driverId": "20000045",
      "startMs": 1746091740000,
      "endMs": 1746094176032,
      "startAddress": "586 Russell Road",
      "endAddress": "49713 Ryan Plaza",
      "startCoords": {
        "latitude": 35.058657,
        "longitude": -106.666065
      },
      "endCoords": {
        "latitude": 35.134555,
        "longitude": -106.648372
      },
      "distanceMeters": 16887.9,
      "durationMs": 2436032,
      "drivingDurationMs": 1977798,
      "idlingDurationMs": 458234,
      "fuelConsumedMl": 765,
      "fuelConsumedGallons": 0.202,
      "maxSpeedMph": 41.9,
      "averageSpeedMph": 15.5,
      "safetyEvents": []
    },
    {
      "id": "trip_42554227_20250501_010",
      "vehicleId": "42554227",
      "driverId": "20000045",
      "startMs": 1746085500000,
      "endMs": 1746086996205,
      "startAddress": "959 Kenneth Trail Suite 589",
      "endAddress": "7183 Michael Village",
      "startCoords": {
        "latitude": 35.090026,
        "longitude": -106.636715
      },
      "endCoords": {
        "latitude": 35.17765,
        "longitude": -106.715947
      },
      "distanceMeters": 10299.1,
      "durationMs": 1496205,
      "drivingDurationMs": 1290755,
      "idlingDurationMs": 205450,
      "fuelConsumedMl": 466,
      "fuelConsumedGallons": 0.123,
      "maxSpeedMph": 64.4,
      "averageSpeedMph": 15.4,
      "safetyEvents": []
    },
    {
      "id": "trip_42554227_20250501_011",
      "vehicleId": "42554227",
      "driverId": "20000045",
      "startMs": 1746081300000,
      "endMs": 1746083352353,
      "startAddress": "240 Vaughan Harbors Apt. 412",
      "endAddress": "32318 Jesse Port Suite 471",
      "startCoords": {
        "latitude": 35.049622,
        "longitude": -106.620223
      },
      "endCoords": {
        "latitude": 35.073759,
        "longitude": -106.611246
      },
      "distanceMeters": 15139.7,
      "durationMs": 2052354,
      "drivingDurationMs": 1771236,
      "idlingDurationMs": 281118,
      "fuelConsumedMl": 685,
      "fuelConsumedGallons": 0.181,
      "maxSpeedMph": 33.0,
      "averageSpeedMph": 16.5,
      "safetyEvents": []
    },
    {
      "id": "trip_42554227_20250502_001",
      "vehicleId": "42554227",
      "driverId": "20000045",
      "startMs": 1746211800000,
      "endMs": 1746213592518,
      "startAddress": "7373 Rachel Walks Apt. 104",
      "endAddress": "724 Tammy Mount Suite 394",
      "startCoords": {
        "latitude": 35.166556,
        "longitude": -106.634139
      },
      "endCoords": {
        "latitude": 35.151609,
        "longitude": -106.61048
      },
      "distanceMeters": 13918.8,
      "durationMs": 1792518,
      "drivingDurationMs": 1434545,
      "idlingDurationMs": 357974,
      "fuelConsumedMl": 628,
      "fuelConsumedGallons": 0.166,
      "maxSpeedMph": 51.2,
      "averageSpeedMph": 17.4,
      "safetyEvents": []
    },
    {
      "id": "trip_42554227_20250502_002",
      "vehicleId": "42554227",
      "driverId": "20000045",
      "startMs": 1746192600000,
      "endMs": 1746195088425,
      "startAddress": "94666 Gonzalez Views Apt. 621",
      "endAddress": "3657 Joshua Vista",
      "startCoords": {
        "latitude": 35.106156,
        "longitude": -106.684441
      },
      "endCoords": {
        "latitude": 35.115932,
        "longitude": -106.718448
      },
      "distanceMeters": 17479.9,
      "durationMs": 2488426,
      "drivingDurationMs": 2262087,
      "idlingDurationMs": 226338,
      "fuelConsumedMl": 791,
      "fuelConsumedGallons": 0.209,
      "maxSpeedMph": 69.4,
      "averageSpeedMph": 15.7,
      "safetyEvents": [
        {
          "type": "speeding",
          "startMs": 1746192900000,
          "maxSpeedMph": 69.4
        }
      ]
    },
    {
      "id": "trip_42554227_20250502_003",
      "vehicleId": "42554227",
      "driverId": "20000045",
      "startMs": 1746208500000,
      "endMs": 1746208871188,
      "startAddress": "81411 Sanchez Unions",
      "endAddress": "07741 Oneal Cove",
      "startCoords": {
        "latitude": 35.096088,
        "longitude": -106.711636
      },
      "endCoords": {
        "latitude": 35.103296,
        "longitude": -106.583551
      },
      "distanceMeters": 2754.2,
      "durationMs": 371188,
      "drivingDurationMs": 290015,
      "idlingDurationMs": 81173,
      "fuelConsumedMl": 125,
      "fuelConsumedGallons": 0.033,
      "maxSpeedMph": 31.1,
      "averageSpeedMph": 16.6,
      "safetyEvents": []
    },
    {
      "id": "trip_42554227_20250502_004",
      "vehicleId": "42554227",
      "driverId": "20000045",
      "startMs": 1746196200000,
      "endMs": 1746197282166,
      "startAddress": "2369 Marc Common",
      "endAddress": "7661 David Way",
      "startCoords": {
        "latitude": 35.13324,
        "longitude": -106.550578
      },
      "endCoords": {
        "latitude": 35.051432,
        "longitude": -106.552316
      },
      "distanceMeters": 5521.2,
      "durationMs": 1082166,
      "drivingDurationMs": 867436,
      "idlingDurationMs": 214730,
      "fuelConsumedMl": 250,
      "fuelConsumedGallons": 0.066,
      "maxSpeedMph": 47.1,
      "averageSpeedMph": 11.4,
      "safetyEvents": []
    },
    {
      "id": "trip_42554227_20250502_005",
      "vehicleId": "42554227",
      "driverId": "20000045",
      "startMs": 1746168960000,
      "endMs": 1746171543167,
      "startAddress": "03351 Christopher Plaza Suite 156",
      "endAddress": "730 Scott Lane",
      "startCoords": {
        "latitude": 35.121444,
        "longitude": -106.587365
      },
      "endCoords": {
        "latitude": 35.08729,
        "longitude": -106.558655
      },
      "distanceMeters": 15957.2,
      "durationMs": 2583167,
      "drivingDurationMs": 2085149,
      "idlingDurationMs": 498018,
      "fuelConsumedMl": 723,
      "fuelConsumedGallons": 0.191,
      "maxSpeedMph": 46.5,
      "averageSpeedMph": 13.8,
      "safetyEvents": []
    },
    {
      "id": "trip_42554227_20250502_006",
      "vehicleId": "42554227",
      "driverId": "20000045",
      "startMs": 1746190140000,
      "endMs": 1746191132114,
      "startAddress": "2446 Brandon Mills",
      "endAddress": "6759 Andrea Landing",
      "startCoords": {
        "latitude": 35.133341,
        "longitude": -106.643653
      },
      "endCoords": {
        "latitude": 35.041573,
        "longitude": -106.596593
      },
      "distanceMeters": 6883.1,
      "durationMs": 992115,
      "drivingDurationMs": 799599,
      "idlingDurationMs": 192516,
      "fuelConsumedMl": 310,
      "fuelConsumedGallons": 0.082,
      "maxSpeedMph": 70.7,
      "averageSpeedMph": 15.5,
      "safetyEvents": [
        {
          "type": "speeding",
          "startMs": 1746190320000,
          "maxSpeedMph": 70.7
        }
      ]
    },
    {
      "id": "trip_42554227_20250502_007",
      "vehicleId": "42554227",
      "driverId": "20000045",
      "startMs": 1746210780000,
      "endMs": 1746213058450,
      "startAddress": "24945 Jason Causeway",
      "endAddress": "788 Gilmore Locks",
      "startCoords": {
        "latitude": 35.089329,
        "longitude": -106.575653
      },
      "endCoords": {
        "latitude": 35.133676,
        "longitude": -106.710816
      },
      "distanceMeters": 14472.5,
      "durationMs": 2278451,
      "drivingDurationMs": 2000157,
      "idlingDurationMs": 278293,
      "fuelConsumedMl": 655,
      "fuelConsumedGallons": 0.173,
      "maxSpeedMph": 45.3,
      "averageSpeedMph": 14.2,
      "safetyEvents": []
    },
    {
      "id": "trip_42554227_20250502_008",
      "vehicleId": "42554227",
      "driverId": "20000045",
      "startMs": 1746165960000,
      "endMs": 1746167943904,
      "startAddress": "59323 Jessica Rapids",
      "endAddress": "227 George Islands",
      "startCoords": {
        "latitude": 35.08075,
        "longitude": -106.577981
      },
      "endCoords": {
        "latitude": 35.123805,
        "longitude": -106.691671
      },
      "distanceMeters": 17880.0,
      "durationMs": 1983905,
      "drivingDurationMs": 1794985,
      "idlingDurationMs": 188920,
      "fuelConsumedMl": 810,
      "fuelConsumedGallons": 0.214,
      "maxSpeedMph": 58.7,
      "averageSpeedMph": 20.2,
      "safetyEvents": []
    },
    {
      "id": "trip_42554227_20250502_009",
      "vehicleId": "42554227",
      "driverId": "20000045",
      "startMs": 1746198960000,
      "endMs": 1746200280426,
      "startAddress": "43470 Joshua Road Apt. 899",
      "endAddress": "740 Jonathan Turnpike",
      "startCoords": {
        "latitude": 35.072384,
        "longitude": -106.64689
      },
      "endCoords": {
        "latitude": 35.086291,
        "longitude": -106.542637
      },
      "distanceMeters": 11284.2,
      "durationMs": 1320426,
      "drivingDurationMs": 1093489,
      "idlingDurationMs": 226937,
      "fuelConsumedMl": 511,
      "fuelConsumedGallons": 0.135,
      "maxSpeedMph": 47.8,
      "averageSpeedMph": 19.1,
      "safetyEvents": []
    },
    {
      "id": "trip_42554227_20250503_001",
      "vehicleId": "42554227",
      "driverId": "20000046",
      "startMs": 1746282060000,
      "endMs": 1746283983109,
      "startAddress": "953 Ferguson Mission",
      "endAddress": "26897 Alison Ramp Suite 822",
      "startCoords": {
        "latitude": 35.06129,
        "longitude": -106.719647
      },
      "endCoords": {
        "latitude": 35.117139,
        "longitude": -106.641338
      },
      "distanceMeters": 14669.1,
      "durationMs": 1923109,
      "drivingDurationMs": 1573374,
      "idlingDurationMs": 349735,
      "fuelConsumedMl": 662,
      "fuelConsumedGallons": 0.175,
      "maxSpeedMph": 35.9,
      "averageSpeedMph": 17.1,
      "safetyEvents": []
    },
    {
      "id": "trip_42554227_20250503_002",
      "vehicleId": "42554227",
      "driverId": "20000046",
      "startMs": 1746281400000,
      "endMs": 1746283116392,
      "startAddress": "6483 Eric Ways",
      "endAddress": "1002 Rodriguez Summit",
      "startCoords": {
        "latitude": 35.105443,
        "longitude": -106.604285
      },
      "endCoords": {
        "latitude": 35.129848,
        "longitude": -106.65617
      },
      "distanceMeters": 13257.5,
      "durationMs": 1716393,
      "drivingDurationMs": 1469342,
      "idlingDurationMs": 247051,
      "fuelConsumedMl": 598,
      "fuelConsumedGallons": 0.158,
      "maxSpeedMph": 45.3,
      "averageSpeedMph": 17.3,
      "safetyEvents": []
    },
    {
      "id": "trip_42554227_20250503_003",
      "vehicleId": "42554227",
      "driverId": "20000046",
      "startMs": 1746271140000,
      "endMs": 1746273195798,
      "startAddress": "2600 Smith Lights Apt. 284",
      "endAddress": "57746 Robinson Valleys",
      "startCoords": {
        "latitude": 35.095112,
        "longitude": -106.710588
      },
      "endCoords": {
        "latitude": 35.091754,
        "longitude": -106.66736
      },
      "distanceMeters": 15898.9,
      "durationMs": 2055799,
      "drivingDurationMs": 1784464,
      "idlingDurationMs": 271335,
      "fuelConsumedMl": 719,
      "fuelConsumedGallons": 0.19,
      "maxSpeedMph": 54.7,
      "averageSpeedMph": 17.3,
      "safetyEvents": []
    },
    {
      "id": "trip_42554227_20250503_004",
      "vehicleId": "42554227",
      "driverId": "20000046",
      "startMs": 1746267780000,
      "endMs": 1746271671521,
      "startAddress": "279 Cook Prairie Apt. 951",
      "endAddress": "155 Larson Ramp Apt. 456",
      "startCoords": {
        "latitude": 35.15528,
        "longitude": -106.656771
      },
      "endCoords": {
        "latitude": 35.077907,
        "longitude": -106.56889
      },
      "distanceMeters": 21424.7,
      "durationMs": 3891522,
      "drivingDurationMs": 3484226,
      "idlingDurationMs": 407296,
      "fuelConsumedMl": 969,
      "fuelConsumedGallons": 0.256,
      "maxSpeedMph": 56.4,
      "averageSpeedMph": 12.3,
      "safetyEvents": []
    },
    {
      "id": "trip_42554227_20250503_005",
      "vehicleId": "42554227",
      "driverId": "20000046",
      "startMs": 1746278940000,
      "endMs": 1746281507630,
      "startAddress": "3191 Jones Hollow",
      "endAddress": "365 Morrison Roads",
      "startCoords": {
        "latitude": 35.067126,
        "longitude": -106.674494
      },
      "endCoords": {
        "latitude": 35.10522,
        "longitude": -106.557656
      },
      "distanceMeters": 14931.6,
      "durationMs": 2567630,
      "drivingDurationMs": 2136672,
      "idlingDurationMs": 430958,
      "fuelConsumedMl": 674,
      "fuelConsumedGallons": 0.178,
      "maxSpeedMph": 68.7,
      "averageSpeedMph": 13.0,
      "safetyEvents": [
        {
          "type": "speeding",
          "startMs": 1746279120000,
          "maxSpeedMph": 68.7
        }
      ]
    },
    {
      "id": "trip_42554227_20250503_006",
      "vehicleId": "42554227",
      "driverId": "20000046",
      "startMs": 1746274020000,
      "endMs": 1746277182807,
      "startAddress": "091 Alexander Pass",
      "endAddress": "1480 Franklin Parks",
      "startCoords": {
        "latitude": 35.092548,
        "longitude": -106.660328
      },
      "endCoords": {
        "latitude": 35.076802,
        "longitude": -106.694641
      },
      "distanceMeters": 19860.3,
      "durationMs": 3162808,
      "drivingDurationMs": 2652302,
      "idlingDurationMs": 510505,
      "fuelConsumedMl": 897,
      "fuelConsumedGallons": 0.237,
      "maxSpeedMph": 60.2,
      "averageSpeedMph": 14.0,
      "safetyEvents": []
    },
    {
      "id": "trip_42554227_20250503_007",
      "vehicleId": "42554227",
      "driverId": "20000046",
      "startMs": 1746260340000,
      "endMs": 1746262069379,
      "startAddress": "44739 Janet Mountain Apt. 196",
      "endAddress": "06755 Foley Radial",
      "startCoords": {
        "latitude": 35.084142,
        "longitude": -106.674591
      },
      "endCoords": {
        "latitude": 35.046515,
        "longitude": -106.670045
      },
      "distanceMeters": 9335.6,
      "durationMs": 1729379,
      "drivingDurationMs": 1479042,
      "idlingDurationMs": 250337,
      "fuelConsumedMl": 424,
      "fuelConsumedGallons": 0.112,
      "maxSpeedMph": 56.2,
      "averageSpeedMph": 12.1,
      "safetyEvents": []
    },
    {
      "id": "trip_42554227_20250503_008",
      "vehicleId": "42554227",
      "driverId": "20000046",
      "startMs": 1746268140000,
      "endMs": 1746269431215,
      "startAddress": "12906 Brendan Islands Suite 136",
      "endAddress": "319 Duran Cliff",
      "startCoords": {
        "latitude": 35.121866,
        "longitude": -106.59224
      },
      "endCoords": {
        "latitude": 35.12288,
        "longitude": -106.615869
      },
      "distanceMeters": 7664.0,
      "durationMs": 1291216,
      "drivingDurationMs": 1074090,
      "idlingDurationMs": 217126,
      "fuelConsumedMl": 348,
      "fuelConsumedGallons": 0.092,
      "maxSpeedMph": 65.2,
      "averageSpeedMph": 13.3,
      "safetyEvents": [
        {
          "type": "speeding",
          "startMs": 1746268740000,
          "maxSpeedMph": 65.2
        }
      ]
    },
    {
      "id": "trip_42554227_20250503_009",
      "vehicleId": "42554227",
      "driverId": "20000046",
      "startMs": 1746264960000,
      "endMs": 1746266324437,
      "startAddress": "8248 Catherine Meadow Suite 820",
      "endAddress": "54369 Steven Pike Apt. 774",
      "startCoords": {
        "latitude": 35.119456,
        "longitude": -106.565283
      },
      "endCoords": {
        "latitude": 35.156898,
        "longitude": -106.715812
      },
      "distanceMeters": 10534.1,
      "durationMs": 1364437,
      "drivingDurationMs": 1117418,
      "idlingDurationMs": 247019,
      "fuelConsumedMl": 477,
      "fuelConsumedGallons": 0.126,
      "maxSpeedMph": 61.5,
      "averageSpeedMph": 17.3,
      "safetyEvents": []
    },
    {
      "id": "trip_42554227_20250503_010",
      "vehicleId": "42554227",
      "driverId": "20000046",
      "startMs": 1746255420000,
      "endMs": 1746256400868,
      "startAddress": "7572 Phillips Villages Apt. 085",
      "endAddress": "0709 Lauren Ville",
      "startCoords": {
        "latitude": 35.080327,
        "longitude": -106.635293
      },
      "endCoords": {
        "latitude": 35.076077,
        "longitude": -106.606995
      },
      "distanceMeters": 6517.8,
      "durationMs": 980869,
      "drivingDurationMs": 799244,
      "idlingDurationMs": 181625,
      "fuelConsumedMl": 295,
      "fuelConsumedGallons": 0.078,
      "maxSpeedMph": 51.4,
      "averageSpeedMph": 14.9,
      "safetyEvents": []
    },
    {
      "id": "trip_42554227_20250503_011",
      "vehicleId": "42554227",
      "driverId": "20000046",
      "startMs": 1746256860000,
      "endMs": 1746257521270,
      "startAddress": "970 Sara Court Suite 368",
      "endAddress": "18167 Watson Villages Suite 390",
      "startCoords": {
        "latitude": 35.125781,
        "longitude": -106.591216
      },
      "endCoords": {
        "latitude": 35.092511,
        "longitude": -106.672458
      },
      "distanceMeters": 4279.5,
      "durationMs": 661271,
      "drivingDurationMs": 522083,
      "idlingDurationMs": 139187,
      "fuelConsumedMl": 193,
      "fuelConsumedGallons": 0.051,
      "maxSpeedMph": 61.0,
      "averageSpeedMph": 14.5,
      "safetyEvents": []
    },
    {
      "id": "trip_42554227_20250505_001",
      "vehicleId": "42554227",
      "driverId": "20000046",
      "startMs": 1746467880000,
      "endMs": 1746471188816,
      "startAddress": "6841 Rodriguez Highway Suite 251",
      "endAddress": "356 Nancy Turnpike",
      "startCoords": {
        "latitude": 35.092951,
        "longitude": -106.590162
      },
      "endCoords": {
        "latitude": 35.157433,
        "longitude": -106.598042
      },
      "distanceMeters": 23254.3,
      "durationMs": 3308816,
      "drivingDurationMs": 2693829,
      "idlingDurationMs": 614988,
      "fuelConsumedMl": 1052,
      "fuelConsumedGallons": 0.278,
      "maxSpeedMph": 61.0,
      "averageSpeedMph": 15.7,
      "safetyEvents": []
    },
    {
      "id": "trip_42554227_20250505_002",
      "vehicleId": "42554227",
      "driverId": "20000046",
      "startMs": 1746431640000,
      "endMs": 1746432318292,
      "startAddress": "662 Mora Cliffs Suite 251",
      "endAddress": "983 Nicole Point",
      "startCoords": {
        "latitude": 35.042769,
        "longitude": -106.70156
      },
      "endCoords": {
        "latitude": 35.13824,
        "longitude": -106.583615
      },
      "distanceMeters": 5283.6,
      "durationMs": 678292,
      "drivingDurationMs": 535196,
      "idlingDurationMs": 143097,
      "fuelConsumedMl": 238,
      "fuelConsumedGallons": 0.063,
      "maxSpeedMph": 71.2,
      "averageSpeedMph": 17.4,
      "safetyEvents": [
        {
          "type": "speeding",
          "startMs": 1746432000000,
          "maxSpeedMph": 71.2
        }
      ]
    },
    {
      "id": "trip_42554227_20250505_003",
      "vehicleId": "42554227",
      "driverId": "20000046",
      "startMs": 1746442260000,
      "endMs": 1746445607388,
      "startAddress": "7002 Vicki Greens",
      "endAddress": "43701 Victor Trafficway",
      "startCoords": {
        "latitude": 35.095671,
        "longitude": -106.644749
      },
      "endCoords": {
        "latitude": 35.160691,
        "longitude": -106.587192
      },
      "distanceMeters": 20221.2,
      "durationMs": 3347388,
      "drivingDurationMs": 3159426,
      "idlingDurationMs": 187962,
      "fuelConsumedMl": 916,
      "fuelConsumedGallons": 0.242,
      "maxSpeedMph": 51.8,
      "averageSpeedMph": 13.5,
      "safetyEvents": []
    },
    {
      "id": "trip_42554227_20250505_004",
      "vehicleId": "42554227",
      "driverId": "20000046",
      "startMs": 1746457440000,
      "endMs": 1746457997157,
      "startAddress": "95227 Bautista Avenue Apt. 135",
      "endAddress": "6963 Garrison Spurs Suite 389",
      "startCoords": {
        "latitude": 35.135795,
        "longitude": -106.659147
      },
      "endCoords": {
        "latitude": 35.083007,
        "longitude": -106.643471
      },
      "distanceMeters": 2806.1,
      "durationMs": 557157,
      "drivingDurationMs": 431090,
      "idlingDurationMs": 126068,
      "fuelConsumedMl": 129,
      "fuelConsumedGallons": 0.034,
      "maxSpeedMph": 65.1,
      "averageSpeedMph": 11.3,
      "safetyEvents": [
        {
          "type": "speeding",
          "startMs": 1746457680000,
          "maxSpeedMph": 65.1
        }
      ]
    },
    {
      "id": "trip_42554227_20250505_005",
      "vehicleId": "42554227",
      "driverId": "20000046",
      "startMs": 1746430260000,
      "endMs": 1746432002838,
      "startAddress": "757 Lynn Shores Suite 219",
      "endAddress": "08081 Paul Village Suite 112",
      "startCoords": {
        "latitude": 35.180465,
        "longitude": -106.712174
      },
      "endCoords": {
        "latitude": 35.111915,
        "longitude": -106.708923
      },
      "distanceMeters": 14632.3,
      "durationMs": 1742839,
      "drivingDurationMs": 1422881,
      "idlingDurationMs": 319958,
      "fuelConsumedMl": 662,
      "fuelConsumedGallons": 0.175,
      "maxSpeedMph": 71.3,
      "averageSpeedMph": 18.8,
      "safetyEvents": [
        {
          "type": "speeding",
          "startMs": 1746431400000,
          "maxSpeedMph": 71.3
        }
      ]
    },
    {
      "id": "trip_42554227_20250505_006",
      "vehicleId": "42554227",
      "driverId": "20000046",
      "startMs": 1746461220000,
      "endMs": 1746462694994,
      "startAddress": "36553 Phillip Motorway Suite 883",
      "endAddress": "3621 Vanessa Mountain Apt. 896",
      "startCoords": {
        "latitude": 35.138947,
        "longitude": -106.62544
      },
      "endCoords": {
        "latitude": 35.047691,
        "longitude": -106.57436
      },
      "distanceMeters": 10409.5,
      "durationMs": 1474995,
      "drivingDurationMs": 1235777,
      "idlingDurationMs": 239218,
      "fuelConsumedMl": 469,
      "fuelConsumedGallons": 0.124,
      "maxSpeedMph": 45.1,
      "averageSpeedMph": 15.8,
      "safetyEvents": []
    },
    {
      "id": "trip_42554227_20250505_007",
      "vehicleId": "42554227",
      "driverId": "20000046",
      "startMs": 1746431580000,
      "endMs": 1746433229635,
      "startAddress": "5739 Ramos Junction",
      "endAddress": "741 Douglas Ports",
      "startCoords": {
        "latitude": 35.175796,
        "longitude": -106.702934
      },
      "endCoords": {
        "latitude": 35.12364,
        "longitude": -106.544637
      },
      "distanceMeters": 10071.8,
      "durationMs": 1649635,
      "drivingDurationMs": 1444167,
      "idlingDurationMs": 205468,
      "fuelConsumedMl": 454,
      "fuelConsumedGallons": 0.12,
      "maxSpeedMph": 50.0,
      "averageSpeedMph": 13.7,
      "safetyEvents": []
    },
    {
      "id": "trip_42554227_20250505_008",
      "vehicleId": "42554227",
      "driverId": "20000046",
      "startMs": 1746433440000,
      "endMs": 1746434254011,
      "startAddress": "34205 Henderson Tunnel Suite 069",
      "endAddress": "858 Williams Circles Suite 636",
      "startCoords": {
        "latitude": 35.070093,
        "longitude": -106.688789
      },
      "endCoords": {
        "latitude": 35.106129,
        "longitude": -106.591068
      },
      "distanceMeters": 3926.8,
      "durationMs": 814011,
      "drivingDurationMs": 639211,
      "idlingDurationMs": 174800,
      "fuelConsumedMl": 178,
      "fuelConsumedGallons": 0.047,
      "maxSpeedMph": 61.4,
      "averageSpeedMph": 10.8,
      "safetyEvents": []
    },
    {
      "id": "trip_42554227_20250505_009",
      "vehicleId": "42554227",
      "driverId": "20000046",
      "startMs": 1746432540000,
      "endMs": 1746433430810,
      "startAddress": "29145 Elliott Drives",
      "endAddress": "860 Manuel Rest Apt. 222",
      "startCoords": {
        "latitude": 35.093802,
        "longitude": -106.557392
      },
      "endCoords": {
        "latitude": 35.115936,
        "longitude": -106.67555
      },
      "distanceMeters": 6047.9,
      "durationMs": 890811,
      "drivingDurationMs": 712434,
      "idlingDurationMs": 178377,
      "fuelConsumedMl": 273,
      "fuelConsumedGallons": 0.072,
      "maxSpeedMph": 56.7,
      "averageSpeedMph": 15.2,
      "safetyEvents": []
    },
    {
      "id": "trip_42554227_20250506_001",
      "vehicleId": "42554227",
      "driverId": "20000044",
      "startMs": 1746514080000,
      "endMs": 1746515758785,
      "startAddress": "791 Shepherd Club Apt. 891",
      "endAddress": "410 Jill Curve Apt. 138",
      "startCoords": {
        "latitude": 35.056245,
        "longitude": -106.633796
      },
      "endCoords": {
        "latitude": 35.089558,
        "longitude": -106.567309
      },
      "distanceMeters": 13226.9,
      "durationMs": 1678785,
      "drivingDurationMs": 1364333,
      "idlingDurationMs": 314452,
      "fuelConsumedMl": 598,
      "fuelConsumedGallons": 0.158,
      "maxSpeedMph": 51.2,
      "averageSpeedMph": 17.6,
      "safetyEvents": []
    },
    {
      "id": "trip_42554227_20250506_002",
      "vehicleId": "42554227",
      "driverId": "20000044",
      "startMs": 1746545280000,
      "endMs": 1746547106722,
      "startAddress": "52980 Clark Drive Suite 903",
      "endAddress": "90013 Tammy Crescent Apt. 207",
      "startCoords": {
        "latitude": 35.169246,
        "longitude": -106.683104
      },
      "endCoords": {
        "latitude": 35.132133,
        "longitude": -106.650765
      },
      "distanceMeters": 12644.5,
      "durationMs": 1826723,
      "drivingDurationMs": 1538111,
      "idlingDurationMs": 288612,
      "fuelConsumedMl": 572,
      "fuelConsumedGallons": 0.151,
      "maxSpeedMph": 48.6,
      "averageSpeedMph": 15.5,
      "safetyEvents": []
    },
    {
      "id": "trip_42554227_20250506_003",
      "vehicleId": "42554227",
      "driverId": "20000044",
      "startMs": 1746525840000,
      "endMs": 1746526559156,
      "startAddress": "925 White Flats",
      "endAddress": "65827 Wilson Shoals",
      "startCoords": {
        "latitude": 35.155951,
        "longitude": -106.560051
      },
      "endCoords": {
        "latitude": 35.182304,
        "longitude": -106.6831
      },
      "distanceMeters": 5610.7,
      "durationMs": 719156,
      "drivingDurationMs": 549317,
      "idlingDurationMs": 169839,
      "fuelConsumedMl": 254,
      "fuelConsumedGallons": 0.067,
      "maxSpeedMph": 56.5,
      "averageSpeedMph": 17.5,
      "safetyEvents": []
    },
    {
      "id": "trip_42554227_20250506_004",
      "vehicleId": "42554227",
      "driverId": "20000044",
      "startMs": 1746537900000,
      "endMs": 1746541863717,
      "startAddress": "80446 Gregory Underpass Suite 629",
      "endAddress": "7149 Hood Circles Apt. 926",
      "startCoords": {
        "latitude": 35.087443,
        "longitude": -106.59672
      },
      "endCoords": {
        "latitude": 35.141823,
        "longitude": -106.630887
      },
      "distanceMeters": 24668.5,
      "durationMs": 3963718,
      "drivingDurationMs": 3289140,
      "idlingDurationMs": 674578,
      "fuelConsumedMl": 1117,
      "fuelConsumedGallons": 0.295,
      "maxSpeedMph": 71.0,
      "averageSpeedMph": 13.9,
      "safetyEvents": [
        {
          "type": "speeding",
          "startMs": 1746538440000,
          "maxSpeedMph": 71.0
        }
      ]
    },
    {
      "id": "trip_42554227_20250506_005",
      "vehicleId": "42554227",
      "driverId": "20000044",
      "startMs": 1746537420000,
      "endMs": 1746538187873,
      "startAddress": "543 Kimberly Inlet",
      "endAddress": "68007 Eric Dale",
      "startCoords": {
        "latitude": 35.068969,
        "longitude": -106.639295
      },
      "endCoords": {
        "latitude": 35.157489,
        "longitude": -106.717525
      },
      "distanceMeters": 5927.7,
      "durationMs": 767874,
      "drivingDurationMs": 613332,
      "idlingDurationMs": 154542,
      "fuelConsumedMl": 269,
      "fuelConsumedGallons": 0.071,
      "maxSpeedMph": 42.8,
      "averageSpeedMph": 17.3,
      "safetyEvents": []
    },
    {
      "id": "trip_42554227_20250506_006",
      "vehicleId": "42554227",
      "driverId": "20000044",
      "startMs": 1746552120000,
      "endMs": 1746552529467,
      "startAddress": "0439 Cody Fords",
      "endAddress": "9354 Jeffrey Fords",
      "startCoords": {
        "latitude": 35.127106,
        "longitude": -106.675158
      },
      "endCoords": {
        "latitude": 35.126229,
        "longitude": -106.653157
      },
      "distanceMeters": 2328.1,
      "durationMs": 409468,
      "drivingDurationMs": 312823,
      "idlingDurationMs": 96644,
      "fuelConsumedMl": 106,
      "fuelConsumedGallons": 0.028,
      "maxSpeedMph": 32.2,
      "averageSpeedMph": 12.7,
      "safetyEvents": []
    },
    {
      "id": "trip_42554227_20250506_007",
      "vehicleId": "42554227",
      "driverId": "20000044",
      "startMs": 1746554280000,
      "endMs": 1746558180320,
      "startAddress": "516 Wallace Square",
      "endAddress": "3990 Molly Oval",
      "startCoords": {
        "latitude": 35.150345,
        "longitude": -106.683964
      },
      "endCoords": {
        "latitude": 35.176518,
        "longitude": -106.56046
      },
      "distanceMeters": 23672.6,
      "durationMs": 3900320,
      "drivingDurationMs": 3491333,
      "idlingDurationMs": 408987,
      "fuelConsumedMl": 1071,
      "fuelConsumedGallons": 0.283,
      "maxSpeedMph": 60.8,
      "averageSpeedMph": 13.6,
      "safetyEvents": []
    },
    {
      "id": "trip_42554227_20250506_008",
      "vehicleId": "42554227",
      "driverId": "20000044",
      "startMs": 1746527400000,
      "endMs": 1746528084811,
      "startAddress": "924 Brown Spring Apt. 265",
      "endAddress": "023 Fritz Extension Apt. 293",
      "startCoords": {
        "latitude": 35.151998,
        "longitude": -106.665888
      },
      "endCoords": {
        "latitude": 35.160105,
        "longitude": -106.688706
      },
      "distanceMeters": 5047.0,
      "durationMs": 684812,
      "drivingDurationMs": 510818,
      "idlingDurationMs": 173993,
      "fuelConsumedMl": 227,
      "fuelConsumedGallons": 0.06,
      "maxSpeedMph": 37.9,
      "averageSpeedMph": 16.5,
      "safetyEvents": []
    },
    {
      "id": "trip_42554227_20250506_009",
      "vehicleId": "42554227",
      "driverId": "20000044",
      "startMs": 1746512460000,
      "endMs": 1746516932829,
      "startAddress": "506 Glenn Lodge",
      "endAddress": "5413 Fields Causeway",
      "startCoords": {
        "latitude": 35.157101,
        "longitude": -106.658439
      },
      "endCoords": {
        "latitude": 35.046872,
        "longitude": -106.652712
      },
      "distanceMeters": 23307.1,
      "durationMs": 4472830,
      "drivingDurationMs": 3602905,
      "idlingDurationMs": 869924,
      "fuelConsumedMl": 1056,
      "fuelConsumedGallons": 0.279,
      "maxSpeedMph": 69.5,
      "averageSpeedMph": 11.7,
      "safetyEvents": [
        {
          "type": "speeding",
          "startMs": 1746513000000,
          "maxSpeedMph": 69.5
        }
      ]
    },
    {
      "id": "trip_42554227_20250506_010",
      "vehicleId": "42554227",
      "driverId": "20000044",
      "startMs": 1746543840000,
      "endMs": 1746547285297,
      "startAddress": "1573 Joseph Gardens Apt. 551",
      "endAddress": "46007 Amy Cove",
      "startCoords": {
        "latitude": 35.142635,
        "longitude": -106.678094
      },
      "endCoords": {
        "latitude": 35.152818,
        "longitude": -106.666097
      },
      "distanceMeters": 24628.6,
      "durationMs": 3445297,
      "drivingDurationMs": 2945173,
      "idlingDurationMs": 500124,
      "fuelConsumedMl": 1113,
      "fuelConsumedGallons": 0.294,
      "maxSpeedMph": 58.3,
      "averageSpeedMph": 16.0,
      "safetyEvents": []
    },
    {
      "id": "trip_42554227_20250506_011",
      "vehicleId": "42554227",
      "driverId": "20000044",
      "startMs": 1746514020000,
      "endMs": 1746514733457,
      "startAddress": "498 Bailey Track",
      "endAddress": "5608 Brown Lake",
      "startCoords": {
        "latitude": 35.160268,
        "longitude": -106.605767
      },
      "endCoords": {
        "latitude": 35.12561,
        "longitude": -106.655115
      },
      "distanceMeters": 4174.1,
      "durationMs": 713458,
      "drivingDurationMs": 549850,
      "idlingDurationMs": 163608,
      "fuelConsumedMl": 189,
      "fuelConsumedGallons": 0.05,
      "maxSpeedMph": 64.9,
      "averageSpeedMph": 13.1,
      "safetyEvents": []
    },
    {
      "id": "trip_42554227_20250506_012",
      "vehicleId": "42554227",
      "driverId": "20000044",
      "startMs": 1746537420000,
      "endMs": 1746539579124,
      "startAddress": "8640 Derrick Neck",
      "endAddress": "1532 Warren Fork Apt. 440",
      "startCoords": {
        "latitude": 35.181903,
        "longitude": -106.549308
      },
      "endCoords": {
        "latitude": 35.079517,
        "longitude": -106.55045
      },
      "distanceMeters": 14343.3,
      "durationMs": 2159125,
      "drivingDurationMs": 1756537,
      "idlingDurationMs": 402588,
      "fuelConsumedMl": 647,
      "fuelConsumedGallons": 0.171,
      "maxSpeedMph": 69.4,
      "averageSpeedMph": 14.9,
      "safetyEvents": [
        {
          "type": "speeding",
          "startMs": 1746539100000,
          "maxSpeedMph": 69.4
        }
      ]
    },
    {
      "id": "trip_42554227_20250506_013",
      "vehicleId": "42554227",
      "driverId": "20000044",
      "startMs": 1746544140000,
      "endMs": 1746544996719,
      "startAddress": "8944 Orozco Loop",
      "endAddress": "04417 Victoria Fords Apt. 295",
      "startCoords": {
        "latitude": 35.167291,
        "longitude": -106.617778
      },
      "endCoords": {
        "latitude": 35.099627,
        "longitude": -106.642411
      },
      "distanceMeters": 5101.6,
      "durationMs": 856720,
      "drivingDurationMs": 684159,
      "idlingDurationMs": 172561,
      "fuelConsumedMl": 231,
      "fuelConsumedGallons": 0.061,
      "maxSpeedMph": 68.3,
      "averageSpeedMph": 13.3,
      "safetyEvents": [
        {
          "type": "speeding",
          "startMs": 1746544740000,
          "maxSpeedMph": 68.3
        }
      ]
    },
    {
      "id": "trip_42554227_20250506_014",
      "vehicleId": "42554227",
      "driverId": "20000044",
      "startMs": 1746531420000,
      "endMs": 1746533433816,
      "startAddress": "091 Bruce Motorway Apt. 784",
      "endAddress": "8945 Cynthia Common Apt. 411",
      "startCoords": {
        "latitude": 35.096302,
        "longitude": -106.548134
      },
      "endCoords": {
        "latitude": 35.059458,
        "longitude": -106.543088
      },
      "distanceMeters": 15480.9,
      "durationMs": 2013816,
      "drivingDurationMs": 1709944,
      "idlingDurationMs": 303872,
      "fuelConsumedMl": 700,
      "fuelConsumedGallons": 0.185,
      "maxSpeedMph": 41.7,
      "averageSpeedMph": 17.2,
      "safetyEvents": []
    },
    {
      "id": "trip_42554227_20250506_015",
      "vehicleId": "42554227",
      "driverId": null,
      "startMs": 1746546120000,
      "endMs": 1746549400546,
      "startAddress": "1976 Martin Route",
      "endAddress": "69932 Robinson Rapids Suite 432",
      "startCoords": {
        "latitude": 35.159078,
        "longitude": -106.583551
      },
      "endCoords": {
        "latitude": 35.112287,
        "longitude": -106.597192
      },
      "distanceMeters": 20114.7,
      "durationMs": 3280547,
      "drivingDurationMs": 2862980,
      "idlingDurationMs": 417567,
      "fuelConsumedMl": 908,
      "fuelConsumedGallons": 0.24,
      "maxSpeedMph": 54.4,
      "averageSpeedMph": 13.7,
      "safetyEvents": []
    },
    {
      "id": "trip_42554227_20250507_001",
      "vehicleId": "42554227",
      "driverId": "20000044",
      "startMs": 1746616200000,
      "endMs": 1746617469031,
      "startAddress": "04791 Donald Summit Apt. 937",
      "endAddress": "219 Tara Common Apt. 783",
      "startCoords": {
        "latitude": 35.14394,
        "longitude": -106.628487
      },
      "endCoords": {
        "latitude": 35.128203,
        "longitude": -106.586269
      },
      "distanceMeters": 8527.9,
      "durationMs": 1269031,
      "drivingDurationMs": 1071525,
      "idlingDurationMs": 197506,
      "fuelConsumedMl": 386,
      "fuelConsumedGallons": 0.102,
      "maxSpeedMph": 31.4,
      "averageSpeedMph": 15.0,
      "safetyEvents": []
    },
    {
      "id": "trip_42554227_20250507_002",
      "vehicleId": "42554227",
      "driverId": "20000044",
      "startMs": 1746619200000,
      "endMs": 1746622975584,
      "startAddress": "60086 Michael Rest",
      "endAddress": "871 Jonathan Rapid",
      "startCoords": {
        "latitude": 35.176217,
        "longitude": -106.594478
      },
      "endCoords": {
        "latitude": 35.043009,
        "longitude": -106.616991
      },
      "distanceMeters": 22732.7,
      "durationMs": 3775585,
      "drivingDurationMs": 3561478,
      "idlingDurationMs": 214106,
      "fuelConsumedMl": 1030,
      "fuelConsumedGallons": 0.272,
      "maxSpeedMph": 64.0,
      "averageSpeedMph": 13.5,
      "safetyEvents": []
    },
    {
      "id": "trip_42554227_20250507_003",
      "vehicleId": "42554227",
      "driverId": "20000044",
      "startMs": 1746609360000,
      "endMs": 1746609970012,
      "startAddress": "1847 Baker Falls Suite 602",
      "endAddress": "5204 Wright Lodge Suite 292",
      "startCoords": {
        "latitude": 35.141063,
        "longitude": -106.605988
      },
      "endCoords": {
        "latitude": 35.076939,
        "longitude": -106.705088
      },
      "distanceMeters": 2937.3,
      "durationMs": 610013,
      "drivingDurationMs": 447335,
      "idlingDurationMs": 162678,
      "fuelConsumedMl": 132,
      "fuelConsumedGallons": 0.035,
      "maxSpeedMph": 28.4,
      "averageSpeedMph": 10.8,
      "safetyEvents": []
    },
    {
      "id": "trip_42554227_20250507_004",
      "vehicleId": "42554227",
      "driverId": "20000044",
      "startMs": 1746627300000,
      "endMs": 1746627756755,
      "startAddress": "9133 Hawkins Inlet",
      "endAddress": "6864 Hoover Keys Apt. 291",
      "startCoords": {
        "latitude": 35.171806,
        "longitude": -106.695476
      },
      "endCoords": {
        "latitude": 35.109118,
        "longitude": -106.608518
      },
      "distanceMeters": 2371.5,
      "durationMs": 456755,
      "drivingDurationMs": 344850,
      "idlingDurationMs": 111906,
      "fuelConsumedMl": 106,
      "fuelConsumedGallons": 0.028,
      "maxSpeedMph": 48.5,
      "averageSpeedMph": 11.6,
      "safetyEvents": []
    },
    {
      "id": "trip_42554227_20250507_005",
      "vehicleId": "42554227",
      "driverId": "20000044",
      "startMs": 1746598740000,
      "endMs": 1746599192515,
      "startAddress": "5114 Emily Mews",
      "endAddress": "597 Mcbride Route Suite 705",
      "startCoords": {
        "latitude": 35.169103,
        "longitude": -106.713518
      },
      "endCoords": {
        "latitude": 35.082912,
        "longitude": -106.599978
      },
      "distanceMeters": 2436.8,
      "durationMs": 452515,
      "drivingDurationMs": 297014,
      "idlingDurationMs": 155501,
      "fuelConsumedMl": 110,
      "fuelConsumedGallons": 0.029,
      "maxSpeedMph": 48.1,
      "averageSpeedMph": 12.0,
      "safetyEvents": []
    },
    {
      "id": "trip_42554227_20250507_006",
      "vehicleId": "42554227",
      "driverId": "20000044",
      "startMs": 1746613740000,
      "endMs": 1746614821177,
      "startAddress": "032 Joseph Stravenue Apt. 165",
      "endAddress": "80144 Robert Junctions",
      "startCoords": {
        "latitude": 35.044911,
        "longitude": -106.658771
      },
      "endCoords": {
        "latitude": 35.053347,
        "longitude": -106.720044
      },
      "distanceMeters": 8576.7,
      "durationMs": 1081178,
      "drivingDurationMs": 883838,
      "idlingDurationMs": 197339,
      "fuelConsumedMl": 386,
      "fuelConsumedGallons": 0.102,
      "maxSpeedMph": 40.5,
      "averageSpeedMph": 17.7,
      "safetyEvents": []
    },
    {
      "id": "trip_42554227_20250507_007",
      "vehicleId": "42554227",
      "driverId": null,
      "startMs": 1746623040000,
      "endMs": 1746623585563,
      "startAddress": "422 Kelly Burgs Apt. 360",
      "endAddress": "70512 Rogers Fields",
      "startCoords": {
        "latitude": 35.087728,
        "longitude": -106.58447
      },
      "endCoords": {
        "latitude": 35.060444,
        "longitude": -106.551351
      },
      "distanceMeters": 3942.0,
      "durationMs": 545564,
      "drivingDurationMs": 408802,
      "idlingDurationMs": 136761,
      "fuelConsumedMl": 178,
      "fuelConsumedGallons": 0.047,
      "maxSpeedMph": 31.3,
      "averageSpeedMph": 16.2,
      "safetyEvents": []
    },
    {
      "id": "trip_42554227_20250507_008",
      "vehicleId": "42554227",
      "driverId": "20000044",
      "startMs": 1746640620000,
      "endMs": 1746641523079,
      "startAddress": "2240 Burnett Wall Suite 727",
      "endAddress": "63432 Banks Summit Apt. 735",
      "startCoords": {
        "latitude": 35.059577,
        "longitude": -106.681442
      },
      "endCoords": {
        "latitude": 35.164716,
        "longitude": -106.702451
      },
      "distanceMeters": 7110.5,
      "durationMs": 903080,
      "drivingDurationMs": 722854,
      "idlingDurationMs": 180225,
      "fuelConsumedMl": 322,
      "fuelConsumedGallons": 0.085,
      "maxSpeedMph": 38.2,
      "averageSpeedMph": 17.6,
      "safetyEvents": []
    },
    {
      "id": "trip_42554227_20250507_009",
      "vehicleId": "42554227",
      "driverId": "20000044",
      "startMs": 1746617160000,
      "endMs": 1746618429968,
      "startAddress": "3385 Cook Plain",
      "endAddress": "1790 Paul Mall",
      "startCoords": {
        "latitude": 35.081892,
        "longitude": -106.65347
      },
      "endCoords": {
        "latitude": 35.104234,
        "longitude": -106.66875
      },
      "distanceMeters": 10176.1,
      "durationMs": 1269968,
      "drivingDurationMs": 1062842,
      "idlingDurationMs": 207127,
      "fuelConsumedMl": 462,
      "fuelConsumedGallons": 0.122,
      "maxSpeedMph": 64.9,
      "averageSpeedMph": 17.9,
      "safetyEvents": []
    },
    {
      "id": "trip_42554227_20250507_010",
      "vehicleId": "42554227",
      "driverId": "20000044",
      "startMs": 1746634200000,
      "endMs": 1746636322261,
      "startAddress": "68506 Holloway Key Suite 746",
      "endAddress": "220 Morgan Fall Suite 771",
      "startCoords": {
        "latitude": 35.125969,
        "longitude": -106.690637
      },
      "endCoords": {
        "latitude": 35.092556,
        "longitude": -106.551604
      },
      "distanceMeters": 11664.1,
      "durationMs": 2122262,
      "drivingDurationMs": 1758260,
      "idlingDurationMs": 364002,
      "fuelConsumedMl": 526,
      "fuelConsumedGallons": 0.139,
      "maxSpeedMph": 51.1,
      "averageSpeedMph": 12.3,
      "safetyEvents": []
    },
    {
      "id": "trip_42554227_20250507_011",
      "vehicleId": "42554227",
      "driverId": "20000044",
      "startMs": 1746599040000,
      "endMs": 1746600452967,
      "startAddress": "65646 George River",
      "endAddress": "4544 Shannon Well Apt. 170",
      "startCoords": {
        "latitude": 35.10312,
        "longitude": -106.613564
      },
      "endCoords": {
        "latitude": 35.172322,
        "longitude": -106.642512
      },
      "distanceMeters": 11734.0,
      "durationMs": 1412967,
      "drivingDurationMs": 1159162,
      "idlingDurationMs": 253805,
      "fuelConsumedMl": 530,
      "fuelConsumedGallons": 0.14,
      "maxSpeedMph": 55.8,
      "averageSpeedMph": 18.6,
      "safetyEvents": []
    },
    {
      "id": "trip_42554227_20250507_012",
      "vehicleId": "42554227",
      "driverId": "20000044",
      "startMs": 1746624120000,
      "endMs": 1746625374225,
      "startAddress": "806 Payne Dale",
      "endAddress": "65823 Ann Club Apt. 993",
      "startCoords": {
        "latitude": 35.073698,
        "longitude": -106.71452
      },
      "endCoords": {
        "latitude": 35.137294,
        "longitude": -106.610805
      },
      "distanceMeters": 8844.4,
      "durationMs": 1254225,
      "drivingDurationMs": 1046962,
      "idlingDurationMs": 207263,
      "fuelConsumedMl": 401,
      "fuelConsumedGallons": 0.106,
      "maxSpeedMph": 34.5,
      "averageSpeedMph": 15.8,
      "safetyEvents": []
    },
    {
      "id": "trip_42554227_20250507_013",
      "vehicleId": "42554227",
      "driverId": "20000044",
      "startMs": 1746600240000,
      "endMs": 1746601076295,
      "startAddress": "7695 Patrick Throughway Apt. 439",
      "endAddress": "27531 Clark Landing",
      "startCoords": {
        "latitude": 35.158685,
        "longitude": -106.597393
      },
      "endCoords": {
        "latitude": 35.156153,
        "longitude": -106.638214
      },
      "distanceMeters": 6253.2,
      "durationMs": 836296,
      "drivingDurationMs": 660622,
      "idlingDurationMs": 175674,
      "fuelConsumedMl": 284,
      "fuelConsumedGallons": 0.075,
      "maxSpeedMph": 36.8,
      "averageSpeedMph": 16.7,
      "safetyEvents": []
    },
    {
      "id": "trip_42554227_20250507_014",
      "vehicleId": "42554227",
      "driverId": "20000044",
      "startMs": 1746643620000,
      "endMs": 1746645545661,
      "startAddress": "3157 Campbell Trafficway Suite 350",
      "endAddress": "5901 Gibson Trafficway",
      "startCoords": {
        "latitude": 35.108878,
        "longitude": -106.543515
      },
      "endCoords": {
        "latitude": 35.162869,
        "longitude": -106.674821
      },
      "distanceMeters": 15037.6,
      "durationMs": 1925662,
      "drivingDurationMs": 1551464,
      "idlingDurationMs": 374198,
      "fuelConsumedMl": 681,
      "fuelConsumedGallons": 0.18,
      "maxSpeedMph": 67.8,
      "averageSpeedMph": 17.5,
      "safetyEvents": [
        {
          "type": "speeding",
          "startMs": 1746644880000,
          "maxSpeedMph": 67.8
        }
      ]
    },
    {
      "id": "trip_42554227_20250507_015",
      "vehicleId": "42554227",
      "driverId": "20000044",
      "startMs": 1746618540000,
      "endMs": 1746619497099,
      "startAddress": "54457 Michelle Orchard Apt. 594",
      "endAddress": "9388 David Lane Apt. 129",
      "startCoords": {
        "latitude": 35.130377,
        "longitude": -106.699145
      },
      "endCoords": {
        "latitude": 35.041335,
        "longitude": -106.58064
      },
      "distanceMeters": 6655.3,
      "durationMs": 957099,
      "drivingDurationMs": 776690,
      "idlingDurationMs": 180409,
      "fuelConsumedMl": 303,
      "fuelConsumedGallons": 0.08,
      "maxSpeedMph": 69.7,
      "averageSpeedMph": 15.6,
      "safetyEvents": [
        {
          "type": "speeding",
          "startMs": 1746619200000,
          "maxSpeedMph": 69.7
        }
      ]
    },
    {
      "id": "trip_42554227_20250507_016",
      "vehicleId": "42554227",
      "driverId": "20000044",
      "startMs": 1746606660000,
      "endMs": 1746607493368,
      "startAddress": "125 Castro Way Apt. 654",
      "endAddress": "791 Kimberly Freeway",
      "startCoords": {
        "latitude": 35.107912,
        "longitude": -106.606156
      },
      "endCoords": {
        "latitude": 35.133013,
        "longitude": -106.680761
      },
      "distanceMeters": 6359.7,
      "durationMs": 833368,
      "drivingDurationMs": 665286,
      "idlingDurationMs": 168082,
      "fuelConsumedMl": 288,
      "fuelConsumedGallons": 0.076,
      "maxSpeedMph": 51.4,
      "averageSpeedMph": 17.1,
      "safetyEvents": []
    },
    {
      "id": "trip_42554227_20250507_017",
      "vehicleId": "42554227",
      "driverId": "20000044",
      "startMs": 1746618840000,
      "endMs": 1746621103815,
      "startAddress": "9573 Lindsey Port",
      "endAddress": "66258 Kelley Cliffs Apt. 325",
      "startCoords": {
        "latitude": 35.087449,
        "longitude": -106.563803
      },
      "endCoords": {
        "latitude": 35.055296,
        "longitude": -106.624719
      },
      "distanceMeters": 16151.3,
      "durationMs": 2263815,
      "drivingDurationMs": 1929933,
      "idlingDurationMs": 333882,
      "fuelConsumedMl": 731,
      "fuelConsumedGallons": 0.193,
      "maxSpeedMph": 42.6,
      "averageSpeedMph": 16.0,
      "safetyEvents": []
    },
    {
      "id": "trip_42554227_20250507_018",
      "vehicleId": "42554227",
      "driverId": null,
      "startMs": 1746631620000,
      "endMs": 1746632234238,
      "startAddress": "6193 Estrada Plains",
      "endAddress": "789 Kim Station Apt. 488",
      "startCoords": {
        "latitude": 35.182314,
        "longitude": -106.662687
      },
      "endCoords": {
        "latitude": 35.05044,
        "longitude": -106.658723
      },
      "distanceMeters": 3100.1,
      "durationMs": 614239,
      "drivingDurationMs": 452842,
      "idlingDurationMs": 161397,
      "fuelConsumedMl": 140,
      "fuelConsumedGallons": 0.037,
      "maxSpeedMph": 45.6,
      "averageSpeedMph": 11.3,
      "safetyEvents": []
    },
    {
      "id": "trip_42554227_20250508_001",
      "vehicleId": "42554227",
      "driverId": "20000045",
      "startMs": 1746713940000,
      "endMs": 1746716620114,
      "startAddress": "301 Janice Heights Suite 223",
      "endAddress": "498 Vanessa Drives Suite 629",
      "startCoords": {
        "latitude": 35.100847,
        "longitude": -106.699706
      },
      "endCoords": {
        "latitude": 35.058015,
        "longitude": -106.708368
      },
      "distanceMeters": 17749.4,
      "durationMs": 2680114,
      "drivingDurationMs": 2168519,
      "idlingDurationMs": 511595,
      "fuelConsumedMl": 803,
      "fuelConsumedGallons": 0.212,
      "maxSpeedMph": 69.3,
      "averageSpeedMph": 14.8,
      "safetyEvents": [
        {
          "type": "speeding",
          "startMs": 1746715800000,
          "maxSpeedMph": 69.3
        }
      ]
    },
    {
      "id": "trip_42554227_20250508_002",
      "vehicleId": "42554227",
      "driverId": "20000045",
      "startMs": 1746723840000,
      "endMs": 1746725395877,
      "startAddress": "560 Kathryn Points",
      "endAddress": "39992 Sarah Drives Suite 692",
      "startCoords": {
        "latitude": 35.073784,
        "longitude": -106.613037
      },
      "endCoords": {
        "latitude": 35.121253,
        "longitude": -106.679269
      },
      "distanceMeters": 13254.0,
      "durationMs": 1555877,
      "drivingDurationMs": 1293159,
      "idlingDurationMs": 262719,
      "fuelConsumedMl": 598,
      "fuelConsumedGallons": 0.158,
      "maxSpeedMph": 36.4,
      "averageSpeedMph": 19.1,
      "safetyEvents": []
    },
    {
      "id": "trip_42554227_20250508_003",
      "vehicleId": "42554227",
      "driverId": "20000045",
      "startMs": 1746687780000,
      "endMs": 1746689985627,
      "startAddress": "36519 Anthony Rue",
      "endAddress": "896 Jeremy Fork Suite 217",
      "startCoords": {
        "latitude": 35.054621,
        "longitude": -106.61186
      },
      "endCoords": {
        "latitude": 35.18184,
        "longitude": -106.543087
      },
      "distanceMeters": 15217.4,
      "durationMs": 2205628,
      "drivingDurationMs": 1781929,
      "idlingDurationMs": 423698,
      "fuelConsumedMl": 689,
      "fuelConsumedGallons": 0.182,
      "maxSpeedMph": 55.5,
      "averageSpeedMph": 15.4,
      "safetyEvents": []
    },
    {
      "id": "trip_42554227_20250508_004",
      "vehicleId": "42554227",
      "driverId": "20000045",
      "startMs": 1746722280000,
      "endMs": 1746723200923,
      "startAddress": "33920 Schultz Courts",
      "endAddress": "7540 Jacobson Center Suite 410",
      "startCoords": {
        "latitude": 35.078505,
        "longitude": -106.647675
      },
      "endCoords": {
        "latitude": 35.094421,
        "longitude": -106.703312
      },
      "distanceMeters": 5744.8,
      "durationMs": 920924,
      "drivingDurationMs": 740390,
      "idlingDurationMs": 180534,
      "fuelConsumedMl": 261,
      "fuelConsumedGallons": 0.069,
      "maxSpeedMph": 71.0,
      "averageSpeedMph": 14.0,
      "safetyEvents": [
        {
          "type": "speeding",
          "startMs": 1746722460000,
          "maxSpeedMph": 71.0
        }
      ]
    },
    {
      "id": "trip_42554227_20250508_005",
      "vehicleId": "42554227",
      "driverId": "20000045",
      "startMs": 1746729300000,
      "endMs": 1746730788415,
      "startAddress": "753 Campbell Stravenue",
      "endAddress": "2314 Gibbs Mountains",
      "startCoords": {
        "latitude": 35.125933,
        "longitude": -106.723541
      },
      "endCoords": {
        "latitude": 35.181514,
        "longitude": -106.669291
      },
      "distanceMeters": 11630.9,
      "durationMs": 1488415,
      "drivingDurationMs": 1196240,
      "idlingDurationMs": 292176,
      "fuelConsumedMl": 526,
      "fuelConsumedGallons": 0.139,
      "maxSpeedMph": 37.8,
      "averageSpeedMph": 17.5,
      "safetyEvents": []
    },
    {
      "id": "trip_42554227_20250508_006",
      "vehicleId": "42554227",
      "driverId": "20000045",
      "startMs": 1746702780000,
      "endMs": 1746705835935,
      "startAddress": "24724 Haynes Forges",
      "endAddress": "4765 Harmon Island",
      "startCoords": {
        "latitude": 35.175174,
        "longitude": -106.628901
      },
      "endCoords": {
        "latitude": 35.168221,
        "longitude": -106.633428
      },
      "distanceMeters": 19367.4,
      "durationMs": 3055935,
      "drivingDurationMs": 2641059,
      "idlingDurationMs": 414876,
      "fuelConsumedMl": 874,
      "fuelConsumedGallons": 0.231,
      "maxSpeedMph": 38.9,
      "averageSpeedMph": 14.2,
      "safetyEvents": []
    },
    {
      "id": "trip_42554227_20250508_007",
      "vehicleId": "42554227",
      "driverId": "20000045",
      "startMs": 1746686460000,
      "endMs": 1746688044358,
      "startAddress": "885 Sandoval Gateway Apt. 966",
      "endAddress": "433 Mcgee Lakes Suite 503",
      "startCoords": {
        "latitude": 35.177964,
        "longitude": -106.607424
      },
      "endCoords": {
        "latitude": 35.087299,
        "longitude": -106.573544
      },
      "distanceMeters": 12504.9,
      "durationMs": 1584359,
      "drivingDurationMs": 1375718,
      "idlingDurationMs": 208641,
      "fuelConsumedMl": 564,
      "fuelConsumedGallons": 0.149,
      "maxSpeedMph": 68.4,
      "averageSpeedMph": 17.7,
      "safetyEvents": [
        {
          "type": "speeding",
          "startMs": 1746687780000,
          "maxSpeedMph": 68.4
        }
      ]
    },
    {
      "id": "trip_42554227_20250508_008",
      "vehicleId": "42554227",
      "driverId": "20000045",
      "startMs": 1746712620000,
      "endMs": 1746713025158,
      "startAddress": "5416 Edward Keys Suite 667",
      "endAddress": "669 Carl Springs Suite 563",
      "startCoords": {
        "latitude": 35.116243,
        "longitude": -106.696294
      },
      "endCoords": {
        "latitude": 35.117152,
        "longitude": -106.682012
      },
      "distanceMeters": 2431.2,
      "durationMs": 405158,
      "drivingDurationMs": 316375,
      "idlingDurationMs": 88783,
      "fuelConsumedMl": 110,
      "fuelConsumedGallons": 0.029,
      "maxSpeedMph": 32.4,
      "averageSpeedMph": 13.4,
      "safetyEvents": []
    },
    {
      "id": "trip_42554227_20250508_009",
      "vehicleId": "42554227",
      "driverId": "20000045",
      "startMs": 1746699360000,
      "endMs": 1746701163780,
      "startAddress": "636 Lloyd Corner",
      "endAddress": "0958 Smith Street Suite 470",
      "startCoords": {
        "latitude": 35.137785,
        "longitude": -106.578088
      },
      "endCoords": {
        "latitude": 35.090734,
        "longitude": -106.646346
      },
      "distanceMeters": 11191.2,
      "durationMs": 1803781,
      "drivingDurationMs": 1475415,
      "idlingDurationMs": 328365,
      "fuelConsumedMl": 507,
      "fuelConsumedGallons": 0.134,
      "maxSpeedMph": 61.0,
      "averageSpeedMph": 13.9,
      "safetyEvents": []
    },
    {
      "id": "trip_42554227_20250508_010",
      "vehicleId": "42554227",
      "driverId": "20000045",
      "startMs": 1746684420000,
      "endMs": 1746687617326,
      "startAddress": "890 Rich Way",
      "endAddress": "1949 Stokes Oval",
      "startCoords": {
        "latitude": 35.141595,
        "longitude": -106.568727
      },
      "endCoords": {
        "latitude": 35.051756,
        "longitude": -106.716203
      },
      "distanceMeters": 23044.8,
      "durationMs": 3197326,
      "drivingDurationMs": 2569076,
      "idlingDurationMs": 628250,
      "fuelConsumedMl": 1041,
      "fuelConsumedGallons": 0.275,
      "maxSpeedMph": 61.5,
      "averageSpeedMph": 16.1,
      "safetyEvents": []
    },
    {
      "id": "trip_42554227_20250509_001",
      "vehicleId": "42554227",
      "driverId": "20000044",
      "startMs": 1746804060000,
      "endMs": 1746805312446,
      "startAddress": "02445 Nguyen Center",
      "endAddress": "62113 James Views",
      "startCoords": {
        "latitude": 35.112229,
        "longitude": -106.55454
      },
      "endCoords": {
        "latitude": 35.123222,
        "longitude": -106.566042
      },
      "distanceMeters": 8793.9,
      "durationMs": 1252446,
      "drivingDurationMs": 1051276,
      "idlingDurationMs": 201171,
      "fuelConsumedMl": 397,
      "fuelConsumedGallons": 0.105,
      "maxSpeedMph": 28.0,
      "averageSpeedMph": 15.7,
      "safetyEvents": []
    },
    {
      "id": "trip_42554227_20250509_002",
      "vehicleId": "42554227",
      "driverId": "20000044",
      "startMs": 1746785580000,
      "endMs": 1746788830045,
      "startAddress": "49746 Kirby Station",
      "endAddress": "0318 Sheena Villages",
      "startCoords": {
        "latitude": 35.073377,
        "longitude": -106.710758
      },
      "endCoords": {
        "latitude": 35.083837,
        "longitude": -106.540341
      },
      "distanceMeters": 19613.3,
      "durationMs": 3250045,
      "drivingDurationMs": 2664303,
      "idlingDurationMs": 585742,
      "fuelConsumedMl": 886,
      "fuelConsumedGallons": 0.234,
      "maxSpeedMph": 49.3,
      "averageSpeedMph": 13.5,
      "safetyEvents": []
    },
    {
      "id": "trip_42554227_20250509_003",
      "vehicleId": "42554227",
      "driverId": null,
      "startMs": 1746785340000,
      "endMs": 1746787565420,
      "startAddress": "748 Casey Cliff Suite 237",
      "endAddress": "8773 Richard Forges",
      "startCoords": {
        "latitude": 35.177069,
        "longitude": -106.627297
      },
      "endCoords": {
        "latitude": 35.088384,
        "longitude": -106.608094
      },
      "distanceMeters": 16448.5,
      "durationMs": 2225420,
      "drivingDurationMs": 1926229,
      "idlingDurationMs": 299191,
      "fuelConsumedMl": 746,
      "fuelConsumedGallons": 0.197,
      "maxSpeedMph": 59.1,
      "averageSpeedMph": 16.5,
      "safetyEvents": []
    },
    {
      "id": "trip_42554227_20250509_004",
      "vehicleId": "42554227",
      "driverId": "20000044",
      "startMs": 1746816840000,
      "endMs": 1746819417594,
      "startAddress": "4711 Jamie Mews",
      "endAddress": "18797 Kimberly Drive",
      "startCoords": {
        "latitude": 35.080868,
        "longitude": -106.654225
      },
      "endCoords": {
        "latitude": 35.1579,
        "longitude": -106.678789
      },
      "distanceMeters": 16788.9,
      "durationMs": 2577594,
      "drivingDurationMs": 2264515,
      "idlingDurationMs": 313079,
      "fuelConsumedMl": 761,
      "fuelConsumedGallons": 0.201,
      "maxSpeedMph": 58.4,
      "averageSpeedMph": 14.6,
      "safetyEvents": []
    },
    {
      "id": "trip_42554227_20250509_005",
      "vehicleId": "42554227",
      "driverId": "20000044",
      "startMs": 1746785220000,
      "endMs": 1746787909236,
      "startAddress": "334 Castillo Lakes",
      "endAddress": "50930 Murphy Forest",
      "startCoords": {
        "latitude": 35.038952,
        "longitude": -106.609
      },
      "endCoords": {
        "latitude": 35.071011,
        "longitude": -106.663108
      },
      "distanceMeters": 14116.1,
      "durationMs": 2689236,
      "drivingDurationMs": 2177148,
      "idlingDurationMs": 512088,
      "fuelConsumedMl": 640,
      "fuelConsumedGallons": 0.169,
      "maxSpeedMph": 50.4,
      "averageSpeedMph": 11.7,
      "safetyEvents": []
    },
    {
      "id": "trip_42554227_20250509_006",
      "vehicleId": "42554227",
      "driverId": "20000044",
      "startMs": 1746812280000,
      "endMs": 1746814228081,
      "startAddress": "7044 Hodge Extension",
      "endAddress": "947 Richmond Junctions Apt. 974",
      "startCoords": {
        "latitude": 35.130331,
        "longitude": -106.552542
      },
      "endCoords": {
        "latitude": 35.085899,
        "longitude": -106.606723
      },
      "distanceMeters": 15183.5,
      "durationMs": 1948081,
      "drivingDurationMs": 1608454,
      "idlingDurationMs": 339627,
      "fuelConsumedMl": 685,
      "fuelConsumedGallons": 0.181,
      "maxSpeedMph": 37.9,
      "averageSpeedMph": 17.4,
      "safetyEvents": []
    },
    {
      "id": "trip_42554227_20250509_007",
      "vehicleId": "42554227",
      "driverId": "20000044",
      "startMs": 1746802200000,
      "endMs": 1746802931963,
      "startAddress": "6781 Carrie Canyon Suite 628",
      "endAddress": "95722 Scott Lodge Suite 913",
      "startCoords": {
        "latitude": 35.095725,
        "longitude": -106.644681
      },
      "endCoords": {
        "latitude": 35.083494,
        "longitude": -106.640065
      },
      "distanceMeters": 5937.8,
      "durationMs": 731964,
      "drivingDurationMs": 569236,
      "idlingDurationMs": 162728,
      "fuelConsumedMl": 269,
      "fuelConsumedGallons": 0.071,
      "maxSpeedMph": 42.0,
      "averageSpeedMph": 18.1,
      "safetyEvents": []
    },
    {
      "id": "trip_42554227_20250509_008",
      "vehicleId": "42554227",
      "driverId": "20000044",
      "startMs": 1746808440000,
      "endMs": 1746810077339,
      "startAddress": "19061 Rodriguez Rest Apt. 305",
      "endAddress": "3424 James Inlet",
      "startCoords": {
        "latitude": 35.181656,
        "longitude": -106.636447
      },
      "endCoords": {
        "latitude": 35.172121,
        "longitude": -106.645785
      },
      "distanceMeters": 12689.5,
      "durationMs": 1637339,
      "drivingDurationMs": 1364424,
      "idlingDurationMs": 272916,
      "fuelConsumedMl": 575,
      "fuelConsumedGallons": 0.152,
      "maxSpeedMph": 59.0,
      "averageSpeedMph": 17.3,
      "safetyEvents": []
    },
    {
      "id": "trip_42554227_20250509_009",
      "vehicleId": "42554227",
      "driverId": "20000044",
      "startMs": 1746771780000,
      "endMs": 1746773450124,
      "startAddress": "097 Clark Junction",
      "endAddress": "052 Wendy Camp Suite 777",
      "startCoords": {
        "latitude": 35.174301,
        "longitude": -106.612903
      },
      "endCoords": {
        "latitude": 35.133719,
        "longitude": -106.632524
      },
      "distanceMeters": 12895.3,
      "durationMs": 1670124,
      "drivingDurationMs": 1471788,
      "idlingDurationMs": 198336,
      "fuelConsumedMl": 583,
      "fuelConsumedGallons": 0.154,
      "maxSpeedMph": 67.6,
      "averageSpeedMph": 17.3,
      "safetyEvents": [
        {
          "type": "speeding",
          "startMs": 1746772140000,
          "maxSpeedMph": 67.6
        }
      ]
    },
    {
      "id": "trip_42554227_20250509_010",
      "vehicleId": "42554227",
      "driverId": "20000044",
      "startMs": 1746796740000,
      "endMs": 1746798480490,
      "startAddress": "67898 Anderson Stravenue",
      "endAddress": "310 Destiny Passage Apt. 714",
      "startCoords": {
        "latitude": 35.177055,
        "longitude": -106.586831
      },
      "endCoords": {
        "latitude": 35.091574,
        "longitude": -106.707371
      },
      "distanceMeters": 10757.0,
      "durationMs": 1740490,
      "drivingDurationMs": 1451312,
      "idlingDurationMs": 289179,
      "fuelConsumedMl": 488,
      "fuelConsumedGallons": 0.129,
      "maxSpeedMph": 37.1,
      "averageSpeedMph": 13.8,
      "safetyEvents": []
    },
    {
      "id": "trip_42554227_20250509_011",
      "vehicleId": "42554227",
      "driverId": "20000044",
      "startMs": 1746793800000,
      "endMs": 1746794825867,
      "startAddress": "9234 Brittany Station Suite 468",
      "endAddress": "108 Aaron Rue",
      "startCoords": {
        "latitude": 35.054977,
        "longitude": -106.64179
      },
      "endCoords": {
        "latitude": 35.058532,
        "longitude": -106.689629
      },
      "distanceMeters": 8679.5,
      "durationMs": 1025867,
      "drivingDurationMs": 844114,
      "idlingDurationMs": 181753,
      "fuelConsumedMl": 394,
      "fuelConsumedGallons": 0.104,
      "maxSpeedMph": 68.7,
      "averageSpeedMph": 18.9,
      "safetyEvents": [
        {
          "type": "speeding",
          "startMs": 1746794700000,
          "maxSpeedMph": 68.7
        }
      ]
    },
    {
      "id": "trip_42554227_20250509_012",
      "vehicleId": "42554227",
      "driverId": "20000044",
      "startMs": 1746801480000,
      "endMs": 1746803918669,
      "startAddress": "62056 Lynch Rest Suite 546",
      "endAddress": "321 Mendez Port Apt. 255",
      "startCoords": {
        "latitude": 35.110758,
        "longitude": -106.614034
      },
      "endCoords": {
        "latitude": 35.045204,
        "longitude": -106.640216
      },
      "distanceMeters": 20310.6,
      "durationMs": 2438670,
      "drivingDurationMs": 2177567,
      "idlingDurationMs": 261102,
      "fuelConsumedMl": 920,
      "fuelConsumedGallons": 0.243,
      "maxSpeedMph": 59.2,
      "averageSpeedMph": 18.6,
      "safetyEvents": []
    },
    {
      "id": "trip_42554227_20250509_013",
      "vehicleId": "42554227",
      "driverId": null,
      "startMs": 1746783240000,
      "endMs": 1746785363898,
      "startAddress": "532 Jose Islands Suite 565",
      "endAddress": "151 Johnston Curve Apt. 556",
      "startCoords": {
        "latitude": 35.078146,
        "longitude": -106.697638
      },
      "endCoords": {
        "latitude": 35.132434,
        "longitude": -106.557441
      },
      "distanceMeters": 12847.1,
      "durationMs": 2123898,
      "drivingDurationMs": 1731204,
      "idlingDurationMs": 392695,
      "fuelConsumedMl": 583,
      "fuelConsumedGallons": 0.154,
      "maxSpeedMph": 67.4,
      "averageSpeedMph": 13.5,
      "safetyEvents": [
        {
          "type": "speeding",
          "startMs": 1746783660000,
          "maxSpeedMph": 67.4
        }
      ]
    },
    {
      "id": "trip_42554227_20250509_014",
      "vehicleId": "42554227",
      "driverId": "20000044",
      "startMs": 1746791940000,
      "endMs": 1746795012863,
      "startAddress": "011 Ashley Trace",
      "endAddress": "2431 Lee Light Apt. 021",
      "startCoords": {
        "latitude": 35.05812,
        "longitude": -106.663701
      },
      "endCoords": {
        "latitude": 35.162608,
        "longitude": -106.683411
      },
      "distanceMeters": 23772.8,
      "durationMs": 3072864,
      "drivingDurationMs": 2696888,
      "idlingDurationMs": 375975,
      "fuelConsumedMl": 1075,
      "fuelConsumedGallons": 0.284,
      "maxSpeedMph": 29.1,
      "averageSpeedMph": 17.3,
      "safetyEvents": []
    },
    {
      "id": "trip_42554227_20250509_015",
      "vehicleId": "42554227",
      "driverId": "20000044",
      "startMs": 1746775260000,
      "endMs": 1746778500164,
      "startAddress": "924 Rangel Drive",
      "endAddress": "191 Kari Trafficway Suite 206",
      "startCoords": {
        "latitude": 35.044926,
        "longitude": -106.671538
      },
      "endCoords": {
        "latitude": 35.081926,
        "longitude": -106.639579
      },
      "distanceMeters": 23572.9,
      "durationMs": 3240165,
      "drivingDurationMs": 2636529,
      "idlingDurationMs": 603636,
      "fuelConsumedMl": 1067,
      "fuelConsumedGallons": 0.282,
      "maxSpeedMph": 28.4,
      "averageSpeedMph": 16.3,
      "safetyEvents": []
    },
    {
      "id": "trip_42554227_20250509_016",
      "vehicleId": "42554227",
      "driverId": "20000044",
      "startMs": 1746801540000,
      "endMs": 1746802643242,
      "startAddress": "07689 Martha Center Suite 603",
      "endAddress": "238 Garcia Hills",
      "startCoords": {
        "latitude": 35.111749,
        "longitude": -106.576074
      },
      "endCoords": {
        "latitude": 35.065037,
        "longitude": -106.621395
      },
      "distanceMeters": 6444.9,
      "durationMs": 1103243,
      "drivingDurationMs": 892788,
      "idlingDurationMs": 210454,
      "fuelConsumedMl": 291,
      "fuelConsumedGallons": 0.077,
      "maxSpeedMph": 61.3,
      "averageSpeedMph": 13.1,
      "safetyEvents": []
    },
    {
      "id": "trip_42554227_20250510_001",
      "vehicleId": "42554227",
      "driverId": "20000045",
      "startMs": 1746893460000,
      "endMs": 1746894879389,
      "startAddress": "25790 Gomez Springs",
      "endAddress": "8903 Stafford Street Suite 501",
      "startCoords": {
        "latitude": 35.143269,
        "longitude": -106.646673
      },
      "endCoords": {
        "latitude": 35.116161,
        "longitude": -106.577659
      },
      "distanceMeters": 11914.2,
      "durationMs": 1419389,
      "drivingDurationMs": 1169386,
      "idlingDurationMs": 250004,
      "fuelConsumedMl": 538,
      "fuelConsumedGallons": 0.142,
      "maxSpeedMph": 66.6,
      "averageSpeedMph": 18.8,
      "safetyEvents": [
        {
          "type": "speeding",
          "startMs": 1746894060000,
          "maxSpeedMph": 66.6
        }
      ]
    },
    {
      "id": "trip_42554227_20250510_002",
      "vehicleId": "42554227",
      "driverId": "20000045",
      "startMs": 1746884160000,
      "endMs": 1746887302251,
      "startAddress": "78688 Bray Lake Suite 119",
      "endAddress": "21907 Munoz Tunnel",
      "startCoords": {
        "latitude": 35.179114,
        "longitude": -106.665393
      },
      "endCoords": {
        "latitude": 35.16934,
        "longitude": -106.614517
      },
      "distanceMeters": 20143.4,
      "durationMs": 3142251,
      "drivingDurationMs": 2693750,
      "idlingDurationMs": 448501,
      "fuelConsumedMl": 912,
      "fuelConsumedGallons": 0.241,
      "maxSpeedMph": 50.1,
      "averageSpeedMph": 14.3,
      "safetyEvents": []
    },
    {
      "id": "trip_42554227_20250510_003",
      "vehicleId": "42554227",
      "driverId": "20000045",
      "startMs": 1746893880000,
      "endMs": 1746896821846,
      "startAddress": "549 Jesse Cape Suite 207",
      "endAddress": "85196 Sonia Rue Apt. 913",
      "startCoords": {
        "latitude": 35.173715,
        "longitude": -106.707207
      },
      "endCoords": {
        "latitude": 35.077372,
        "longitude": -106.622982
      },
      "distanceMeters": 23580.8,
      "durationMs": 2941846,
      "drivingDurationMs": 2484219,
      "idlingDurationMs": 457627,
      "fuelConsumedMl": 1067,
      "fuelConsumedGallons": 0.282,
      "maxSpeedMph": 41.4,
      "averageSpeedMph": 17.9,
      "safetyEvents": []
    },
    {
      "id": "trip_42554227_20250510_004",
      "vehicleId": "42554227",
      "driverId": "20000045",
      "startMs": 1746902220000,
      "endMs": 1746902729815,
      "startAddress": "492 Kenneth Turnpike",
      "endAddress": "300 Daniel Groves",
      "startCoords": {
        "latitude": 35.099093,
        "longitude": -106.722746
      },
      "endCoords": {
        "latitude": 35.118545,
        "longitude": -106.620797
      },
      "distanceMeters": 3388.7,
      "durationMs": 509815,
      "drivingDurationMs": 345963,
      "idlingDurationMs": 163852,
      "fuelConsumedMl": 151,
      "fuelConsumedGallons": 0.04,
      "maxSpeedMph": 37.7,
      "averageSpeedMph": 14.9,
      "safetyEvents": []
    },
    {
      "id": "trip_42554227_20250510_005",
      "vehicleId": "42554227",
      "driverId": "20000045",
      "startMs": 1746899280000,
      "endMs": 1746901400922,
      "startAddress": "19849 Carla Plaza",
      "endAddress": "066 Scott Mountain Apt. 897",
      "startCoords": {
        "latitude": 35.067775,
        "longitude": -106.723515
      },
      "endCoords": {
        "latitude": 35.104774,
        "longitude": -106.592717
      },
      "distanceMeters": 13916.4,
      "durationMs": 2120922,
      "drivingDurationMs": 1722295,
      "idlingDurationMs": 398627,
      "fuelConsumedMl": 628,
      "fuelConsumedGallons": 0.166,
      "maxSpeedMph": 55.9,
      "averageSpeedMph": 14.7,
      "safetyEvents": []
    },
    {
      "id": "trip_42554227_20250510_006",
      "vehicleId": "42554227",
      "driverId": "20000045",
      "startMs": 1746888360000,
      "endMs": 1746890325229,
      "startAddress": "487 Sanchez Cape Suite 869",
      "endAddress": "8115 Desiree Well",
      "startCoords": {
        "latitude": 35.114746,
        "longitude": -106.713103
      },
      "endCoords": {
        "latitude": 35.083981,
        "longitude": -106.640952
      },
      "distanceMeters": 16392.3,
      "durationMs": 1965230,
      "drivingDurationMs": 1584610,
      "idlingDurationMs": 380620,
      "fuelConsumedMl": 742,
      "fuelConsumedGallons": 0.196,
      "maxSpeedMph": 57.5,
      "averageSpeedMph": 18.7,
      "safetyEvents": []
    },
    {
      "id": "trip_42554227_20250510_007",
      "vehicleId": "42554227",
      "driverId": "20000045",
      "startMs": 1746871020000,
      "endMs": 1746872917685,
      "startAddress": "3270 David Passage Suite 366",
      "endAddress": "430 Leslie Hills Suite 807",
      "startCoords": {
        "latitude": 35.161258,
        "longitude": -106.701196
      },
      "endCoords": {
        "latitude": 35.107456,
        "longitude": -106.594709
      },
      "distanceMeters": 13515.5,
      "durationMs": 1897685,
      "drivingDurationMs": 1552516,
      "idlingDurationMs": 345169,
      "fuelConsumedMl": 613,
      "fuelConsumedGallons": 0.162,
      "maxSpeedMph": 61.1,
      "averageSpeedMph": 15.9,
      "safetyEvents": []
    },
    {
      "id": "trip_42554227_20250510_008",
      "vehicleId": "42554227",
      "driverId": null,
      "startMs": 1746891060000,
      "endMs": 1746892806369,
      "startAddress": "230 Linda Circles",
      "endAddress": "9742 Gregory Gateway",
      "startCoords": {
        "latitude": 35.054968,
        "longitude": -106.712348
      },
      "endCoords": {
        "latitude": 35.165599,
        "longitude": -106.578346
      },
      "distanceMeters": 12290.0,
      "durationMs": 1746369,
      "drivingDurationMs": 1562648,
      "idlingDurationMs": 183721,
      "fuelConsumedMl": 556,
      "fuelConsumedGallons": 0.147,
      "maxSpeedMph": 31.0,
      "averageSpeedMph": 15.7,
      "safetyEvents": []
    },
    {
      "id": "trip_42554227_20250510_009",
      "vehicleId": "42554227",
      "driverId": "20000045",
      "startMs": 1746859200000,
      "endMs": 1746862361299,
      "startAddress": "05221 Eric Summit Suite 988",
      "endAddress": "138 Jacob Meadow",
      "startCoords": {
        "latitude": 35.174939,
        "longitude": -106.578996
      },
      "endCoords": {
        "latitude": 35.129659,
        "longitude": -106.590968
      },
      "distanceMeters": 19314.8,
      "durationMs": 3161300,
      "drivingDurationMs": 2949290,
      "idlingDurationMs": 212009,
      "fuelConsumedMl": 874,
      "fuelConsumedGallons": 0.231,
      "maxSpeedMph": 39.6,
      "averageSpeedMph": 13.7,
      "safetyEvents": []
    },
    {
      "id": "trip_42554227_20250510_010",
      "vehicleId": "42554227",
      "driverId": "20000045",
      "startMs": 1746874020000,
      "endMs": 1746876289105,
      "startAddress": "19376 Michael Falls Suite 007",
      "endAddress": "2688 Hughes View Suite 305",
      "startCoords": {
        "latitude": 35.058495,
        "longitude": -106.552687
      },
      "endCoords": {
        "latitude": 35.056789,
        "longitude": -106.545561
      },
      "distanceMeters": 12920.5,
      "durationMs": 2269106,
      "drivingDurationMs": 1853795,
      "idlingDurationMs": 415310,
      "fuelConsumedMl": 583,
      "fuelConsumedGallons": 0.154,
      "maxSpeedMph": 62.2,
      "averageSpeedMph": 12.7,
      "safetyEvents": []
    },
    {
      "id": "trip_42554227_20250510_011",
      "vehicleId": "42554227",
      "driverId": "20000045",
      "startMs": 1746894840000,
      "endMs": 1746897898813,
      "startAddress": "859 Julie Club",
      "endAddress": "649 Rocha Isle Apt. 033",
      "startCoords": {
        "latitude": 35.153116,
        "longitude": -106.5402
      },
      "endCoords": {
        "latitude": 35.072684,
        "longitude": -106.645108
      },
      "distanceMeters": 23160.8,
      "durationMs": 3058814,
      "drivingDurationMs": 2823609,
      "idlingDurationMs": 235205,
      "fuelConsumedMl": 1049,
      "fuelConsumedGallons": 0.277,
      "maxSpeedMph": 70.0,
      "averageSpeedMph": 16.9,
      "safetyEvents": [
        {
          "type": "speeding",
          "startMs": 1746896760000,
          "maxSpeedMph": 70.0
        }
      ]
    },
    {
      "id": "trip_42554227_20250512_001",
      "vehicleId": "42554227",
      "driverId": "20000045",
      "startMs": 1747052160000,
      "endMs": 1747052935797,
      "startAddress": "805 Mark Isle Apt. 608",
      "endAddress": "7956 Gonzalez Trail Apt. 216",
      "startCoords": {
        "latitude": 35.087036,
        "longitude": -106.61548
      },
      "endCoords": {
        "latitude": 35.165417,
        "longitude": -106.649223
      },
      "distanceMeters": 4198.8,
      "durationMs": 775797,
      "drivingDurationMs": 606529,
      "idlingDurationMs": 169268,
      "fuelConsumedMl": 189,
      "fuelConsumedGallons": 0.05,
      "maxSpeedMph": 66.0,
      "averageSpeedMph": 12.1,
      "safetyEvents": [
        {
          "type": "speeding",
          "startMs": 1747052280000,
          "maxSpeedMph": 66.0
        }
      ]
    },
    {
      "id": "trip_42554227_20250512_002",
      "vehicleId": "42554227",
      "driverId": null,
      "startMs": 1747050780000,
      "endMs": 1747054120835,
      "startAddress": "3592 Michael Isle Suite 782",
      "endAddress": "4434 King Passage Suite 394",
      "startCoords": {
        "latitude": 35.045192,
        "longitude": -106.615986
      },
      "endCoords": {
        "latitude": 35.177827,
        "longitude": -106.60552
      },
      "distanceMeters": 18587.5,
      "durationMs": 3340835,
      "drivingDurationMs": 2686521,
      "idlingDurationMs": 654315,
      "fuelConsumedMl": 840,
      "fuelConsumedGallons": 0.222,
      "maxSpeedMph": 30.5,
      "averageSpeedMph": 12.4,
      "safetyEvents": []
    },
    {
      "id": "trip_42554227_20250512_003",
      "vehicleId": "42554227",
      "driverId": "20000045",
      "startMs": 1747071600000,
      "endMs": 1747075441341,
      "startAddress": "3144 Donna Square Apt. 295",
      "endAddress": "327 Felicia Neck",
      "startCoords": {
        "latitude": 35.180903,
        "longitude": -106.62802
      },
      "endCoords": {
        "latitude": 35.04204,
        "longitude": -106.588781
      },
      "distanceMeters": 24896.6,
      "durationMs": 3841342,
      "drivingDurationMs": 3183465,
      "idlingDurationMs": 657877,
      "fuelConsumedMl": 1128,
      "fuelConsumedGallons": 0.298,
      "maxSpeedMph": 41.2,
      "averageSpeedMph": 14.5,
      "safetyEvents": []
    },
    {
      "id": "trip_42554227_20250512_004",
      "vehicleId": "42554227",
      "driverId": "20000045",
      "startMs": 1747059900000,
      "endMs": 1747062814809,
      "startAddress": "575 Yates Circles",
      "endAddress": "0015 Morgan Lakes",
      "startCoords": {
        "latitude": 35.116233,
        "longitude": -106.561117
      },
      "endCoords": {
        "latitude": 35.179185,
        "longitude": -106.646064
      },
      "distanceMeters": 22311.9,
      "durationMs": 2914809,
      "drivingDurationMs": 2346845,
      "idlingDurationMs": 567964,
      "fuelConsumedMl": 1011,
      "fuelConsumedGallons": 0.267,
      "maxSpeedMph": 29.0,
      "averageSpeedMph": 17.1,
      "safetyEvents": []
    },
    {
      "id": "trip_42554227_20250512_005",
      "vehicleId": "42554227",
      "driverId": "20000045",
      "startMs": 1747044060000,
      "endMs": 1747046274776,
      "startAddress": "51588 Luis Mission Suite 788",
      "endAddress": "362 Jorge Lodge",
      "startCoords": {
        "latitude": 35.045105,
        "longitude": -106.539218
      },
      "endCoords": {
        "latitude": 35.038816,
        "longitude": -106.690536
      },
      "distanceMeters": 17614.9,
      "durationMs": 2214777,
      "drivingDurationMs": 1886710,
      "idlingDurationMs": 328067,
      "fuelConsumedMl": 795,
      "fuelConsumedGallons": 0.21,
      "maxSpeedMph": 37.1,
      "averageSpeedMph": 17.8,
      "safetyEvents": []
    },
    {
      "id": "trip_42554227_20250512_006",
      "vehicleId": "42554227",
      "driverId": "20000045",
      "startMs": 1747049760000,
      "endMs": 1747053079107,
      "startAddress": "8097 Gonzalez Pine Apt. 110",
      "endAddress": "470 Zachary Crossroad Apt. 647",
      "startCoords": {
        "latitude": 35.066048,
        "longitude": -106.570676
      },
      "endCoords": {
        "latitude": 35.045663,
        "longitude": -106.65826
      },
      "distanceMeters": 24310.8,
      "durationMs": 3319108,
      "drivingDurationMs": 2743091,
      "idlingDurationMs": 576017,
      "fuelConsumedMl": 1102,
      "fuelConsumedGallons": 0.291,
      "maxSpeedMph": 31.0,
      "averageSpeedMph": 16.4,
      "safetyEvents": []
    },
    {
      "id": "trip_42554227_20250512_007",
      "vehicleId": "42554227",
      "driverId": "20000045",
      "startMs": 1747038300000,
      "endMs": 1747040070491,
      "startAddress": "06131 Kristen Field Apt. 536",
      "endAddress": "7429 Nathaniel Summit",
      "startCoords": {
        "latitude": 35.062414,
        "longitude": -106.555322
      },
      "endCoords": {
        "latitude": 35.102424,
        "longitude": -106.578166
      },
      "distanceMeters": 9144.7,
      "durationMs": 1770491,
      "drivingDurationMs": 1486738,
      "idlingDurationMs": 283753,
      "fuelConsumedMl": 413,
      "fuelConsumedGallons": 0.109,
      "maxSpeedMph": 39.4,
      "averageSpeedMph": 11.6,
      "safetyEvents": []
    },
    {
      "id": "trip_42554227_20250512_008",
      "vehicleId": "42554227",
      "driverId": "20000045",
      "startMs": 1747069200000,
      "endMs": 1747070290488,
      "startAddress": "2058 Karen Summit Apt. 582",
      "endAddress": "569 Michelle Dam Apt. 062",
      "startCoords": {
        "latitude": 35.085362,
        "longitude": -106.660884
      },
      "endCoords": {
        "latitude": 35.143019,
        "longitude": -106.711098
      },
      "distanceMeters": 6034.0,
      "durationMs": 1090488,
      "drivingDurationMs": 897073,
      "idlingDurationMs": 193416,
      "fuelConsumedMl": 273,
      "fuelConsumedGallons": 0.072,
      "maxSpeedMph": 52.7,
      "averageSpeedMph": 12.4,
      "safetyEvents": []
    },
    {
      "id": "trip_42554227_20250512_009",
      "vehicleId": "42554227",
      "driverId": "20000045",
      "startMs": 1747043940000,
      "endMs": 1747046576565,
      "startAddress": "331 James Estates",
      "endAddress": "961 Thompson Road Suite 788",
      "startCoords": {
        "latitude": 35.173719,
        "longitude": -106.612751
      },
      "endCoords": {
        "latitude": 35.172665,
        "longitude": -106.709571
      },
      "distanceMeters": 21980.4,
      "durationMs": 2636566,
      "drivingDurationMs": 2391612,
      "idlingDurationMs": 244954,
      "fuelConsumedMl": 996,
      "fuelConsumedGallons": 0.263,
      "maxSpeedMph": 32.5,
      "averageSpeedMph": 18.6,
      "safetyEvents": []
    },
    {
      "id": "trip_42554227_20250512_010",
      "vehicleId": "42554227",
      "driverId": "20000045",
      "startMs": 1747040880000,
      "endMs": 1747042612842,
      "startAddress": "6789 Smith Lakes",
      "endAddress": "43786 Watson Place Apt. 563",
      "startCoords": {
        "latitude": 35.087534,
        "longitude": -106.658569
      },
      "endCoords": {
        "latitude": 35.118364,
        "longitude": -106.574944
      },
      "distanceMeters": 12539.5,
      "durationMs": 1732842,
      "drivingDurationMs": 1528894,
      "idlingDurationMs": 203948,
      "fuelConsumedMl": 568,
      "fuelConsumedGallons": 0.15,
      "maxSpeedMph": 50.5,
      "averageSpeedMph": 16.2,
      "safetyEvents": []
    },
    {
      "id": "trip_42554227_20250513_001",
      "vehicleId": "42554227",
      "driverId": "20000046",
      "startMs": 1747153320000,
      "endMs": 1747155313592,
      "startAddress": "53057 Lamb Mill",
      "endAddress": "7808 Carolyn Ridge Apt. 601",
      "startCoords": {
        "latitude": 35.098466,
        "longitude": -106.652108
      },
      "endCoords": {
        "latitude": 35.118246,
        "longitude": -106.657594
      },
      "distanceMeters": 17620.3,
      "durationMs": 1993592,
      "drivingDurationMs": 1790017,
      "idlingDurationMs": 203575,
      "fuelConsumedMl": 799,
      "fuelConsumedGallons": 0.211,
      "maxSpeedMph": 28.5,
      "averageSpeedMph": 19.8,
      "safetyEvents": []
    },
    {
      "id": "trip_42554227_20250513_002",
      "vehicleId": "42554227",
      "driverId": "20000046",
      "startMs": 1747143540000,
      "endMs": 1747147714860,
      "startAddress": "172 Amber Landing",
      "endAddress": "656 Lozano Lake Apt. 157",
      "startCoords": {
        "latitude": 35.038808,
        "longitude": -106.648248
      },
      "endCoords": {
        "latitude": 35.078815,
        "longitude": -106.625894
      },
      "distanceMeters": 24486.4,
      "durationMs": 4174860,
      "drivingDurationMs": 3522602,
      "idlingDurationMs": 652258,
      "fuelConsumedMl": 1109,
      "fuelConsumedGallons": 0.293,
      "maxSpeedMph": 44.9,
      "averageSpeedMph": 13.1,
      "safetyEvents": []
    },
    {
      "id": "trip_42554227_20250513_003",
      "vehicleId": "42554227",
      "driverId": "20000046",
      "startMs": 1747135620000,
      "endMs": 1747138292327,
      "startAddress": "971 Price Walks Apt. 162",
      "endAddress": "0446 Davidson Pines",
      "startCoords": {
        "latitude": 35.156197,
        "longitude": -106.64656
      },
      "endCoords": {
        "latitude": 35.106023,
        "longitude": -106.612574
      },
      "distanceMeters": 18824.9,
      "durationMs": 2672328,
      "drivingDurationMs": 2260857,
      "idlingDurationMs": 411471,
      "fuelConsumedMl": 852,
      "fuelConsumedGallons": 0.225,
      "maxSpeedMph": 61.5,
      "averageSpeedMph": 15.8,
      "safetyEvents": []
    },
    {
      "id": "trip_42554227_20250513_004",
      "vehicleId": "42554227",
      "driverId": "20000046",
      "startMs": 1747148280000,
      "endMs": 1747152582157,
      "startAddress": "9064 Joseph Drive Suite 166",
      "endAddress": "438 Beck Lake Suite 313",
      "startCoords": {
        "latitude": 35.076713,
        "longitude": -106.697174
      },
      "endCoords": {
        "latitude": 35.077531,
        "longitude": -106.693743
      },
      "distanceMeters": 24685.5,
      "durationMs": 4302157,
      "drivingDurationMs": 3656329,
      "idlingDurationMs": 645829,
      "fuelConsumedMl": 1117,
      "fuelConsumedGallons": 0.295,
      "maxSpeedMph": 40.5,
      "averageSpeedMph": 12.8,
      "safetyEvents": []
    },
    {
      "id": "trip_42554227_20250513_005",
      "vehicleId": "42554227",
      "driverId": "20000046",
      "startMs": 1747152060000,
      "endMs": 1747154543996,
      "startAddress": "2833 Bartlett Parks",
      "endAddress": "36924 Pugh Lodge Apt. 444",
      "startCoords": {
        "latitude": 35.178923,
        "longitude": -106.684037
      },
      "endCoords": {
        "latitude": 35.100773,
        "longitude": -106.587308
      },
      "distanceMeters": 22300.2,
      "durationMs": 2483997,
      "drivingDurationMs": 2218097,
      "idlingDurationMs": 265900,
      "fuelConsumedMl": 1007,
      "fuelConsumedGallons": 0.266,
      "maxSpeedMph": 45.6,
      "averageSpeedMph": 20.1,
      "safetyEvents": []
    },
    {
      "id": "trip_42554227_20250513_006",
      "vehicleId": "42554227",
      "driverId": null,
      "startMs": 1747161180000,
      "endMs": 1747162014624,
      "startAddress": "2369 Bailey Locks Apt. 391",
      "endAddress": "6782 Vincent Village Apt. 729",
      "startCoords": {
        "latitude": 35.103315,
        "longitude": -106.719251
      },
      "endCoords": {
        "latitude": 35.140131,
        "longitude": -106.653374
      },
      "distanceMeters": 5837.8,
      "durationMs": 834624,
      "drivingDurationMs": 660591,
      "idlingDurationMs": 174033,
      "fuelConsumedMl": 265,
      "fuelConsumedGallons": 0.07,
      "maxSpeedMph": 34.5,
      "averageSpeedMph": 15.6,
      "safetyEvents": []
    },
    {
      "id": "trip_42554227_20250513_007",
      "vehicleId": "42554227",
      "driverId": "20000046",
      "startMs": 1747121760000,
      "endMs": 1747122725331,
      "startAddress": "87452 Victor Centers",
      "endAddress": "336 Serrano Stream Suite 864",
      "startCoords": {
        "latitude": 35.097323,
        "longitude": -106.591272
      },
      "endCoords": {
        "latitude": 35.106505,
        "longitude": -106.64606
      },
      "distanceMeters": 6880.1,
      "durationMs": 965331,
      "drivingDurationMs": 775389,
      "idlingDurationMs": 189942,
      "fuelConsumedMl": 310,
      "fuelConsumedGallons": 0.082,
      "maxSpeedMph": 40.2,
      "averageSpeedMph": 15.9,
      "safetyEvents": []
    },
    {
      "id": "trip_42554227_20250513_008",
      "vehicleId": "42554227",
      "driverId": "20000046",
      "startMs": 1747148100000,
      "endMs": 1747148665497,
      "startAddress": "59276 Ford Meadows",
      "endAddress": "1578 Christopher Hill",
      "startCoords": {
        "latitude": 35.069714,
        "longitude": -106.610665
      },
      "endCoords": {
        "latitude": 35.115081,
        "longitude": -106.722923
      },
      "distanceMeters": 2930.0,
      "durationMs": 565498,
      "drivingDurationMs": 424931,
      "idlingDurationMs": 140566,
      "fuelConsumedMl": 132,
      "fuelConsumedGallons": 0.035,
      "maxSpeedMph": 48.7,
      "averageSpeedMph": 11.6,
      "safetyEvents": []
    },
    {
      "id": "trip_42554227_20250513_009",
      "vehicleId": "42554227",
      "driverId": "20000046",
      "startMs": 1747152900000,
      "endMs": 1747154423314,
      "startAddress": "60279 Amy Lodge",
      "endAddress": "04653 James Underpass Apt. 585",
      "startCoords": {
        "latitude": 35.087996,
        "longitude": -106.5558
      },
      "endCoords": {
        "latitude": 35.160454,
        "longitude": -106.564382
      },
      "distanceMeters": 10238.9,
      "durationMs": 1523314,
      "drivingDurationMs": 1262418,
      "idlingDurationMs": 260897,
      "fuelConsumedMl": 462,
      "fuelConsumedGallons": 0.122,
      "maxSpeedMph": 31.1,
      "averageSpeedMph": 15.0,
      "safetyEvents": []
    },
    {
      "id": "trip_42554227_20250513_010",
      "vehicleId": "42554227",
      "driverId": "20000046",
      "startMs": 1747127820000,
      "endMs": 1747130607692,
      "startAddress": "0469 Christopher Green Suite 420",
      "endAddress": "238 Murphy Shore Suite 925",
      "startCoords": {
        "latitude": 35.126722,
        "longitude": -106.679468
      },
      "endCoords": {
        "latitude": 35.108936,
        "longitude": -106.65097
      },
      "distanceMeters": 17585.6,
      "durationMs": 2787692,
      "drivingDurationMs": 2296479,
      "idlingDurationMs": 491213,
      "fuelConsumedMl": 795,
      "fuelConsumedGallons": 0.21,
      "maxSpeedMph": 50.1,
      "averageSpeedMph": 14.1,
      "safetyEvents": []
    },
    {
      "id": "trip_42554227_20250514_001",
      "vehicleId": "42554227",
      "driverId": "20000044",
      "startMs": 1747232340000,
      "endMs": 1747235481832,
      "startAddress": "014 John Drives Suite 687",
      "endAddress": "733 Ashley Course",
      "startCoords": {
        "latitude": 35.181597,
        "longitude": -106.682146
      },
      "endCoords": {
        "latitude": 35.139252,
        "longitude": -106.612564
      },
      "distanceMeters": 23936.8,
      "durationMs": 3141833,
      "drivingDurationMs": 2697248,
      "idlingDurationMs": 444585,
      "fuelConsumedMl": 1083,
      "fuelConsumedGallons": 0.286,
      "maxSpeedMph": 39.6,
      "averageSpeedMph": 17.0,
      "safetyEvents": []
    },