{
  "vehicleId": "48291024",
  "vehicleName": "SAL-CAR-03",
  "month": "2025_05",
  "pagination": {
    "endCursor": "trip_48291024_20250531_003",
    "hasNextPage": false
  },
  "trips": [
    {
      "id": "trip_48291024_20250501_001",
      "vehicleId": "48291024",
      "driverId": "22831023",
      "startMs": 1746103380000,
      "endMs": 1746114249146,
      "startLocation": {
        "latitude": 40.718229,
        "longitude": -111.814174
      },
      "endLocation": {
        "latitude": 40.669205,
        "longitude": -111.922251
      },
      "startAddress": "4210 Martin Crescent Apt. 414",
      "endAddress": "96115 Ellis Harbor",
      "startCoords": {
        "latitude": 40.688465,
        "longitude": -111.901221
      },
      "endCoords": {
        "latitude": 40.723672,
        "longitude": -111.803763
      },
      "distanceMeters": 69931.7,
      "durationMs": 10869147,
      "drivingDurationMs": 8761733,
      "idlingDurationMs": 2107414,
      "fuelConsumedMl": 8892,
      "fuelConsumedGallons": 2.349,
      "maxSpeedMph": 66.6,
      "averageSpeedMph": 14.4,
      "safetyEvents": [
        {
          "type": "speeding",
          "startMs": 1746103680000,
          "maxSpeedMph": 66.6
        }
      ],
      "_no_driver_login": false,
      "_fuel_note": "QUIRK 5: fuelConsumedGallons is in US gallons. Multiply by 3.785 for litres. Samsara does not link fuel to specific Onfleet tasks."
    },
    {
      "id": "trip_48291024_20250501_002",
      "vehicleId": "48291024",
      "driverId": "22831023",
      "startMs": 1746103140000,
      "endMs": 1746105704192,
      "startLocation": {
        "latitude": 40.696816,
        "longitude": -111.788617
      },
      "endLocation": {
        "latitude": 40.746322,
        "longitude": -111.883583
      },
      "startAddress": "0227 Robert Walk",
      "endAddress": "8028 Elizabeth Plain",
      "startCoords": {
        "latitude": 40.671427,
        "longitude": -111.89723
      },
      "endCoords": {
        "latitude": 40.79353,
        "longitude": -111.913367
      },
      "distanceMeters": 12844.6,
      "durationMs": 2564193,
      "drivingDurationMs": 2124755,
      "idlingDurationMs": 439438,
      "fuelConsumedMl": 1632,
      "fuelConsumedGallons": 0.431,
      "maxSpeedMph": 41.7,
      "averageSpeedMph": 11.2,
      "safetyEvents": [],
      "_no_driver_login": false,
      "_fuel_note": ""
    },
    {
      "id": "trip_48291024_20250501_003",
      "vehicleId": "48291024",
      "driverId": "22831023",
      "startMs": 1746102960000,
      "endMs": 1746109528737,
      "startLocation": {
        "latitude": 40.661792,
        "longitude": -111.830961
      },
      "endLocation": {
        "latitude": 40.764078,
        "longitude": -111.879964
      },
      "startAddress": "131 White Mountain Apt. 231",
      "endAddress": "222 Gary Heights",
      "startCoords": {
        "latitude": 40.695656,
        "longitude": -111.801086
      },
      "endCoords": {
        "latitude": 40.751759,
        "longitude": -111.793591
      },
      "distanceMeters": 34698.4,
      "durationMs": 6568738,
      "drivingDurationMs": 5529350,
      "idlingDurationMs": 1039388,
      "fuelConsumedMl": 4410,
      "fuelConsumedGallons": 1.165,
      "maxSpeedMph": 35.8,
      "averageSpeedMph": 11.8,
      "safetyEvents": [],
      "_no_driver_login": false,
      "_fuel_note": ""
    },
    {
      "id": "trip_48291024_20250501_004",
      "vehicleId": "48291024",
      "driverId": "22831023",
      "startMs": 1746102420000,
      "endMs": 1746113846599,
      "startLocation": {
        "latitude": 40.759076,
        "longitude": -111.938545
      },
      "endLocation": {
        "latitude": 40.71763,
        "longitude": -111.92119
      },
      "startAddress": "2516 Arroyo Place",
      "endAddress": "2824 Reginald Fall Apt. 870",
      "startCoords": {
        "latitude": 40.744971,
        "longitude": -111.918712
      },
      "endCoords": {
        "latitude": 40.741158,
        "longitude": -111.943114
      },
      "distanceMeters": 64459.6,
      "durationMs": 11426599,
      "drivingDurationMs": 9152583,
      "idlingDurationMs": 2274016,
      "fuelConsumedMl": 8195,
      "fuelConsumedGallons": 2.165,
      "maxSpeedMph": 55.9,
      "averageSpeedMph": 12.6,
      "safetyEvents": [],
      "_no_driver_login": false,
      "_fuel_note": ""
    },
    {
      "id": "trip_48291024_20250501_005",
      "vehicleId": "48291024",
      "driverId": "22831023",
      "startMs": 1746112140000,
      "endMs": 1746117882267,
      "startLocation": {
        "latitude": 40.716567,
        "longitude": -111.946789
      },
      "endLocation": {
        "latitude": 40.792654,
        "longitude": -111.821999
      },
      "startAddress": "67095 Page Way Suite 105",
      "endAddress": "4527 Rodriguez Union Suite 977",
      "startCoords": {
        "latitude": 40.724086,
        "longitude": -111.815288
      },
      "endCoords": {
        "latitude": 40.680991,
        "longitude": -111.914005
      },
      "distanceMeters": 40616.8,
      "durationMs": 5742267,
      "drivingDurationMs": 4728790,
      "idlingDurationMs": 1013477,
      "fuelConsumedMl": 5163,
      "fuelConsumedGallons": 1.364,
      "maxSpeedMph": 29.6,
      "averageSpeedMph": 15.8,
      "safetyEvents": [],
      "_no_driver_login": false,
      "_fuel_note": ""
    },
    {
      "id": "trip_48291024_20250501_006",
      "vehicleId": "48291024",
      "driverId": "22831023",
      "startMs": 1746109800000,
      "endMs": 1746121002852,
      "startLocation": {
        "latitude": 40.792125,
        "longitude": -111.786063
      },
      "endLocation": {
        "latitude": 40.674738,
        "longitude": -111.912709
      },
      "startAddress": "09194 Hannah Pines",
      "endAddress": "73420 Davenport Heights",
      "startCoords": {
        "latitude": 40.735723,
        "longitude": -111.960857
      },
      "endCoords": {
        "latitude": 40.725822,
        "longitude": -111.928806
      },
      "distanceMeters": 64148.7,
      "durationMs": 11202852,
      "drivingDurationMs": 9169636,
      "idlingDurationMs": 2033217,
      "fuelConsumedMl": 8158,
      "fuelConsumedGallons": 2.155,
      "maxSpeedMph": 63.6,
      "averageSpeedMph": 12.8,
      "safetyEvents": [],
      "_no_driver_login": false,
      "_fuel_note": ""
    },
    {
      "id": "trip_48291024_20250502_001",
      "vehicleId": "48291024",
      "driverId": "22831023",
      "startMs": 1746194880000,
      "endMs": 1746203202303,
      "startLocation": {
        "latitude": 40.656587,
        "longitude": -111.800266
      },
      "endLocation": {
        "latitude": 40.747768,
        "longitude": -111.802244
      },
      "startAddress": "2430 Justin Road Apt. 774",
      "endAddress": "145 Ryan Summit",
      "startCoords": {
        "latitude": 40.745063,
        "longitude": -111.897985
      },
      "endCoords": {
        "latitude": 40.680777,
        "longitude": -111.95153
      },
      "distanceMeters": 56462.0,
      "durationMs": 8322304,
      "drivingDurationMs": 6949680,
      "idlingDurationMs": 1372624,
      "fuelConsumedMl": 7177,
      "fuelConsumedGallons": 1.896,
      "maxSpeedMph": 39.6,
      "averageSpeedMph": 15.2,
      "safetyEvents": [],
      "_no_driver_login": false,
      "_fuel_note": "QUIRK 5: fuelConsumedGallons is in US gallons. Multiply by 3.785 for litres. Samsara does not link fuel to specific Onfleet tasks."
    },
    {
      "id": "trip_48291024_20250502_002",
      "vehicleId": "48291024",
      "driverId": "22831023",
      "startMs": 1746210300000,
      "endMs": 1746219600000,
      "startLocation": {
        "latitude": 40.721898,
        "longitude": -111.904952
      },
      "endLocation": {
        "latitude": 40.679076,
        "longitude": -111.851424
      },
      "startAddress": "67718 Jim Gardens",
      "endAddress": "9703 Michael Road",
      "startCoords": {
        "latitude": 40.75727,
        "longitude": -111.916154
      },
      "endCoords": {
        "latitude": 40.663178,
        "longitude": -111.84861
      },
      "distanceMeters": 59589.6,
      "durationMs": 9300000,
      "drivingDurationMs": 7440000,
      "idlingDurationMs": 1860000,
      "fuelConsumedMl": 7575,
      "fuelConsumedGallons": 2.001,
      "maxSpeedMph": 53.5,
      "averageSpeedMph": 14.3,
      "safetyEvents": [],
      "_no_driver_login": false,
      "_fuel_note": ""
    },
    {
      "id": "trip_48291024_20250502_003",
      "vehicleId": "48291024",
      "driverId": "22831023",
      "startMs": 1746172560000,
      "endMs": 1746184529575,
      "startLocation": {
        "latitude": 40.68854,
        "longitude": -111.904036
      },
      "endLocation": {
        "latitude": 40.66326,
        "longitude": -111.867815
      },
      "startAddress": "24889 Christian Village Suite 485",
      "endAddress": "9971 Malone Path Suite 704",
      "startCoords": {
        "latitude": 40.762439,
        "longitude": -111.80996
      },
      "endCoords": {
        "latitude": 40.759764,
        "longitude": -111.917264
      },
      "distanceMeters": 75605.2,
      "durationMs": 11969575,
      "drivingDurationMs": 11673582,
      "idlingDurationMs": 295994,
      "fuelConsumedMl": 9611,
      "fuelConsumedGallons": 2.539,
      "maxSpeedMph": 29.8,
      "averageSpeedMph": 14.1,
      "safetyEvents": [],
      "_no_driver_login": false,
      "_fuel_note": ""
    },
    {
      "id": "trip_48291024_20250502_004",
      "vehicleId": "48291024",
      "driverId": "22831023",
      "startMs": 1746196200000,
      "endMs": 1746209400954,
      "startLocation": {
        "latitude": 40.782681,
        "longitude": -111.84269
      },
      "endLocation": {
        "latitude": 40.684642,
        "longitude": -111.910345
      },
      "startAddress": "4723 Ronald Light",
      "endAddress": "26439 Wyatt Burg Suite 591",
      "startCoords": {
        "latitude": 40.681065,
        "longitude": -111.898883
      },
      "endCoords": {
        "latitude": 40.67184,
        "longitude": -111.830789
      },
      "distanceMeters": 71992.0,
      "durationMs": 13200954,
      "drivingDurationMs": 11125236,
      "idlingDurationMs": 2075718,
      "fuelConsumedMl": 9153,
      "fuelConsumedGallons": 2.418,
      "maxSpeedMph": 37.8,
      "averageSpeedMph": 12.2,
      "safetyEvents": [],
      "_no_driver_login": false,
      "_fuel_note": ""
    },
    {
      "id": "trip_48291024_20250502_005",
      "vehicleId": "48291024",
      "driverId": "22831023",
      "startMs": 1746204660000,
      "endMs": 1746206717536,
      "startLocation": {
        "latitude": 40.735529,
        "longitude": -111.925806
      },
      "endLocation": {
        "latitude": 40.732318,
        "longitude": -111.820864
      },
      "startAddress": "8659 Marshall Port Suite 244",
      "endAddress": "4154 Chavez Views",
      "startCoords": {
        "latitude": 40.687282,
        "longitude": -111.806686
      },
      "endCoords": {
        "latitude": 40.667109,
        "longitude": -111.916949
      },
      "distanceMeters": 15188.9,
      "durationMs": 2057537,
      "drivingDurationMs": 1807131,
      "idlingDurationMs": 250406,
      "fuelConsumedMl": 1931,
      "fuelConsumedGallons": 0.51,
      "maxSpeedMph": 50.7,
      "averageSpeedMph": 16.5,
      "safetyEvents": [],
      "_no_driver_login": false,
      "_fuel_note": ""
    },
    {
      "id": "trip_48291024_20250503_001",
      "vehicleId": "48291024",
      "driverId": "22831023",
      "startMs": 1746273780000,
      "endMs": 1746277996100,
      "startLocation": {
        "latitude": 40.77643,
        "longitude": -111.866791
      },
      "endLocation": {
        "latitude": 40.697508,
        "longitude": -111.890564
      },
      "startAddress": "93304 Flores Via",
      "endAddress": "83215 Weeks Unions",
      "startCoords": {
        "latitude": 40.695339,
        "longitude": -111.917968
      },
      "endCoords": {
        "latitude": 40.772932,
        "longitude": -111.852828
      },
      "distanceMeters": 20589.6,
      "durationMs": 4216101,
      "drivingDurationMs": 3758748,
      "idlingDurationMs": 457353,
      "fuelConsumedMl": 2620,
      "fuelConsumedGallons": 0.692,
      "maxSpeedMph": 57.8,
      "averageSpeedMph": 10.9,
      "safetyEvents": [],
      "_no_driver_login": false,
      "_fuel_note": "QUIRK 5: fuelConsumedGallons is in US gallons. Multiply by 3.785 for litres. Samsara does not link fuel to specific Onfleet tasks."
    },
    {
      "id": "trip_48291024_20250503_002",
      "vehicleId": "48291024",
      "driverId": "22831023",
      "startMs": 1746263040000,
      "endMs": 1746272152943,
      "startLocation": {
        "latitude": 40.745377,
        "longitude": -111.874524
      },
      "endLocation": {
        "latitude": 40.686863,
        "longitude": -111.948236
      },
      "startAddress": "4200 Greer Curve Apt. 535",
      "endAddress": "161 Calhoun Dale",
      "startCoords": {
        "latitude": 40.682898,
        "longitude": -111.88729
      },
      "endCoords": {
        "latitude": 40.796057,
        "longitude": -111.778573
      },
      "distanceMeters": 56599.4,
      "durationMs": 9112944,
      "drivingDurationMs": 8087266,
      "idlingDurationMs": 1025678,
      "fuelConsumedMl": 7196,
      "fuelConsumedGallons": 1.901,
      "maxSpeedMph": 37.9,
      "averageSpeedMph": 13.9,
      "safetyEvents": [],
      "_no_driver_login": false,
      "_fuel_note": ""
    },
    {
      "id": "trip_48291024_20250503_003",
      "vehicleId": "48291024",
      "driverId": null,
      "startMs": 1746280560000,
      "endMs": 1746288963599,
      "startLocation": {
        "latitude": 40.749536,
        "longitude": -111.90771
      },
      "endLocation": {
        "latitude": 40.728649,
        "longitude": -111.948341
      },
      "startAddress": "41976 May Ramp Apt. 067",
      "endAddress": "794 Cain Lodge",
      "startCoords": {
        "latitude": 40.746336,
        "longitude": -111.923735
      },
      "endCoords": {
        "latitude": 40.75089,
        "longitude": -111.938547
      },
      "distanceMeters": 44134.1,
      "durationMs": 8403599,
      "drivingDurationMs": 6987400,
      "idlingDurationMs": 1416199,
      "fuelConsumedMl": 5610,
      "fuelConsumedGallons": 1.482,
      "maxSpeedMph": 34.2,
      "averageSpeedMph": 11.7,
      "safetyEvents": [],
      "_no_driver_login": true,
      "_fuel_note": ""
    },
    {
      "id": "trip_48291024_20250504_001",
      "vehicleId": "48291024",
      "driverId": "22831023",
      "startMs": 1746376500000,
      "endMs": 1746382959585,
      "startLocation": {
        "latitude": 40.678934,
        "longitude": -111.875642
      },
      "endLocation": {
        "latitude": 40.792518,
        "longitude": -111.835822
      },
      "startAddress": "0896 Jennifer Trail Suite 038",
      "endAddress": "2471 Ferguson Harbor",
      "startCoords": {
        "latitude": 40.757543,
        "longitude": -111.961666
      },
      "endCoords": {
        "latitude": 40.749534,
        "longitude": -111.811386
      },
      "distanceMeters": 45718.9,
      "durationMs": 6459585,
      "drivingDurationMs": 5194847,
      "idlingDurationMs": 1264738,
      "fuelConsumedMl": 5814,
      "fuelConsumedGallons": 1.536,
      "maxSpeedMph": 56.6,
      "averageSpeedMph": 15.8,
      "safetyEvents": [],
      "_no_driver_login": false,
      "_fuel_note": "QUIRK 5: fuelConsumedGallons is in US gallons. Multiply by 3.785 for litres. Samsara does not link fuel to specific Onfleet tasks."
    },
    {
      "id": "trip_48291024_20250504_002",
      "vehicleId": "48291024",
      "driverId": "22831023",
      "startMs": 1746354840000,
      "endMs": 1746366364036,
      "startLocation": {
        "latitude": 40.720858,
        "longitude": -111.956236
      },
      "endLocation": {
        "latitude": 40.730189,
        "longitude": -111.89489
      },
      "startAddress": "237 King Trail Apt. 056",
      "endAddress": "694 Kim Passage Apt. 156",
      "startCoords": {
        "latitude": 40.790916,
        "longitude": -111.778773
      },
      "endCoords": {
        "latitude": 40.658169,
        "longitude": -111.795127
      },
      "distanceMeters": 83088.1,
      "durationMs": 11524036,
      "drivingDurationMs": 9519668,
      "idlingDurationMs": 2004368,
      "fuelConsumedMl": 10565,
      "fuelConsumedGallons": 2.791,
      "maxSpeedMph": 67.3,
      "averageSpeedMph": 16.1,
      "safetyEvents": [
        {
          "type": "speeding",
          "startMs": 1746356640000,
          "maxSpeedMph": 67.3
        }
      ],
      "_no_driver_login": false,
      "_fuel_note": ""
    },
    {
      "id": "trip_48291024_20250504_003",
      "vehicleId": "48291024",
      "driverId": "22831023",
      "startMs": 1746383220000,
      "endMs": 1746386962408,
      "startLocation": {
        "latitude": 40.744895,
        "longitude": -111.917466
      },
      "endLocation": {
        "latitude": 40.760538,
        "longitude": -111.85738
      },
      "startAddress": "179 Webb Forks Suite 848",
      "endAddress": "37921 King Garden",
      "startCoords": {
        "latitude": 40.716119,
        "longitude": -111.876966
      },
      "endCoords": {
        "latitude": 40.741332,
        "longitude": -111.855835
      },
      "distanceMeters": 26920.3,
      "durationMs": 3742408,
      "drivingDurationMs": 3436684,
      "idlingDurationMs": 305725,
      "fuelConsumedMl": 3422,
      "fuelConsumedGallons": 0.904,
      "maxSpeedMph": 36.8,
      "averageSpeedMph": 16.1,
      "safetyEvents": [],
      "_no_driver_login": false,
      "_fuel_note": ""
    },
    {
      "id": "trip_48291024_20250505_001",
      "vehicleId": "48291024",
      "driverId": "22831023",
      "startMs": 1746444780000,
      "endMs": 1746451214498,
      "startLocation": {
        "latitude": 40.750073,
        "longitude": -111.956182
      },
      "endLocation": {
        "latitude": 40.699495,
        "longitude": -111.950465
      },
      "startAddress": "46978 Peters Dale Apt. 469",
      "endAddress": "407 Sloan Forge Suite 863",
      "startCoords": {
        "latitude": 40.721785,
        "longitude": -111.909873
      },
      "endCoords": {
        "latitude": 40.714961,
        "longitude": -111.861055
      },
      "distanceMeters": 30869.9,
      "durationMs": 6434499,
      "drivingDurationMs": 6011805,
      "idlingDurationMs": 422694,
      "fuelConsumedMl": 3925,
      "fuelConsumedGallons": 1.037,
      "maxSpeedMph": 71.4,
      "averageSpeedMph": 10.7,
      "safetyEvents": [
        {
          "type": "speeding",
          "startMs": 1746450180000,
          "maxSpeedMph": 71.4
        }
      ],
      "_no_driver_login": false,
      "_fuel_note": "QUIRK 5: fuelConsumedGallons is in US gallons. Multiply by 3.785 for litres. Samsara does not link fuel to specific Onfleet tasks."
    },
    {
      "id": "trip_48291024_20250505_002",
      "vehicleId": "48291024",
      "driverId": "22831023",
      "startMs": 1746444480000,
      "endMs": 1746453170032,
      "startLocation": {
        "latitude": 40.763035,
        "longitude": -111.787067
      },
      "endLocation": {
        "latitude": 40.791851,
        "longitude": -111.855257
      },
      "startAddress": "55729 Cole Burg",
      "endAddress": "7385 Jones Fall",
      "startCoords": {
        "latitude": 40.79631,
        "longitude": -111.913388
      },
      "endCoords": {
        "latitude": 40.77538,
        "longitude": -111.938528
      },
      "distanceMeters": 41783.3,
      "durationMs": 8690033,
      "drivingDurationMs": 7585678,
      "idlingDurationMs": 1104354,
      "fuelConsumedMl": 5311,
      "fuelConsumedGallons": 1.403,
      "maxSpeedMph": 63.0,
      "averageSpeedMph": 10.8,
      "safetyEvents": [],
      "_no_driver_login": false,
      "_fuel_note": ""
    },
    {
      "id": "trip_48291024_20250505_003",
      "vehicleId": "48291024",
      "driverId": "22831023",
      "startMs": 1746426900000,
      "endMs": 1746432704248,
      "startLocation": {
        "latitude": 40.731252,
        "longitude": -111.912575
      },
      "endLocation": {
        "latitude": 40.687161,
        "longitude": -111.938659
      },
      "startAddress": "409 James River",
      "endAddress": "7955 Moore Village Suite 912",
      "startCoords": {
        "latitude": 40.760703,
        "longitude": -111.928105
      },
      "endCoords": {
        "latitude": 40.670419,
        "longitude": -111.837767
      },
      "distanceMeters": 33056.5,
      "durationMs": 5804248,
      "drivingDurationMs": 5084582,
      "idlingDurationMs": 719667,
      "fuelConsumedMl": 4202,
      "fuelConsumedGallons": 1.11,
      "maxSpeedMph": 62.7,
      "averageSpeedMph": 12.7,
      "safetyEvents": [],
      "_no_driver_login": false,
      "_fuel_note": ""
    },
    {
      "id": "trip_48291024_20250505_004",
      "vehicleId": "48291024",
      "driverId": "22831023",
      "startMs": 1746470880000,
      "endMs": 1746473793616,
      "startLocation": {
        "latitude": 40.742132,
        "longitude": -111.857662
      },
      "endLocation": {
        "latitude": 40.793743,
        "longitude": -111.855791
      },
      "startAddress": "81307 Veronica Summit",
      "endAddress": "2773 Rivera Points Apt. 447",
      "startCoords": {
        "latitude": 40.668612,
        "longitude": -111.840576
      },
      "endCoords": {
        "latitude": 40.794344,
        "longitude": -111.961012
      },
      "distanceMeters": 19572.5,
      "durationMs": 2913616,
      "drivingDurationMs": 2459277,
      "idlingDurationMs": 454339,
      "fuelConsumedMl": 2487,
      "fuelConsumedGallons": 0.657,
      "maxSpeedMph": 46.2,
      "averageSpeedMph": 15.0,
      "safetyEvents": [],
      "_no_driver_login": false,
      "_fuel_note": ""
    },
    {
      "id": "trip_48291024_20250505_005",
      "vehicleId": "48291024",
      "driverId": "22831023",
      "startMs": 1746459180000,
      "endMs": 1746460231240,
      "startLocation": {
        "latitude": 40.716625,
        "longitude": -111.919681
      },
      "endLocation": {
        "latitude": 40.798336,
        "longitude": -111.957641
      },
      "startAddress": "2774 Christopher Forks",
      "endAddress": "6699 Molly Lights Apt. 619",
      "startCoords": {
        "latitude": 40.785901,
        "longitude": -111.818896
      },
      "endCoords": {
        "latitude": 40.794091,
        "longitude": -111.800053
      },
      "distanceMeters": 6707.1,
      "durationMs": 1051240,
      "drivingDurationMs": 858713,
      "idlingDurationMs": 192527,
      "fuelConsumedMl": 852,
      "fuelConsumedGallons": 0.225,
      "maxSpeedMph": 45.2,
      "averageSpeedMph": 14.3,
      "safetyEvents": [],
      "_no_driver_login": false,
      "_fuel_note": ""
    },
    {
      "id": "trip_48291024_20250506_001",
      "vehicleId": "48291024",
      "driverId": "22831023",
      "startMs": 1746533640000,
      "endMs": 1746536774807,
      "startLocation": {
        "latitude": 40.705812,
        "longitude": -111.90873
      },
      "endLocation": {
        "latitude": 40.77798,
        "longitude": -111.952716
      },
      "startAddress": "40109 Sanchez Grove Apt. 656",
      "endAddress": "69611 Victoria Junctions Suite 648",
      "startCoords": {
        "latitude": 40.691996,
        "longitude": -111.809494
      },
      "endCoords": {
        "latitude": 40.797392,
        "longitude": -111.813994
      },
      "distanceMeters": 15765.1,
      "durationMs": 3134807,
      "drivingDurationMs": 2876932,
      "idlingDurationMs": 257875,
      "fuelConsumedMl": 2006,
      "fuelConsumedGallons": 0.53,
      "maxSpeedMph": 63.5,
      "averageSpeedMph": 11.2,
      "safetyEvents": [],
      "_no_driver_login": false,
      "_fuel_note": "QUIRK 5: fuelConsumedGallons is in US gallons. Multiply by 3.785 for litres. Samsara does not link fuel to specific Onfleet tasks."
    },
    {
      "id": "trip_48291024_20250506_002",
      "vehicleId": "48291024",
      "driverId": "22831023",
      "startMs": 1746516540000,
      "endMs": 1746528325973,
      "startLocation": {
        "latitude": 40.730942,
        "longitude": -111.847559
      },
      "endLocation": {
        "latitude": 40.696551,
        "longitude": -111.914798
      },
      "startAddress": "61701 Gilbert Point",
      "endAddress": "716 Johnson Flats",
      "startCoords": {
        "latitude": 40.69972,
        "longitude": -111.902046
      },
      "endCoords": {
        "latitude": 40.718041,
        "longitude": -111.893106
      },
      "distanceMeters": 83286.5,
      "durationMs": 11785974,
      "drivingDurationMs": 10623587,
      "idlingDurationMs": 1162387,
      "fuelConsumedMl": 10588,
      "fuelConsumedGallons": 2.797,
      "maxSpeedMph": 69.6,
      "averageSpeedMph": 15.8,
      "safetyEvents": [
        {
          "type": "speeding",
          "startMs": 1746522420000,
          "maxSpeedMph": 69.6
        }
      ],
      "_no_driver_login": false,
      "_fuel_note": ""
    },
    {
      "id": "trip_48291024_20250506_003",
      "vehicleId": "48291024",
      "driverId": "22831023",
      "startMs": 1746544380000,
      "endMs": 1746553003118,
      "startLocation": {
        "latitude": 40.77528,
        "longitude": -111.786459
      },
      "endLocation": {
        "latitude": 40.662241,
        "longitude": -111.920708
      },
      "startAddress": "58524 Smith Rapids Suite 030",
      "endAddress": "421 Hart Drives",
      "startCoords": {
        "latitude": 40.789407,
        "longitude": -111.915856
      },
      "endCoords": {
        "latitude": 40.766899,
        "longitude": -111.87708
      },
      "distanceMeters": 64502.8,
      "durationMs": 8623119,
      "drivingDurationMs": 8277885,
      "idlingDurationMs": 345234,
      "fuelConsumedMl": 8199,
      "fuelConsumedGallons": 2.166,
      "maxSpeedMph": 57.4,
      "averageSpeedMph": 16.7,
      "safetyEvents": [],
      "_no_driver_login": false,
      "_fuel_note": ""
    },
    {
      "id": "trip_48291024_20250507_001",
      "vehicleId": "48291024",
      "driverId": "22831023",
      "startMs": 1746602760000,
      "endMs": 1746605042732,
      "startLocation": {
        "latitude": 40.703158,
        "longitude": -111.905982
      },
      "endLocation": {
        "latitude": 40.659979,
        "longitude": -111.849329
      },
      "startAddress": "2917 Lauren Stream",
      "endAddress": "7726 Joanna Mission Suite 593",
      "startCoords": {
        "latitude": 40.759629,
        "longitude": -111.944291
      },
      "endCoords": {
        "latitude": 40.685971,
        "longitude": -111.895562
      },
      "distanceMeters": 11857.8,
      "durationMs": 2282733,
      "drivingDurationMs": 1874348,
      "idlingDurationMs": 408385,
      "fuelConsumedMl": 1507,
      "fuelConsumedGallons": 0.398,
      "maxSpeedMph": 36.0,
      "averageSpeedMph": 11.6,
      "safetyEvents": [],
      "_no_driver_login": false,
      "_fuel_note": "QUIRK 5: fuelConsumedGallons is in US gallons. Multiply by 3.785 for litres. Samsara does not link fuel to specific Onfleet tasks."
    },
    {
      "id": "trip_48291024_20250507_002",
      "vehicleId": "48291024",
      "driverId": "22831023",
      "startMs": 1746619080000,
      "endMs": 1746632147198,
      "startLocation": {
        "latitude": 40.701206,
        "longitude": -111.953177
      },
      "endLocation": {
        "latitude": 40.657054,
        "longitude": -111.781448
      },
      "startAddress": "20490 Tracey Island Apt. 925",
      "endAddress": "349 April Mission Suite 218",
      "startCoords": {
        "latitude": 40.739641,
        "longitude": -111.815675
      },
      "endCoords": {
        "latitude": 40.677981,
        "longitude": -111.840092
      },
      "distanceMeters": 73168.5,
      "durationMs": 13067199,
      "drivingDurationMs": 12583705,
      "idlingDurationMs": 483493,
      "fuelConsumedMl": 9305,
      "fuelConsumedGallons": 2.458,
      "maxSpeedMph": 51.4,
      "averageSpeedMph": 12.5,
      "safetyEvents": [],
      "_no_driver_login": false,
      "_fuel_note": ""
    },
    {
      "id": "trip_48291024_20250507_003",
      "vehicleId": "48291024",
      "driverId": "22831023",
      "startMs": 1746603600000,
      "endMs": 1746606692087,
      "startLocation": {
        "latitude": 40.782332,
        "longitude": -111.952593
      },
      "endLocation": {
        "latitude": 40.713191,
        "longitude": -111.830725
      },
      "startAddress": "250 Baker Vista",
      "endAddress": "8202 Smith Mission",
      "startCoords": {
        "latitude": 40.748433,
        "longitude": -111.904664
      },
      "endCoords": {
        "latitude": 40.738205,
        "longitude": -111.896292
      },
      "distanceMeters": 22405.6,
      "durationMs": 3092088,
      "drivingDurationMs": 2822088,
      "idlingDurationMs": 270000,
      "fuelConsumedMl": 2850,
      "fuelConsumedGallons": 0.753,
      "maxSpeedMph": 47.5,
      "averageSpeedMph": 16.2,
      "safetyEvents": [],
      "_no_driver_login": false,
      "_fuel_note": ""
    },
    {
      "id": "trip_48291024_20250507_004",
      "vehicleId": "48291024",
      "driverId": "22831023",
      "startMs": 1746643620000,
      "endMs": 1746646272629,
      "startLocation": {
        "latitude": 40.798631,
        "longitude": -111.939142
      },
      "endLocation": {
        "latitude": 40.72907,
        "longitude": -111.923637
      },
      "startAddress": "5408 Matthew Haven Suite 235",
      "endAddress": "234 Lindsay Junction Suite 091",
      "startCoords": {
        "latitude": 40.710512,
        "longitude": -111.880886
      },
      "endCoords": {
        "latitude": 40.774563,
        "longitude": -111.802567
      },
      "distanceMeters": 19050.9,
      "durationMs": 2652630,
      "drivingDurationMs": 2249464,
      "idlingDurationMs": 403166,
      "fuelConsumedMl": 2423,
      "fuelConsumedGallons": 0.64,
      "maxSpeedMph": 44.3,
      "averageSpeedMph": 16.1,
      "safetyEvents": [],
      "_no_driver_login": false,
      "_fuel_note": ""
    },
    {
      "id": "trip_48291024_20250507_005",
      "vehicleId": "48291024",
      "driverId": "22831023",
      "startMs": 1746601620000,
      "endMs": 1746609236932,
      "startLocation": {
        "latitude": 40.759837,
        "longitude": -111.862083
      },
      "endLocation": {
        "latitude": 40.67177,
        "longitude": -111.885783
      },
      "startAddress": "8826 Jeffrey Stream Suite 383",
      "endAddress": "611 Jessica Squares",
      "startCoords": {
        "latitude": 40.700254,
        "longitude": -111.881649
      },
      "endCoords": {
        "latitude": 40.685158,
        "longitude": -111.831092
      },
      "distanceMeters": 64339.6,
      "durationMs": 7616932,
      "drivingDurationMs": 7407152,
      "idlingDurationMs": 209781,
      "fuelConsumedMl": 8180,
      "fuelConsumedGallons": 2.161,
      "maxSpeedMph": 49.6,
      "averageSpeedMph": 18.9,
      "safetyEvents": [],
      "_no_driver_login": false,
      "_fuel_note": ""
    },
    {
      "id": "trip_48291024_20250507_006",
      "vehicleId": "48291024",
      "driverId": "22831023",
      "startMs": 1746612060000,
      "endMs": 1746620987175,
      "startLocation": {
        "latitude": 40.777923,
        "longitude": -111.906376
      },
      "endLocation": {
        "latitude": 40.722116,
        "longitude": -111.777086
      },
      "startAddress": "443 Espinoza Extensions Suite 605",
      "endAddress": "598 Elliott Locks Suite 465",
      "startCoords": {
        "latitude": 40.685224,
        "longitude": -111.810341
      },
      "endCoords": {
        "latitude": 40.712241,
        "longitude": -111.930358
      },
      "distanceMeters": 58255.8,
      "durationMs": 8927176,
      "drivingDurationMs": 7780286,
      "idlingDurationMs": 1146890,
      "fuelConsumedMl": 7408,
      "fuelConsumedGallons": 1.957,
      "maxSpeedMph": 29.6,
      "averageSpeedMph": 14.6,
      "safetyEvents": [],
      "_no_driver_login": false,
      "_fuel_note": ""
    },
    {
      "id": "trip_48291024_20250508_001",
      "vehicleId": "48291024",
      "driverId": "22831023",
      "startMs": 1746729900000,
      "endMs": 1746738000000,
      "startLocation": {
        "latitude": 40.674025,
        "longitude": -111.872497
      },
      "endLocation": {
        "latitude": 40.668553,
        "longitude": -111.814566
      },
      "startAddress": "37169 Reed Island",
      "endAddress": "17609 Mccarthy Square",
      "startCoords": {
        "latitude": 40.689656,
        "longitude": -111.808655
      },
      "endCoords": {
        "latitude": 40.691886,
        "longitude": -111.836187
      },
      "distanceMeters": 57043.6,
      "durationMs": 8100000,
      "drivingDurationMs": 7197022,
      "idlingDurationMs": 902978,
      "fuelConsumedMl": 7253,
      "fuelConsumedGallons": 1.916,
      "maxSpeedMph": 52.7,
      "averageSpeedMph": 15.8,
      "safetyEvents": [],
      "_no_driver_login": false,
      "_fuel_note": "QUIRK 5: fuelConsumedGallons is in US gallons. Multiply by 3.785 for litres. Samsara does not link fuel to specific Onfleet tasks."
    },
    {
      "id": "trip_48291024_20250508_002",
      "vehicleId": "48291024",
      "driverId": "22831023",
      "startMs": 1746728700000,
      "endMs": 1746731197440,
      "startLocation": {
        "latitude": 40.692273,
        "longitude": -111.775245
      },
      "endLocation": {
        "latitude": 40.739607,
        "longitude": -111.787035
      },
      "startAddress": "54246 Ronnie Plaza Suite 218",
      "endAddress": "06710 Leslie Lock Suite 073",
      "startCoords": {
        "latitude": 40.782519,
        "longitude": -111.931049
      },
      "endCoords": {
        "latitude": 40.739794,
        "longitude": -111.931245
      },
      "distanceMeters": 18285.9,
      "durationMs": 2497440,
      "drivingDurationMs": 2162321,
      "idlingDurationMs": 335119,
      "fuelConsumedMl": 2324,
      "fuelConsumedGallons": 0.614,
      "maxSpeedMph": 59.9,
      "averageSpeedMph": 16.4,
      "safetyEvents": [],
      "_no_driver_login": false,
      "_fuel_note": ""
    },
    {
      "id": "trip_48291024_20250508_003",
      "vehicleId": "48291024",
      "driverId": "22831023",
      "startMs": 1746701460000,
      "endMs": 1746710365807,
      "startLocation": {
        "latitude": 40.758302,
        "longitude": -111.917173
      },
      "endLocation": {
        "latitude": 40.717458,
        "longitude": -111.823314
      },
      "startAddress": "9034 Thompson Throughway Suite 361",
      "endAddress": "79511 Burns Drive",
      "startCoords": {
        "latitude": 40.716417,
        "longitude": -111.790453
      },
      "endCoords": {
        "latitude": 40.746886,
        "longitude": -111.931397
      },
      "distanceMeters": 57297.4,
      "durationMs": 8905808,
      "drivingDurationMs": 8519161,
      "idlingDurationMs": 386647,
      "fuelConsumedMl": 7283,
      "fuelConsumedGallons": 1.924,
      "maxSpeedMph": 43.7,
      "averageSpeedMph": 14.4,
      "safetyEvents": [],
      "_no_driver_login": false,
      "_fuel_note": ""
    },
    {
      "id": "trip_48291024_20250508_004",
      "vehicleId": "48291024",
      "driverId": "22831023",
      "startMs": 1746697260000,
      "endMs": 1746700513131,
      "startLocation": {
        "latitude": 40.794824,
        "longitude": -111.865551
      },
      "endLocation": {
        "latitude": 40.765608,
        "longitude": -111.777858
      },
      "startAddress": "4368 Kim Square Apt. 379",
      "endAddress": "0400 Hardy Forges",
      "startCoords": {
        "latitude": 40.711482,
        "longitude": -111.942334
      },
      "endCoords": {
        "latitude": 40.679493,
        "longitude": -111.926266
      },
      "distanceMeters": 19106.9,
      "durationMs": 3253131,
      "drivingDurationMs": 2872510,
      "idlingDurationMs": 380621,
      "fuelConsumedMl": 2430,
      "fuelConsumedGallons": 0.642,
      "maxSpeedMph": 56.9,
      "averageSpeedMph": 13.1,
      "safetyEvents": [],
      "_no_driver_login": false,
      "_fuel_note": ""
    },
    {
      "id": "trip_48291024_20250509_001",
      "vehicleId": "48291024",
      "driverId": null,
      "startMs": 1746798060000,
      "endMs": 1746800734780,
      "startLocation": {
        "latitude": 40.773351,
        "longitude": -111.942471
      },
      "endLocation": {
        "latitude": 40.701379,
        "longitude": -111.800592
      },
      "startAddress": "63798 Walter Landing",
      "endAddress": "5715 Ashley Greens Suite 926",
      "startCoords": {
        "latitude": 40.754604,
        "longitude": -111.934015
      },
      "endCoords": {
        "latitude": 40.67025,
        "longitude": -111.944757
      },
      "distanceMeters": 12844.8,
      "durationMs": 2674781,
      "drivingDurationMs": 2419644,
      "idlingDurationMs": 255137,
      "fuelConsumedMl": 1632,
      "fuelConsumedGallons": 0.431,
      "maxSpeedMph": 30.6,
      "averageSpeedMph": 10.7,
      "safetyEvents": [],
      "_no_driver_login": true,
      "_fuel_note": "QUIRK 5: fuelConsumedGallons is in US gallons. Multiply by 3.785 for litres. Samsara does not link fuel to specific Onfleet tasks."
    },
    {
      "id": "trip_48291024_20250509_002",
      "vehicleId": "48291024",
      "driverId": "22831023",
      "startMs": 1746806280000,
      "endMs": 1746815379672,
      "startLocation": {
        "latitude": 40.795248,
        "longitude": -111.874873
      },
      "endLocation": {
        "latitude": 40.771029,
        "longitude": -111.957047
      },
      "startAddress": "66970 Raymond Pass",
      "endAddress": "368 Bradley Centers Suite 741",
      "startCoords": {
        "latitude": 40.736941,
        "longitude": -111.848574
      },
      "endCoords": {
        "latitude": 40.758581,
        "longitude": -111.930967
      },
      "distanceMeters": 71953.3,
      "durationMs": 9099672,
      "drivingDurationMs": 8533549,
      "idlingDurationMs": 566123,
      "fuelConsumedMl": 9149,
      "fuelConsumedGallons": 2.417,
      "maxSpeedMph": 31.8,
      "averageSpeedMph": 17.7,
      "safetyEvents": [],
      "_no_driver_login": false,
      "_fuel_note": ""
    },
    {
      "id": "trip_48291024_20250509_003",
      "vehicleId": "48291024",
      "driverId": "22831023",
      "startMs": 1746783780000,
      "endMs": 1746793986000,
      "startLocation": {
        "latitude": 40.678378,
        "longitude": -111.947624
      },
      "endLocation": {
        "latitude": 40.773718,
        "longitude": -111.814563
      },
      "startAddress": "784 Savage Squares Apt. 760",
      "endAddress": "7327 Holmes Ville",
      "startCoords": {
        "latitude": 40.790754,
        "longitude": -111.838036
      },
      "endCoords": {
        "latitude": 40.772104,
        "longitude": -111.879972
      },
      "distanceMeters": 49868.1,
      "durationMs": 10206001,
      "drivingDurationMs": 8803863,
      "idlingDurationMs": 1402138,
      "fuelConsumedMl": 6341,
      "fuelConsumedGallons": 1.675,
      "maxSpeedMph": 38.3,
      "averageSpeedMph": 10.9,
      "safetyEvents": [],
      "_no_driver_login": false,
      "_fuel_note": ""
    },
    {
      "id": "trip_48291024_20250509_004",
      "vehicleId": "48291024",
      "driverId": "22831023",
      "startMs": 1746813540000,
      "endMs": 1746819414451,
      "startLocation": {
        "latitude": 40.69667,
        "longitude": -111.91791
      },
      "endLocation": {
        "latitude": 40.68199,
        "longitude": -111.913219
      },
      "startAddress": "45664 Samuel Lights Suite 426",
      "endAddress": "81515 Lauren Crossing",
      "startCoords": {
        "latitude": 40.761395,
        "longitude": -111.897532
      },
      "endCoords": {
        "latitude": 40.745382,
        "longitude": -111.784754
      },
      "distanceMeters": 36088.3,
      "durationMs": 5874452,
      "drivingDurationMs": 4887181,
      "idlingDurationMs": 987271,
      "fuelConsumedMl": 4588,
      "fuelConsumedGallons": 1.212,
      "maxSpeedMph": 30.1,
      "averageSpeedMph": 13.7,
      "safetyEvents": [],
      "_no_driver_login": false,
      "_fuel_note": ""
    },
    {
      "id": "trip_48291024_20250509_005",
      "vehicleId": "48291024",
      "driverId": "22831023",
      "startMs": 1746773760000,
      "endMs": 1746783993936,
      "startLocation": {
        "latitude": 40.701644,
        "longitude": -111.928853
      },
      "endLocation": {
        "latitude": 40.663343,
        "longitude": -111.934254
      },
      "startAddress": "487 Elijah Pine Suite 189",
      "endAddress": "81057 Mendoza Rapids",
      "startCoords": {
        "latitude": 40.798218,
        "longitude": -111.91229
      },
      "endCoords": {
        "latitude": 40.706691,
        "longitude": -111.938547
      },
      "distanceMeters": 61223.0,
      "durationMs": 10233937,
      "drivingDurationMs": 8940587,
      "idlingDurationMs": 1293349,
      "fuelConsumedMl": 7783,
      "fuelConsumedGallons": 2.056,
      "maxSpeedMph": 44.5,
      "averageSpeedMph": 13.4,
      "safetyEvents": [],
      "_no_driver_login": false,
      "_fuel_note": ""
    },
    {
      "id": "trip_48291024_20250509_006",
      "vehicleId": "48291024",
      "driverId": "22831023",
      "startMs": 1746784440000,
      "endMs": 1746789227158,
      "startLocation": {
        "latitude": 40.765307,
        "longitude": -111.936507
      },
      "endLocation": {
        "latitude": 40.721182,
        "longitude": -111.956054
      },
      "startAddress": "054 Johnson Camp Suite 312",
      "endAddress": "258 Melissa Land Apt. 751",
      "startCoords": {
        "latitude": 40.711409,
        "longitude": -111.856992
      },
      "endCoords": {
        "latitude": 40.729266,
        "longitude": -111.873299
      },
      "distanceMeters": 30216.0,
      "durationMs": 4787159,
      "drivingDurationMs": 4110110,
      "idlingDurationMs": 677049,
      "fuelConsumedMl": 3842,
      "fuelConsumedGallons": 1.015,
      "maxSpeedMph": 43.8,
      "averageSpeedMph": 14.1,
      "safetyEvents": [],
      "_no_driver_login": false,
      "_fuel_note": ""
    },
    {
      "id": "trip_48291024_20250510_001",
      "vehicleId": "48291024",
      "driverId": "22831023",
      "startMs": 1746886320000,
      "endMs": 1746889759528,
      "startLocation": {
        "latitude": 40.706857,
        "longitude": -111.824073
      },
      "endLocation": {
        "latitude": 40.725193,
        "longitude": -111.957945
      },
      "startAddress": "25013 Robert Lights Apt. 696",
      "endAddress": "00553 Sherry Rapids",
      "startCoords": {
        "latitude": 40.758946,
        "longitude": -111.904464
      },
      "endCoords": {
        "latitude": 40.667094,
        "longitude": -111.961193
      },
      "distanceMeters": 20449.7,
      "durationMs": 3439528,
      "drivingDurationMs": 2887364,
      "idlingDurationMs": 552165,
      "fuelConsumedMl": 2601,
      "fuelConsumedGallons": 0.687,
      "maxSpeedMph": 53.0,
      "averageSpeedMph": 13.3,
      "safetyEvents": [],
      "_no_driver_login": false,
      "_fuel_note": "QUIRK 5: fuelConsumedGallons is in US gallons. Multiply by 3.785 for litres. Samsara does not link fuel to specific Onfleet tasks."
    },
    {
      "id": "trip_48291024_20250510_002",
      "vehicleId": "48291024",
      "driverId": "22831023",
      "startMs": 1746868980000,
      "endMs": 1746871092923,
      "startLocation": {
        "latitude": 40.769751,
        "longitude": -111.778828
      },
      "endLocation": {
        "latitude": 40.708097,
        "longitude": -111.776453
      },
      "startAddress": "5438 Brett Plains",
      "endAddress": "52062 Lopez Groves Suite 153",
      "startCoords": {
        "latitude": 40.664608,
        "longitude": -111.919665
      },
      "endCoords": {
        "latitude": 40.788699,
        "longitude": -111.795928
      },
      "distanceMeters": 11680.2,
      "durationMs": 2112924,
      "drivingDurationMs": 1861095,
      "idlingDurationMs": 251828,
      "fuelConsumedMl": 1484,
      "fuelConsumedGallons": 0.392,
      "maxSpeedMph": 54.0,
      "averageSpeedMph": 12.4,
      "safetyEvents": [],
      "_no_driver_login": false,
      "_fuel_note": ""
    },
    {
      "id": "trip_48291024_20250510_003",
      "vehicleId": "48291024",
      "driverId": "22831023",
      "startMs": 1746901200000,
      "endMs": 1746910800000,
      "startLocation": {
        "latitude": 40.685145,
        "longitude": -111.858426
      },
      "endLocation": {
        "latitude": 40.791278,
        "longitude": -111.905682
      },
      "startAddress": "1410 Taylor Mountains Suite 892",
      "endAddress": "0988 Franklin Dam Apt. 940",
      "startCoords": {
        "latitude": 40.669889,
        "longitude": -111.916305
      },
      "endCoords": {
        "latitude": 40.795536,
        "longitude": -111.795318
      },
      "distanceMeters": 55268.0,
      "durationMs": 9600000,
      "drivingDurationMs": 8967292,
      "idlingDurationMs": 632708,
      "fuelConsumedMl": 7026,
      "fuelConsumedGallons": 1.856,
      "maxSpeedMph": 70.9,
      "averageSpeedMph": 12.9,
      "safetyEvents": [
        {
          "type": "speeding",
          "startMs": 1746910500000,
          "maxSpeedMph": 70.9
        }
      ],
      "_no_driver_login": false,
      "_fuel_note": ""
    },
    {
      "id": "trip_48291024_20250510_004",
      "vehicleId": "48291024",
      "driverId": "22831023",
      "startMs": 1746857460000,
      "endMs": 1746861731400,
      "startLocation": {
        "latitude": 40.789083,
        "longitude": -111.831153
      },
      "endLocation": {
        "latitude": 40.767147,
        "longitude": -111.805549
      },
      "startAddress": "91940 Jessica Extension",
      "endAddress": "67630 Jesse Knolls Suite 320",
      "startCoords": {
        "latitude": 40.678418,
        "longitude": -111.92982
      },
      "endCoords": {
        "latitude": 40.670934,
        "longitude": -111.877012
      },
      "distanceMeters": 22949.9,
      "durationMs": 4271400,
      "drivingDurationMs": 3692017,
      "idlingDurationMs": 579383,
      "fuelConsumedMl": 2919,
      "fuelConsumedGallons": 0.771,
      "maxSpeedMph": 29.3,
      "averageSpeedMph": 12.0,
      "safetyEvents": [],
      "_no_driver_login": false,
      "_fuel_note": ""
    },
    {
      "id": "trip_48291024_20250511_001",
      "vehicleId": "48291024",
      "driverId": "22831023",
      "startMs": 1746988680000,
      "endMs": 1746997200000,
      "startLocation": {
        "latitude": 40.658774,
        "longitude": -111.956338
      },
      "endLocation": {
        "latitude": 40.74721,
        "longitude": -111.893
      },
      "startAddress": "6344 Williams Meadow",
      "endAddress": "6871 Vaughan Radial Suite 746",
      "startCoords": {
        "latitude": 40.749852,
        "longitude": -111.859075
      },
      "endCoords": {
        "latitude": 40.752817,
        "longitude": -111.909645
      },
      "distanceMeters": 45153.4,
      "durationMs": 8520000,
      "drivingDurationMs": 7105925,
      "idlingDurationMs": 1414075,
      "fuelConsumedMl": 5742,
      "fuelConsumedGallons": 1.517,
      "maxSpeedMph": 65.7,
      "averageSpeedMph": 11.9,
      "safetyEvents": [
        {
          "type": "speeding",
          "startMs": 1746996480000,
          "maxSpeedMph": 65.7
        }
      ],
      "_no_driver_login": false,
      "_fuel_note": "QUIRK 5: fuelConsumedGallons is in US gallons. Multiply by 3.785 for litres. Samsara does not link fuel to specific Onfleet tasks."
    },
    {
      "id": "trip_48291024_20250511_002",
      "vehicleId": "48291024",
      "driverId": "22831023",
      "startMs": 1746977820000,
      "endMs": 1746979762675,
      "startLocation": {
        "latitude": 40.70151,
        "longitude": -111.816144
      },
      "endLocation": {
        "latitude": 40.749142,
        "longitude": -111.918905
      },
      "startAddress": "864 Alan Inlet Apt. 293",
      "endAddress": "61779 Kathleen Plains Apt. 589",
      "startCoords": {
        "latitude": 40.795046,
        "longitude": -111.804118
      },
      "endCoords": {
        "latitude": 40.668594,
        "longitude": -111.817613
      },
      "distanceMeters": 9886.5,
      "durationMs": 1942676,
      "drivingDurationMs": 1740943,
      "idlingDurationMs": 201733,
      "fuelConsumedMl": 1257,
      "fuelConsumedGallons": 0.332,
      "maxSpeedMph": 61.4,
      "averageSpeedMph": 11.4,
      "safetyEvents": [],
      "_no_driver_login": false,
      "_fuel_note": ""
    },
    {
      "id": "trip_48291024_20250512_001",
      "vehicleId": "48291024",
      "driverId": "22831023",
      "startMs": 1747056360000,
      "endMs": 1747069311036,
      "startLocation": {
        "latitude": 40.689502,
        "longitude": -111.810089
      },
      "endLocation": {
        "latitude": 40.727537,
        "longitude": -111.852915
      },
      "startAddress": "105 Ellis Path Suite 465",
      "endAddress": "985 Mcbride Causeway Suite 372",
      "startCoords": {
        "latitude": 40.751888,
        "longitude": -111.798368
      },
      "endCoords": {
        "latitude": 40.731076,
        "longitude": -111.873439
      },
      "distanceMeters": 77088.4,
      "durationMs": 12951037,
      "drivingDurationMs": 11187305,
      "idlingDurationMs": 1763732,
      "fuelConsumedMl": 9800,
      "fuelConsumedGallons": 2.589,
      "maxSpeedMph": 32.3,
      "averageSpeedMph": 13.3,
      "safetyEvents": [],
      "_no_driver_login": false,
      "_fuel_note": "QUIRK 5: fuelConsumedGallons is in US gallons. Multiply by 3.785 for litres. Samsara does not link fuel to specific Onfleet tasks."
    },
    {
      "id": "trip_48291024_20250512_002",
      "vehicleId": "48291024",
      "driverId": "22831023",
      "startMs": 1747062180000,
      "endMs": 1747064400505,
      "startLocation": {
        "latitude": 40.722984,
        "longitude": -111.782746
      },
      "endLocation": {
        "latitude": 40.787145,
        "longitude": -111.896033
      },
      "startAddress": "728 Kristin Parkway",
      "endAddress": "2202 David Stream Apt. 791",
      "startCoords": {
        "latitude": 40.762718,
        "longitude": -111.91032
      },
      "endCoords": {
        "latitude": 40.732011,
        "longitude": -111.878035
      },
      "distanceMeters": 11487.0,
      "durationMs": 2220505,
      "drivingDurationMs": 1924323,
      "idlingDurationMs": 296182,
      "fuelConsumedMl": 1461,
      "fuelConsumedGallons": 0.386,
      "maxSpeedMph": 30.2,
      "averageSpeedMph": 11.6,
      "safetyEvents": [],
      "_no_driver_login": false,
      "_fuel_note": ""
    },
    {
      "id": "trip_48291024_20250512_003",
      "vehicleId": "48291024",
      "driverId": "22831023",
      "startMs": 1747032060000,
      "endMs": 1747033658415,
      "startLocation": {
        "latitude": 40.667466,
        "longitude": -111.914359
      },
      "endLocation": {
        "latitude": 40.73661,
        "longitude": -111.959916
      },
      "startAddress": "0669 Jenkins Avenue Suite 816",
      "endAddress": "17963 Michael Tunnel",
      "startCoords": {
        "latitude": 40.73138,
        "longitude": -111.774581
      },
      "endCoords": {
        "latitude": 40.795929,
        "longitude": -111.927554
      },
      "distanceMeters": 10151.4,
      "durationMs": 1598416,
      "drivingDurationMs": 1315126,
      "idlingDurationMs": 283290,
      "fuelConsumedMl": 1291,
      "fuelConsumedGallons": 0.341,
      "maxSpeedMph": 63.4,
      "averageSpeedMph": 14.2,
      "safetyEvents": [],
      "_no_driver_login": false,
      "_fuel_note": ""
    },
    {
      "id": "trip_48291024_20250512_004",
      "vehicleId": "48291024",
      "driverId": "22831023",
      "startMs": 1747049280000,
      "endMs": 1747053962361,
      "startLocation": {
        "latitude": 40.745048,
        "longitude": -111.950883
      },
      "endLocation": {
        "latitude": 40.71481,
        "longitude": -111.839837
      },
      "startAddress": "328 Pamela Villages",
      "endAddress": "72009 Bean Mountain Apt. 337",
      "startCoords": {
        "latitude": 40.727447,
        "longitude": -111.78763
      },
      "endCoords": {
        "latitude": 40.74814,
        "longitude": -111.865066
      },
      "distanceMeters": 22673.9,
      "durationMs": 4682361,
      "drivingDurationMs": 4101326,
      "idlingDurationMs": 581035,
      "fuelConsumedMl": 2884,
      "fuelConsumedGallons": 0.762,
      "maxSpeedMph": 37.2,
      "averageSpeedMph": 10.8,
      "safetyEvents": [],
      "_no_driver_login": false,
      "_fuel_note": ""
    },
    {
      "id": "trip_48291024_20250512_005",
      "vehicleId": "48291024",
      "driverId": "22831023",
      "startMs": 1747067580000,
      "endMs": 1747079280870,
      "startLocation": {
        "latitude": 40.757157,
        "longitude": -111.779432
      },
      "endLocation": {
        "latitude": 40.682769,
        "longitude": -111.842814
      },
      "startAddress": "003 Mendoza Spring",
      "endAddress": "1951 Smith Well",
      "startCoords": {
        "latitude": 40.793891,
        "longitude": -111.931002
      },
      "endCoords": {
        "latitude": 40.665473,
        "longitude": -111.829221
      },
      "distanceMeters": 81559.1,
      "durationMs": 11700870,
      "drivingDurationMs": 10099575,
      "idlingDurationMs": 1601295,
      "fuelConsumedMl": 10368,
      "fuelConsumedGallons": 2.739,
      "maxSpeedMph": 54.7,
      "averageSpeedMph": 15.6,
      "safetyEvents": [],
      "_no_driver_login": false,
      "_fuel_note": ""
    },
    {
      "id": "trip_48291024_20250513_001",
      "vehicleId": "48291024",
      "driverId": "22831023",
      "startMs": 1747157160000,
      "endMs": 1747168552308,
      "startLocation": {
        "latitude": 40.772725,
        "longitude": -111.792579
      },
      "endLocation": {
        "latitude": 40.706256,
        "longitude": -111.886432
      },
      "startAddress": "9607 Sandra Meadows",
      "endAddress": "7608 Stanton Trafficway Apt. 347",
      "startCoords": {
        "latitude": 40.741585,
        "longitude": -111.934929
      },
      "endCoords": {
        "latitude": 40.769136,
        "longitude": -111.870767
      },
      "distanceMeters": 71961.5,
      "durationMs": 11392308,
      "drivingDurationMs": 9773878,
      "idlingDurationMs": 1618430,
      "fuelConsumedMl": 9149,
      "fuelConsumedGallons": 2.417,
      "maxSpeedMph": 55.0,
      "averageSpeedMph": 14.1,
      "safetyEvents": [],
      "_no_driver_login": false,
      "_fuel_note": "QUIRK 5: fuelConsumedGallons is in US gallons. Multiply by 3.785 for litres. Samsara does not link fuel to specific Onfleet tasks."
    },
    {
      "id": "trip_48291024_20250513_002",
      "vehicleId": "48291024",
      "driverId": "22831023",
      "startMs": 1747150080000,
      "endMs": 1747159009660,
      "startLocation": {
        "latitude": 40.720529,
        "longitude": -111.840954
      },
      "endLocation": {
        "latitude": 40.780279,
        "longitude": -111.89941
      },
      "startAddress": "127 Melinda Parkway Apt. 092",
      "endAddress": "888 Wilson Mountains Suite 300",
      "startCoords": {
        "latitude": 40.743923,
        "longitude": -111.79246
      },
      "endCoords": {
        "latitude": 40.763189,
        "longitude": -111.905863
      },
      "distanceMeters": 69305.4,
      "durationMs": 8929661,
      "drivingDurationMs": 8397334,
      "idlingDurationMs": 532327,
      "fuelConsumedMl": 8812,
      "fuelConsumedGallons": 2.328,
      "maxSpeedMph": 45.2,
      "averageSpeedMph": 17.4,
      "safetyEvents": [],
      "_no_driver_login": false,
      "_fuel_note": ""
    },
    {
      "id": "trip_48291024_20250514_001",
      "vehicleId": "48291024",
      "driverId": "22831023",
      "startMs": 1747241640000,
      "endMs": 1747246011791,
      "startLocation": {
        "latitude": 40.702051,
        "longitude": -111.776876
      },
      "endLocation": {
        "latitude": 40.719231,
        "longitude": -111.795287
      },
      "startAddress": "77056 Hill Spurs Apt. 308",
      "endAddress": "7281 Allison Hollow Suite 312",
      "startCoords": {
        "latitude": 40.751279,
        "longitude": -111.870068
      },
      "endCoords": {
        "latitude": 40.69025,
        "longitude": -111.860709
      },
      "distanceMeters": 24077.6,
      "durationMs": 4371792,
      "drivingDurationMs": 3813856,
      "idlingDurationMs": 557936,
      "fuelConsumedMl": 3062,
      "fuelConsumedGallons": 0.809,
      "maxSpeedMph": 45.3,
      "averageSpeedMph": 12.3,
      "safetyEvents": [],
      "_no_driver_login": false,
      "_fuel_note": "QUIRK 5: fuelConsumedGallons is in US gallons. Multiply by 3.785 for litres. Samsara does not link fuel to specific Onfleet tasks."
    },
    {
      "id": "trip_48291024_20250514_002",
      "vehicleId": "48291024",
      "driverId": "22831023",
      "startMs": 1747232520000,
      "endMs": 1747235787892,
      "startLocation": {
        "latitude": 40.756645,
        "longitude": -111.781442
      },
      "endLocation": {
        "latitude": 40.704863,
        "longitude": -111.912189
      },
      "startAddress": "58044 Green Junctions Apt. 334",
      "endAddress": "519 Brown Mills Apt. 863",
      "startCoords": {
        "latitude": 40.789952,
        "longitude": -111.897037
      },
      "endCoords": {
        "latitude": 40.689772,
        "longitude": -111.785225
      },
      "distanceMeters": 16428.2,
      "durationMs": 3267893,
      "drivingDurationMs": 3072140,
      "idlingDurationMs": 195753,
      "fuelConsumedMl": 2090,
      "fuelConsumedGallons": 0.552,
      "maxSpeedMph": 61.6,
      "averageSpeedMph": 11.2,
      "safetyEvents": [],
      "_no_driver_login": false,
      "_fuel_note": ""
    },
    {
      "id": "trip_48291024_20250514_003",
      "vehicleId": "48291024",
      "driverId": "22831023",
      "startMs": 1747226460000,
      "endMs": 1747233568170,
      "startLocation": {
        "latitude": 40.752628,
        "longitude": -111.790965
      },
      "endLocation": {
        "latitude": 40.662665,
        "longitude": -111.782466
      },
      "startAddress": "4588 Kristy Knoll Suite 974",
      "endAddress": "588 Brown Stream",
      "startCoords": {
        "latitude": 40.734123,
        "longitude": -111.810109
      },
      "endCoords": {
        "latitude": 40.660504,
        "longitude": -111.861129
      },
      "distanceMeters": 33591.2,
      "durationMs": 7108171,
      "drivingDurationMs": 5879156,
      "idlingDurationMs": 1229015,
      "fuelConsumedMl": 4270,
      "fuelConsumedGallons": 1.128,
      "maxSpeedMph": 69.5,
      "averageSpeedMph": 10.6,
      "safetyEvents": [
        {
          "type": "speeding",
          "startMs": 1747230300000,
          "maxSpeedMph": 69.5
        }
      ],
      "_no_driver_login": false,
      "_fuel_note": ""
    },
    {
      "id": "trip_48291024_20250515_001",
      "vehicleId": "48291024",
      "driverId": "22831023",
      "startMs": 1747324500000,
      "endMs": 1747328400358,
      "startLocation": {
        "latitude": 40.738644,
        "longitude": -111.856966
      },
      "endLocation": {
        "latitude": 40.680834,
        "longitude": -111.841032
      },
      "startAddress": "710 Ashley Flats",
      "endAddress": "569 Mosley Via Apt. 284",
      "startCoords": {
        "latitude": 40.741469,
        "longitude": -111.830321
      },
      "endCoords": {
        "latitude": 40.664042,
        "longitude": -111.858789
      },
      "distanceMeters": 24456.1,
      "durationMs": 3900358,
      "drivingDurationMs": 3600328,
      "idlingDurationMs": 300031,
      "fuelConsumedMl": 3108,
      "fuelConsumedGallons": 0.821,
      "maxSpeedMph": 62.4,
      "averageSpeedMph": 14.0,
      "safetyEvents": [],
      "_no_driver_login": false,
      "_fuel_note": "QUIRK 5: fuelConsumedGallons is in US gallons. Multiply by 3.785 for litres. Samsara does not link fuel to specific Onfleet tasks."
    },
    {
      "id": "trip_48291024_20250515_002",
      "vehicleId": "48291024",
      "driverId": "22831023",
      "startMs": 1747295700000,
      "endMs": 1747297692950,
      "startLocation": {
        "latitude": 40.715451,
        "longitude": -111.856877
      },
      "endLocation": {
        "latitude": 40.73609,
        "longitude": -111.902472
      },
      "startAddress": "330 Hall Hollow Apt. 692",
      "endAddress": "2134 Jacqueline Ports Apt. 370",
      "startCoords": {
        "latitude": 40.673984,
        "longitude": -111.826822
      },
      "endCoords": {
        "latitude": 40.666165,
        "longitude": -111.80773
      },
      "distanceMeters": 13790.3,
      "durationMs": 1992950,
      "drivingDurationMs": 1707040,
      "idlingDurationMs": 285910,
      "fuelConsumedMl": 1753,
      "fuelConsumedGallons": 0.463,
      "maxSpeedMph": 56.2,
      "averageSpeedMph": 15.5,
      "safetyEvents": [],
      "_no_driver_login": false,
      "_fuel_note": ""
    },
    {
      "id": "trip_48291024_20250516_001",
      "vehicleId": "48291024",
      "driverId": null,
      "startMs": 1747410720000,
      "endMs": 1747414317278,
      "startLocation": {
        "latitude": 40.762561,
        "longitude": -111.821703
      },
      "endLocation": {
        "latitude": 40.714573,
        "longitude": -111.918028
      },
      "startAddress": "35999 Foster Falls",
      "endAddress": "6082 Harris Turnpike Apt. 909",
      "startCoords": {
        "latitude": 40.737872,
        "longitude": -111.827429
      },
      "endCoords": {
        "latitude": 40.702052,
        "longitude": -111.872284
      },
      "distanceMeters": 23096.2,
      "durationMs": 3597279,
      "drivingDurationMs": 3221304,
      "idlingDurationMs": 375975,
      "fuelConsumedMl": 2937,
      "fuelConsumedGallons": 0.776,
      "maxSpeedMph": 42.4,
      "averageSpeedMph": 14.4,
      "safetyEvents": [],
      "_no_driver_login": true,
      "_fuel_note": "QUIRK 5: fuelConsumedGallons is in US gallons. Multiply by 3.785 for litres. Samsara does not link fuel to specific Onfleet tasks."
    },
    {
      "id": "trip_48291024_20250516_002",
      "vehicleId": "48291024",
      "driverId": "22831023",
      "startMs": 1747378260000,
      "endMs": 1747391919177,
      "startLocation": {
        "latitude": 40.690597,
        "longitude": -111.946201
      },
      "endLocation": {
        "latitude": 40.752398,
        "longitude": -111.938833
      },
      "startAddress": "25949 Smith Falls Suite 483",
      "endAddress": "187 Kimberly Key Suite 456",
      "startCoords": {
        "latitude": 40.703402,
        "longitude": -111.904195
      },
      "endCoords": {
        "latitude": 40.79735,
        "longitude": -111.835139
      },
      "distanceMeters": 81606.1,
      "durationMs": 13659177,
      "drivingDurationMs": 13301722,
      "idlingDurationMs": 357456,
      "fuelConsumedMl": 10376,
      "fuelConsumedGallons": 2.741,
      "maxSpeedMph": 59.8,
      "averageSpeedMph": 13.4,
      "safetyEvents": [],
      "_no_driver_login": false,
      "_fuel_note": ""
    },
    {
      "id": "trip_48291024_20250516_003",
      "vehicleId": "48291024",
      "driverId": "22831023",
      "startMs": 1747376580000,
      "endMs": 1747379141278,
      "startLocation": {
        "latitude": 40.777732,
        "longitude": -111.904489
      },
      "endLocation": {
        "latitude": 40.78743,
        "longitude": -111.88014
      },
      "startAddress": "846 Peter Mills Suite 052",
      "endAddress": "1688 Jacqueline Causeway",
      "startCoords": {
        "latitude": 40.710379,
        "longitude": -111.927404
      },
      "endCoords": {
        "latitude": 40.694963,
        "longitude": -111.845042
      },
      "distanceMeters": 12822.2,
      "durationMs": 2561278,
      "drivingDurationMs": 2253178,
      "idlingDurationMs": 308100,
      "fuelConsumedMl": 1632,
      "fuelConsumedGallons": 0.431,
      "maxSpeedMph": 59.4,
      "averageSpeedMph": 11.2,
      "safetyEvents": [],
      "_no_driver_login": false,
      "_fuel_note": ""
    },
    {
      "id": "trip_48291024_20250517_001",
      "vehicleId": "48291024",
      "driverId": "22831023",
      "startMs": 1747505400000,
      "endMs": 1747515600000,
      "startLocation": {
        "latitude": 40.663502,
        "longitude": -111.884857
      },
      "endLocation": {
        "latitude": 40.743873,
        "longitude": -111.833139
      },
      "startAddress": "147 Mcgrath Rapids",
      "endAddress": "0243 Williams Mission Suite 845",
      "startCoords": {
        "latitude": 40.660771,
        "longitude": -111.904205
      },
      "endCoords": {
        "latitude": 40.72047,
        "longitude": -111.81095
      },
      "distanceMeters": 49302.3,
      "durationMs": 10200000,
      "drivingDurationMs": 8852843,
      "idlingDurationMs": 1347157,
      "fuelConsumedMl": 6269,
      "fuelConsumedGallons": 1.656,
      "maxSpeedMph": 71.3,
      "averageSpeedMph": 10.8,
      "safetyEvents": [
        {
          "type": "speeding",
          "startMs": 1747511640000,
          "maxSpeedMph": 71.3
        }
      ],
      "_no_driver_login": false,
      "_fuel_note": "QUIRK 5: fuelConsumedGallons is in US gallons. Multiply by 3.785 for litres. Samsara does not link fuel to specific Onfleet tasks."
    },
    {
      "id": "trip_48291024_20250517_002",
      "vehicleId": "48291024",
      "driverId": "22831023",
      "startMs": 1747475880000,
      "endMs": 1747489457144,
      "startLocation": {
        "latitude": 40.686081,
        "longitude": -111.928346
      },
      "endLocation": {
        "latitude": 40.731139,
        "longitude": -111.838545
      },
      "startAddress": "8261 Stephanie Fort",
      "endAddress": "96809 Jeffrey Fort Apt. 464",
      "startCoords": {
        "latitude": 40.668096,
        "longitude": -111.870343
      },
      "endCoords": {
        "latitude": 40.785433,
        "longitude": -111.878473
      },
      "distanceMeters": 71702.5,
      "durationMs": 13577144,
      "drivingDurationMs": 12842880,
      "idlingDurationMs": 734264,
      "fuelConsumedMl": 9115,
      "fuelConsumedGallons": 2.408,
      "maxSpeedMph": 39.2,
      "averageSpeedMph": 11.8,
      "safetyEvents": [],
      "_no_driver_login": false,
      "_fuel_note": ""
    },
    {
      "id": "trip_48291024_20250518_001",
      "vehicleId": "48291024",
      "driverId": "22831023",
      "startMs": 1747561560000,
      "endMs": 1747563282840,
      "startLocation": {
        "latitude": 40.796755,
        "longitude": -111.914523
      },
      "endLocation": {
        "latitude": 40.706241,
        "longitude": -111.901435
      },
      "startAddress": "5106 Lori Mill",
      "endAddress": "780 Cathy Rest Apt. 311",
      "startCoords": {
        "latitude": 40.696282,
        "longitude": -111.920365
      },
      "endCoords": {
        "latitude": 40.738761,
        "longitude": -111.93464
      },
      "distanceMeters": 7716.9,
      "durationMs": 1722840,
      "drivingDurationMs": 1386357,
      "idlingDurationMs": 336483,
      "fuelConsumedMl": 980,
      "fuelConsumedGallons": 0.259,
      "maxSpeedMph": 60.3,
      "averageSpeedMph": 10.0,
      "safetyEvents": [],
      "_no_driver_login": false,
      "_fuel_note": "QUIRK 5: fuelConsumedGallons is in US gallons. Multiply by 3.785 for litres. Samsara does not link fuel to specific Onfleet tasks."
    },
    {
      "id": "trip_48291024_20250519_001",
      "vehicleId": "48291024",
      "driverId": "22831023",
      "startMs": 1747645380000,
      "endMs": 1747651088178,
      "startLocation": {
        "latitude": 40.730517,
        "longitude": -111.833886
      },
      "endLocation": {
        "latitude": 40.690965,
        "longitude": -111.82972
      },
      "startAddress": "311 Johnson Key Apt. 417",
      "endAddress": "14662 Jones Cliff Suite 477",
      "startCoords": {
        "latitude": 40.727084,
        "longitude": -111.816029
      },
      "endCoords": {
        "latitude": 40.714048,
        "longitude": -111.936217
      },
      "distanceMeters": 39923.5,
      "durationMs": 5708178,
      "drivingDurationMs": 4816765,
      "idlingDurationMs": 891414,
      "fuelConsumedMl": 5076,
      "fuelConsumedGallons": 1.341,
      "maxSpeedMph": 63.9,
      "averageSpeedMph": 15.6,
      "safetyEvents": [],
      "_no_driver_login": false,
      "_fuel_note": "QUIRK 5: fuelConsumedGallons is in US gallons. Multiply by 3.785 for litres. Samsara does not link fuel to specific Onfleet tasks."
    },
    {
      "id": "trip_48291024_20250519_002",
      "vehicleId": "48291024",
      "driverId": "22831023",
      "startMs": 1747648980000,
      "endMs": 1747658922127,
      "startLocation": {
        "latitude": 40.791383,
        "longitude": -111.785648
      },
      "endLocation": {
        "latitude": 40.732238,
        "longitude": -111.91465
      },
      "startAddress": "6173 Ashley Branch Apt. 285",
      "endAddress": "764 Adrian Glens",
      "startCoords": {
        "latitude": 40.679622,
        "longitude": -111.898875
      },
      "endCoords": {
        "latitude": 40.677224,
        "longitude": -111.786849
      },
      "distanceMeters": 69936.1,
      "durationMs": 9942128,
      "drivingDurationMs": 8076125,
      "idlingDurationMs": 1866002,
      "fuelConsumedMl": 8892,
      "fuelConsumedGallons": 2.349,
      "maxSpeedMph": 49.8,
      "averageSpeedMph": 15.7,
      "safetyEvents": [],
      "_no_driver_login": false,
      "_fuel_note": ""
    },
    {
      "id": "trip_48291024_20250519_003",
      "vehicleId": "48291024",
      "driverId": "22831023",
      "startMs": 1747652160000,
      "endMs": 1747664939375,
      "startLocation": {
        "latitude": 40.6627,
        "longitude": -111.81176
      },
      "endLocation": {
        "latitude": 40.665246,
        "longitude": -111.868582
      },
      "startAddress": "44159 Kaitlyn Underpass",
      "endAddress": "60770 Nicholas Heights Suite 972",
      "startCoords": {
        "latitude": 40.794939,
        "longitude": -111.831688
      },
      "endCoords": {
        "latitude": 40.707288,
        "longitude": -111.812722
      },
      "distanceMeters": 71225.7,
      "durationMs": 12779376,
      "drivingDurationMs": 10542529,
      "idlingDurationMs": 2236847,
      "fuelConsumedMl": 9055,
      "fuelConsumedGallons": 2.392,
      "maxSpeedMph": 71.8,
      "averageSpeedMph": 12.5,
      "safetyEvents": [
        {
          "type": "speeding",
          "startMs": 1747655220000,
          "maxSpeedMph": 71.8
        }
      ],
      "_no_driver_login": false,
      "_fuel_note": ""
    },
    {
      "id": "trip_48291024_20250519_004",
      "vehicleId": "48291024",
      "driverId": "22831023",
      "startMs": 1747653960000,
      "endMs": 1747669597360,
      "startLocation": {
        "latitude": 40.676398,
        "longitude": -111.808903
      },
      "endLocation": {
        "latitude": 40.768541,
        "longitude": -111.886512
      },
      "startAddress": "8283 Kristina Lake",
      "endAddress": "0664 Marissa Island Apt. 231",
      "startCoords": {
        "latitude": 40.799038,
        "longitude": -111.876028
      },
      "endCoords": {
        "latitude": 40.688956,
        "longitude": -111.91737
      },
      "distanceMeters": 77384.4,
      "durationMs": 15637360,
      "drivingDurationMs": 12676736,
      "idlingDurationMs": 2960624,
      "fuelConsumedMl": 9838,
      "fuelConsumedGallons": 2.599,
      "maxSpeedMph": 56.3,
      "averageSpeedMph": 11.1,
      "safetyEvents": [],
      "_no_driver_login": false,
      "_fuel_note": ""
    },
    {
      "id": "trip_48291024_20250519_005",
      "vehicleId": "48291024",
      "driverId": "22831023",
      "startMs": 1747637460000,
      "endMs": 1747649921850,
      "startLocation": {
        "latitude": 40.787143,
        "longitude": -111.820587
      },
      "endLocation": {
        "latitude": 40.72146,
        "longitude": -111.783046
      },
      "startAddress": "5605 Davis Port Suite 210",
      "endAddress": "76431 Nelson Tunnel Apt. 507",
      "startCoords": {
        "latitude": 40.777399,
        "longitude": -111.885742
      },
      "endCoords": {
        "latitude": 40.793301,
        "longitude": -111.915431
      },
      "distanceMeters": 64681.3,
      "durationMs": 12461850,
      "drivingDurationMs": 11321887,
      "idlingDurationMs": 1139964,
      "fuelConsumedMl": 8222,
      "fuelConsumedGallons": 2.172,
      "maxSpeedMph": 33.4,
      "averageSpeedMph": 11.6,
      "safetyEvents": [],
      "_no_driver_login": false,
      "_fuel_note": ""
    },
    {
      "id": "trip_48291024_20250519_006",
      "vehicleId": "48291024",
      "driverId": "22831023",
      "startMs": 1747645620000,
      "endMs": 1747654061386,
      "startLocation": {
        "latitude": 40.787942,
        "longitude": -111.800086
      },
      "endLocation": {
        "latitude": 40.767566,
        "longitude": -111.798189
      },
      "startAddress": "287 Holly Mills Suite 503",
      "endAddress": "0270 Joseph Overpass",
      "startCoords": {
        "latitude": 40.749394,
        "longitude": -111.775077
      },
      "endCoords": {
        "latitude": 40.727532,
        "longitude": -111.874826
      },
      "distanceMeters": 57467.9,
      "durationMs": 8441387,
      "drivingDurationMs": 6762321,
      "idlingDurationMs": 1679065,
      "fuelConsumedMl": 7306,
      "fuelConsumedGallons": 1.93,
      "maxSpeedMph": 56.2,
      "averageSpeedMph": 15.2,
      "safetyEvents": [],
      "_no_driver_login": false,
      "_fuel_note": ""
    },
    {
      "id": "trip_48291024_20250520_001",
      "vehicleId": "48291024",
      "driverId": "22831023",
      "startMs": 1747729020000,
      "endMs": 1747733245551,
      "startLocation": {
        "latitude": 40.695095,
        "longitude": -111.802138
      },
      "endLocation": {
        "latitude": 40.702757,
        "longitude": -111.82836
      },
      "startAddress": "965 Williams Pass Suite 932",
      "endAddress": "0392 Harper Village",
      "startCoords": {
        "latitude": 40.762483,
        "longitude": -111.804403
      },
      "endCoords": {
        "latitude": 40.790345,
        "longitude": -111.854348
      },
      "distanceMeters": 33103.6,
      "durationMs": 4225552,
      "drivingDurationMs": 3990584,
      "idlingDurationMs": 234968,
      "fuelConsumedMl": 4209,
      "fuelConsumedGallons": 1.112,
      "maxSpeedMph": 42.6,
      "averageSpeedMph": 17.5,
      "safetyEvents": [],
      "_no_driver_login": false,
      "_fuel_note": "QUIRK 5: fuelConsumedGallons is in US gallons. Multiply by 3.785 for litres. Samsara does not link fuel to specific Onfleet tasks."
    },
    {
      "id": "trip_48291024_20250520_002",
      "vehicleId": "48291024",
      "driverId": "22831023",
      "startMs": 1747747260000,
      "endMs": 1747752383175,
      "startLocation": {
        "latitude": 40.697569,
        "longitude": -111.77677
      },
      "endLocation": {
        "latitude": 40.735392,
        "longitude": -111.814938
      },
      "startAddress": "283 Lopez Stravenue",
      "endAddress": "263 Melinda Points",
      "startCoords": {
        "latitude": 40.728283,
        "longitude": -111.832015
      },
      "endCoords": {
        "latitude": 40.682585,
        "longitude": -111.869751
      },
      "distanceMeters": 31006.2,
      "durationMs": 5123175,
      "drivingDurationMs": 4179696,
      "idlingDurationMs": 943479,
      "fuelConsumedMl": 3941,
      "fuelConsumedGallons": 1.041,
      "maxSpeedMph": 69.1,
      "averageSpeedMph": 13.5,
      "safetyEvents": [
        {
          "type": "speeding",
          "startMs": 1747749660000,
          "maxSpeedMph": 69.1
        }
      ],
      "_no_driver_login": false,
      "_fuel_note": ""
    },
    {
      "id": "trip_48291024_20250520_003",
      "vehicleId": "48291024",
      "driverId": "22831023",
      "startMs": 1747721340000,
      "endMs": 1747722466351,
      "startLocation": {
        "latitude": 40.673463,
        "longitude": -111.858857
      },
      "endLocation": {
        "latitude": 40.797729,
        "longitude": -111.83856
      },
      "startAddress": "418 Michael Plaza",
      "endAddress": "919 Brian Avenue",
      "startCoords": {
        "latitude": 40.775427,
        "longitude": -111.892052
      },
      "endCoords": {
        "latitude": 40.676379,
        "longitude": -111.897557
      },
      "distanceMeters": 6049.6,
      "durationMs": 1126352,
      "drivingDurationMs": 943174,
      "idlingDurationMs": 183177,
      "fuelConsumedMl": 768,
      "fuelConsumedGallons": 0.203,
      "maxSpeedMph": 52.6,
      "averageSpeedMph": 12.0,
      "safetyEvents": [],
      "_no_driver_login": false,
      "_fuel_note": ""
    },
    {
      "id": "trip_48291024_20250521_001",
      "vehicleId": "48291024",
      "driverId": "22831023",
      "startMs": 1747811460000,
      "endMs": 1747821486771,
      "startLocation": {
        "latitude": 40.780402,
        "longitude": -111.960272
      },
      "endLocation": {
        "latitude": 40.67199,
        "longitude": -111.849804
      },
      "startAddress": "5627 Jonathan Corner Suite 020",
      "endAddress": "56778 Jones Stravenue Suite 448",
      "startCoords": {
        "latitude": 40.71617,
        "longitude": -111.811975
      },
      "endCoords": {
        "latitude": 40.731855,
        "longitude": -111.885823
      },
      "distanceMeters": 73337.8,
      "durationMs": 10026771,
      "drivingDurationMs": 9221928,
      "idlingDurationMs": 804843,
      "fuelConsumedMl": 9323,
      "fuelConsumedGallons": 2.463,
      "maxSpeedMph": 42.7,
      "averageSpeedMph": 16.4,
      "safetyEvents": [],
      "_no_driver_login": false,
      "_fuel_note": "QUIRK 5: fuelConsumedGallons is in US gallons. Multiply by 3.785 for litres. Samsara does not link fuel to specific Onfleet tasks."
    },
    {
      "id": "trip_48291024_20250521_002",
      "vehicleId": "48291024",
      "driverId": "22831023",
      "startMs": 1747851180000,
      "endMs": 1747855696042,
      "startLocation": {
        "latitude": 40.728579,
        "longitude": -111.895961
      },
      "endLocation": {
        "latitude": 40.765928,
        "longitude": -111.858629
      },
      "startAddress": "5595 Delgado Junctions Suite 179",
      "endAddress": "9942 Barbara Walks Apt. 196",
      "startCoords": {
        "latitude": 40.794412,
        "longitude": -111.826417
      },
      "endCoords": {
        "latitude": 40.787381,
        "longitude": -111.875384
      },
      "distanceMeters": 32393.5,
      "durationMs": 4516042,
      "drivingDurationMs": 4332934,
      "idlingDurationMs": 183108,
      "fuelConsumedMl": 4119,
      "fuelConsumedGallons": 1.088,
      "maxSpeedMph": 53.2,
      "averageSpeedMph": 16.0,
      "safetyEvents": [],
      "_no_driver_login": false,
      "_fuel_note": ""
    },
    {
      "id": "trip_48291024_20250521_003",
      "vehicleId": "48291024",
      "driverId": null,
      "startMs": 1747808580000,
      "endMs": 1747810702466,
      "startLocation": {
        "latitude": 40.74345,
        "longitude": -111.856786
      },
      "endLocation": {
        "latitude": 40.708335,
        "longitude": -111.878662
      },
      "startAddress": "373 Anderson Courts Apt. 300",
      "endAddress": "96775 Andrew Hill",
      "startCoords": {
        "latitude": 40.759896,
        "longitude": -111.8723
      },
      "endCoords": {
        "latitude": 40.794146,
        "longitude": -111.827638
      },
      "distanceMeters": 13681.9,
      "durationMs": 2122466,
      "drivingDurationMs": 1861941,
      "idlingDurationMs": 260525,
      "fuelConsumedMl": 1741,
      "fuelConsumedGallons": 0.46,
      "maxSpeedMph": 46.8,
      "averageSpeedMph": 14.4,
      "safetyEvents": [],
      "_no_driver_login": true,
      "_fuel_note": ""
    },
    {
      "id": "trip_48291024_20250521_004",
      "vehicleId": "48291024",
      "driverId": null,
      "startMs": 1747819020000,
      "endMs": 1747828450706,
      "startLocation": {
        "latitude": 40.727585,
        "longitude": -111.897703
      },
      "endLocation": {
        "latitude": 40.756747,
        "longitude": -111.894489
      },
      "startAddress": "08245 Kim Well",
      "endAddress": "56124 Ortiz Curve",
      "startCoords": {
        "latitude": 40.682183,
        "longitude": -111.781143
      },
      "endCoords": {
        "latitude": 40.776964,
        "longitude": -111.854539
      },
      "distanceMeters": 76526.5,
      "durationMs": 9430707,
      "drivingDurationMs": 9187467,
      "idlingDurationMs": 243240,
      "fuelConsumedMl": 9729,
      "fuelConsumedGallons": 2.57,
      "maxSpeedMph": 54.7,
      "averageSpeedMph": 18.2,
      "safetyEvents": [],
      "_no_driver_login": true,
      "_fuel_note": ""
    },
    {
      "id": "trip_48291024_20250521_005",
      "vehicleId": "48291024",
      "driverId": "22831023",
      "startMs": 1747828980000,
      "endMs": 1747843927139,
      "startLocation": {
        "latitude": 40.758979,
        "longitude": -111.842167
      },
      "endLocation": {
        "latitude": 40.728903,
        "longitude": -111.785763
      },
      "startAddress": "66675 Pierce Shore",
      "endAddress": "0925 Miller Meadow Suite 667",
      "startCoords": {
        "latitude": 40.782745,
        "longitude": -111.926148
      },
      "endCoords": {
        "latitude": 40.753699,
        "longitude": -111.85492
      },
      "distanceMeters": 77725.0,
      "durationMs": 14947139,
      "drivingDurationMs": 12840815,
      "idlingDurationMs": 2106325,
      "fuelConsumedMl": 9884,
      "fuelConsumedGallons": 2.611,
      "maxSpeedMph": 42.5,
      "averageSpeedMph": 11.6,
      "safetyEvents": [],
      "_no_driver_login": false,
      "_fuel_note": ""
    },
    {
      "id": "trip_48291024_20250521_006",
      "vehicleId": "48291024",
      "driverId": "22831023",
      "startMs": 1747853280000,
      "endMs": 1747856714617,
      "startLocation": {
        "latitude": 40.662288,
        "longitude": -111.778744
      },
      "endLocation": {
        "latitude": 40.782843,
        "longitude": -111.843856
      },
      "startAddress": "9028 Robertson Shore",
      "endAddress": "836 Megan Hollow Suite 758",
      "startCoords": {
        "latitude": 40.729837,
        "longitude": -111.905285
      },
      "endCoords": {
        "latitude": 40.707461,
        "longitude": -111.800356
      },
      "distanceMeters": 24630.3,
      "durationMs": 3434618,
      "drivingDurationMs": 3012565,
      "idlingDurationMs": 422053,
      "fuelConsumedMl": 3131,
      "fuelConsumedGallons": 0.827,
      "maxSpeedMph": 60.2,
      "averageSpeedMph": 16.0,
      "safetyEvents": [],
      "_no_driver_login": false,
      "_fuel_note": ""
    },
    {
      "id": "trip_48291024_20250522_001",
      "vehicleId": "48291024",
      "driverId": "22831023",
      "startMs": 1747898940000,
      "endMs": 1747909149390,
      "startLocation": {
        "latitude": 40.703563,
        "longitude": -111.940471
      },
      "endLocation": {
        "latitude": 40.730195,
        "longitude": -111.89721
      },
      "startAddress": "8302 Ricardo Island Apt. 540",
      "endAddress": "965 Denise Valleys Suite 597",
      "startCoords": {
        "latitude": 40.72298,
        "longitude": -111.946771
      },
      "endCoords": {
        "latitude": 40.727153,
        "longitude": -111.955236
      },
      "distanceMeters": 68854.2,
      "durationMs": 10209391,
      "drivingDurationMs": 9861951,
      "idlingDurationMs": 347440,
      "fuelConsumedMl": 8756,
      "fuelConsumedGallons": 2.313,
      "maxSpeedMph": 51.5,
      "averageSpeedMph": 15.1,
      "safetyEvents": [],
      "_no_driver_login": false,
      "_fuel_note": "QUIRK 5: fuelConsumedGallons is in US gallons. Multiply by 3.785 for litres. Samsara does not link fuel to specific Onfleet tasks."
    },
    {
      "id": "trip_48291024_20250522_002",
      "vehicleId": "48291024",
      "driverId": "22831023",
      "startMs": 1747926420000,
      "endMs": 1747934742110,
      "startLocation": {
        "latitude": 40.665442,
        "longitude": -111.871523
      },
      "endLocation": {
        "latitude": 40.662791,
        "longitude": -111.88861
      },
      "startAddress": "79012 William Junction Apt. 219",
      "endAddress": "28558 Day Prairie",
      "startCoords": {
        "latitude": 40.739678,
        "longitude": -111.805078
      },
      "endCoords": {
        "latitude": 40.73695,
        "longitude": -111.917187
      },
      "distanceMeters": 54628.6,
      "durationMs": 8322110,
      "drivingDurationMs": 7056180,
      "idlingDurationMs": 1265930,
      "fuelConsumedMl": 6946,
      "fuelConsumedGallons": 1.835,
      "maxSpeedMph": 64.3,
      "averageSpeedMph": 14.7,
      "safetyEvents": [],
      "_no_driver_login": false,
      "_fuel_note": ""
    },
    {
      "id": "trip_48291024_20250522_003",
      "vehicleId": "48291024",
      "driverId": "22831023",
      "startMs": 1747936860000,
      "endMs": 1747947355270,
      "startLocation": {
        "latitude": 40.730914,
        "longitude": -111.866038
      },
      "endLocation": {
        "latitude": 40.7363,
        "longitude": -111.77503
      },
      "startAddress": "7280 Foster Rapids",
      "endAddress": "9214 Sarah Falls Suite 175",
      "startCoords": {
        "latitude": 40.771683,
        "longitude": -111.901418
      },
      "endCoords": {
        "latitude": 40.729162,
        "longitude": -111.919791
      },
      "distanceMeters": 75075.0,
      "durationMs": 10495271,
      "drivingDurationMs": 10314863,
      "idlingDurationMs": 180408,
      "fuelConsumedMl": 9547,
      "fuelConsumedGallons": 2.522,
      "maxSpeedMph": 68.9,
      "averageSpeedMph": 16.0,
      "safetyEvents": [
        {
          "type": "speeding",
          "startMs": 1747937460000,
          "maxSpeedMph": 68.9
        }
      ],
      "_no_driver_login": false,
      "_fuel_note": ""
    },
    {
      "id": "trip_48291024_20250523_001",
      "vehicleId": "48291024",
      "driverId": "22831023",
      "startMs": 1748008260000,
      "endMs": 1748009787186,
      "startLocation": {
        "latitude": 40.789122,
        "longitude": -111.835267
      },
      "endLocation": {
        "latitude": 40.742057,
        "longitude": -111.850717
      },
      "startAddress": "4044 Sullivan Lake Suite 948",
      "endAddress": "5778 Freeman Expressway",
      "startCoords": {
        "latitude": 40.758616,
        "longitude": -111.808312
      },
      "endCoords": {
        "latitude": 40.746298,
        "longitude": -111.793322
      },
      "distanceMeters": 10506.5,
      "durationMs": 1527187,
      "drivingDurationMs": 1320281,
      "idlingDurationMs": 206906,
      "fuelConsumedMl": 1336,
      "fuelConsumedGallons": 0.353,
      "maxSpeedMph": 55.4,
      "averageSpeedMph": 15.4,
      "safetyEvents": [],
      "_no_driver_login": false,
      "_fuel_note": "QUIRK 5: fuelConsumedGallons is in US gallons. Multiply by 3.785 for litres. Samsara does not link fuel to specific Onfleet tasks."
    },
    {
      "id": "trip_48291024_20250523_002",
      "vehicleId": "48291024",
      "driverId": "22831023",
      "startMs": 1747982760000,
      "endMs": 1747994072948,
      "startLocation": {
        "latitude": 40.692715,
        "longitude": -111.928667
      },
      "endLocation": {
        "latitude": 40.723054,
        "longitude": -111.79815
      },
      "startAddress": "74198 Jackson Circle",
      "endAddress": "928 Mclaughlin Heights",
      "startCoords": {
        "latitude": 40.783948,
        "longitude": -111.914532
      },
      "endCoords": {
        "latitude": 40.683701,
        "longitude": -111.781027
      },
      "distanceMeters": 62189.0,
      "durationMs": 11312949,
      "drivingDurationMs": 10281963,
      "idlingDurationMs": 1030986,
      "fuelConsumedMl": 7908,
      "fuelConsumedGallons": 2.089,
      "maxSpeedMph": 40.7,
      "averageSpeedMph": 12.3,
      "safetyEvents": [],
      "_no_driver_login": false,
      "_fuel_note": ""
    },
    {
      "id": "trip_48291024_20250524_001",
      "vehicleId": "48291024",
      "driverId": "22831023",
      "startMs": 1748082900000,
      "endMs": 1748087019199,
      "startLocation": {
        "latitude": 40.728039,
        "longitude": -111.808608
      },
      "endLocation": {
        "latitude": 40.736172,
        "longitude": -111.911176
      },
      "startAddress": "87393 Robert Cape Apt. 237",
      "endAddress": "036 Lara Forest Apt. 039",
      "startCoords": {
        "latitude": 40.770396,
        "longitude": -111.844335
      },
      "endCoords": {
        "latitude": 40.773921,
        "longitude": -111.827213
      },
      "distanceMeters": 30857.8,
      "durationMs": 4119199,
      "drivingDurationMs": 3675260,
      "idlingDurationMs": 443939,
      "fuelConsumedMl": 3922,
      "fuelConsumedGallons": 1.036,
      "maxSpeedMph": 43.6,
      "averageSpeedMph": 16.8,
      "safetyEvents": [],
      "_no_driver_login": false,
      "_fuel_note": "QUIRK 5: fuelConsumedGallons is in US gallons. Multiply by 3.785 for litres. Samsara does not link fuel to specific Onfleet tasks."
    },
    {
      "id": "trip_48291024_20250524_002",
      "vehicleId": "48291024",
      "driverId": "22831023",
      "startMs": 1748094540000,
      "endMs": 1748099350106,
      "startLocation": {
        "latitude": 40.715316,
        "longitude": -111.840045
      },
      "endLocation": {
        "latitude": 40.761161,
        "longitude": -111.829725
      },
      "startAddress": "87086 Morgan Crossing Suite 822",
      "endAddress": "7992 Jennifer Mills Apt. 397",
      "startCoords": {
        "latitude": 40.751915,
        "longitude": -111.883015
      },
      "endCoords": {
        "latitude": 40.706865,
        "longitude": -111.945626
      },
      "distanceMeters": 28529.1,
      "durationMs": 4810107,
      "drivingDurationMs": 4006685,
      "idlingDurationMs": 803422,
      "fuelConsumedMl": 3626,
      "fuelConsumedGallons": 0.958,
      "maxSpeedMph": 35.9,
      "averageSpeedMph": 13.3,
      "safetyEvents": [],
      "_no_driver_login": false,
      "_fuel_note": ""
    },
    {
      "id": "trip_48291024_20250524_003",
      "vehicleId": "48291024",
      "driverId": "22831023",
      "startMs": 1748077800000,
      "endMs": 1748084995415,
      "startLocation": {
        "latitude": 40.666198,
        "longitude": -111.842972
      },
      "endLocation": {
        "latitude": 40.782056,
        "longitude": -111.816882
      },
      "startAddress": "46824 Melanie Trace",
      "endAddress": "0312 Choi River Suite 438",
      "startCoords": {
        "latitude": 40.756422,
        "longitude": -111.921857
      },
      "endCoords": {
        "latitude": 40.66589,
        "longitude": -111.813187
      },
      "distanceMeters": 52301.6,
      "durationMs": 7195415,
      "drivingDurationMs": 5963422,
      "idlingDurationMs": 1231993,
      "fuelConsumedMl": 6651,
      "fuelConsumedGallons": 1.757,
      "maxSpeedMph": 41.4,
      "averageSpeedMph": 16.3,
      "safetyEvents": [],
      "_no_driver_login": false,
      "_fuel_note": ""
    },
    {
      "id": "trip_48291024_20250524_004",
      "vehicleId": "48291024",
      "driverId": "22831023",
      "startMs": 1748111580000,
      "endMs": 1748115716736,
      "startLocation": {
        "latitude": 40.78984,
        "longitude": -111.953081
      },
      "endLocation": {
        "latitude": 40.700761,
        "longitude": -111.778489
      },
      "startAddress": "261 Andrew Port",
      "endAddress": "6109 Thomas Roads Suite 158",
      "startCoords": {
        "latitude": 40.680817,
        "longitude": -111.950769
      },
      "endCoords": {
        "latitude": 40.685359,
        "longitude": -111.815856
      },
      "distanceMeters": 31270.5,
      "durationMs": 4136737,
      "drivingDurationMs": 3689167,
      "idlingDurationMs": 447570,
      "fuelConsumedMl": 3975,
      "fuelConsumedGallons": 1.05,
      "maxSpeedMph": 68.0,
      "averageSpeedMph": 16.9,
      "safetyEvents": [
        {
          "type": "speeding",
          "startMs": 1748111760000,
          "maxSpeedMph": 68.0
        }
      ],
      "_no_driver_login": false,
      "_fuel_note": ""
    },
    {
      "id": "trip_48291024_20250525_001",
      "vehicleId": "48291024",
      "driverId": "22831023",
      "startMs": 1748161860000,
      "endMs": 1748170149491,
      "startLocation": {
        "latitude": 40.668851,
        "longitude": -111.776639
      },
      "endLocation": {
        "latitude": 40.7042,
        "longitude": -111.795026
      },
      "startAddress": "0306 Rojas Islands",
      "endAddress": "8248 Ricardo Freeway Suite 699",
      "startCoords": {
        "latitude": 40.706313,
        "longitude": -111.912516
      },
      "endCoords": {
        "latitude": 40.700214,
        "longitude": -111.926613
      },
      "distanceMeters": 50520.9,
      "durationMs": 8289491,
      "drivingDurationMs": 7553762,
      "idlingDurationMs": 735729,
      "fuelConsumedMl": 6424,
      "fuelConsumedGallons": 1.697,
      "maxSpeedMph": 68.4,
      "averageSpeedMph": 13.6,
      "safetyEvents": [
        {
          "type": "speeding",
          "startMs": 1748168100000,
          "maxSpeedMph": 68.4
        }
      ],
      "_no_driver_login": false,
      "_fuel_note": "QUIRK 5: fuelConsumedGallons is in US gallons. Multiply by 3.785 for litres. Samsara does not link fuel to specific Onfleet tasks."
    },
    {
      "id": "trip_48291024_20250525_002",
      "vehicleId": "48291024",
      "driverId": "22831023",
      "startMs": 1748184420000,
      "endMs": 1748196415200,
      "startLocation": {
        "latitude": 40.689796,
        "longitude": -111.797333
      },
      "endLocation": {
        "latitude": 40.668078,
        "longitude": -111.89592
      },
      "startAddress": "1519 Tracy Avenue",
      "endAddress": "41691 Lopez Turnpike",
      "startCoords": {
        "latitude": 40.719822,
        "longitude": -111.863134
      },
      "endCoords": {
        "latitude": 40.732047,
        "longitude": -111.836124
      },
      "distanceMeters": 62344.0,
      "durationMs": 11995201,
      "drivingDurationMs": 11441915,
      "idlingDurationMs": 553285,
      "fuelConsumedMl": 7927,
      "fuelConsumedGallons": 2.094,
      "maxSpeedMph": 57.5,
      "averageSpeedMph": 11.6,
      "safetyEvents": [],
      "_no_driver_login": false,
      "_fuel_note": ""
    },
    {
      "id": "trip_48291024_20250525_003",
      "vehicleId": "48291024",
      "driverId": null,
      "startMs": 1748178600000,
      "endMs": 1748182617500,
      "startLocation": {
        "latitude": 40.757013,
        "longitude": -111.926185
      },
      "endLocation": {
        "latitude": 40.735851,
        "longitude": -111.861952
      },
      "startAddress": "0637 Sanchez Lane Suite 579",
      "endAddress": "14763 Adam Avenue Suite 913",
      "startCoords": {
        "latitude": 40.70809,
        "longitude": -111.881146
      },
      "endCoords": {
        "latitude": 40.750759,
        "longitude": -111.852914
      },
      "distanceMeters": 27205.6,
      "durationMs": 4017500,
      "drivingDurationMs": 3320160,
      "idlingDurationMs": 697340,
      "fuelConsumedMl": 3460,
      "fuelConsumedGallons": 0.914,
      "maxSpeedMph": 69.9,
      "averageSpeedMph": 15.1,
      "safetyEvents": [
        {
          "type": "speeding",
          "startMs": 1748181720000,
          "maxSpeedMph": 69.9
        }
      ],
      "_no_driver_login": true,
      "_fuel_note": ""
    },
    {
      "id": "trip_48291024_20250526_001",
      "vehicleId": "48291024",
      "driverId": "22831023",
      "startMs": 1748254380000,
      "endMs": 1748267232830,
      "startLocation": {
        "latitude": 40.790361,
        "longitude": -111.927904
      },
      "endLocation": {
        "latitude": 40.671158,
        "longitude": -111.79437
      },
      "startAddress": "8491 Joshua Tunnel Suite 501",
      "endAddress": "619 Donna Station",
      "startCoords": {
        "latitude": 40.716403,
        "longitude": -111.783186
      },
      "endCoords": {
        "latitude": 40.733873,
        "longitude": -111.815909
      },
      "distanceMeters": 84682.7,
      "durationMs": 12852831,
      "drivingDurationMs": 10515180,
      "idlingDurationMs": 2337650,
      "fuelConsumedMl": 10766,
      "fuelConsumedGallons": 2.844,
      "maxSpeedMph": 55.1,
      "averageSpeedMph": 14.7,
      "safetyEvents": [],
      "_no_driver_login": false,
      "_fuel_note": "QUIRK 5: fuelConsumedGallons is in US gallons. Multiply by 3.785 for litres. Samsara does not link fuel to specific Onfleet tasks."
    },
    {
      "id": "trip_48291024_20250526_002",
      "vehicleId": "48291024",
      "driverId": null,
      "startMs": 1748241900000,
      "endMs": 1748254372709,
      "startLocation": {
        "latitude": 40.752655,
        "longitude": -111.931396
      },
      "endLocation": {
        "latitude": 40.714727,
        "longitude": -111.839107
      },
      "startAddress": "0430 Brown Mills",
      "endAddress": "30815 Garcia Mall",
      "startCoords": {
        "latitude": 40.669725,
        "longitude": -111.792487
      },
      "endCoords": {
        "latitude": 40.796467,
        "longitude": -111.815362
      },
      "distanceMeters": 81644.4,
      "durationMs": 12472709,
      "drivingDurationMs": 10908220,
      "idlingDurationMs": 1564489,
      "fuelConsumedMl": 10380,
      "fuelConsumedGallons": 2.742,
      "maxSpeedMph": 49.7,
      "averageSpeedMph": 14.6,
      "safetyEvents": [],
      "_no_driver_login": true,
      "_fuel_note": ""
    },
    {
      "id": "trip_48291024_20250526_003",
      "vehicleId": "48291024",
      "driverId": "22831023",
      "startMs": 1748270520000,
      "endMs": 1748283856230,
      "startLocation": {
        "latitude": 40.658976,
        "longitude": -111.890232
      },
      "endLocation": {
        "latitude": 40.730261,
        "longitude": -111.8659
      },
      "startAddress": "90611 Isabella Ports",
      "endAddress": "64450 Brown River Suite 102",
      "startCoords": {
        "latitude": 40.692753,
        "longitude": -111.923088
      },
      "endCoords": {
        "latitude": 40.76544,
        "longitude": -111.819678
      },
      "distanceMeters": 78535.9,
      "durationMs": 13336230,
      "drivingDurationMs": 12880848,
      "idlingDurationMs": 455383,
      "fuelConsumedMl": 9986,
      "fuelConsumedGallons": 2.638,
      "maxSpeedMph": 48.3,
      "averageSpeedMph": 13.2,
      "safetyEvents": [],
      "_no_driver_login": false,
      "_fuel_note": ""
    },