{
  "vehicleId": "47373145",
  "vehicleName": "DEN-VAN-02",
  "month": "2025_05",
  "pagination": {
    "endCursor": "trip_47373145_20250531_004",
    "hasNextPage": false
  },
  "trips": [
    {
      "id": "trip_47373145_20250501_001",
      "vehicleId": "47373145",
      "driverId": "20000015",
      "startMs": 1746112020000,
      "endMs": 1746128274380,
      "startAddress": "3014 Michelle Valley",
      "endAddress": "9047 Emily Crossing Apt. 666",
      "startCoords": {
        "latitude": 39.715514,
        "longitude": -105.077602
      },
      "endCoords": {
        "latitude": 39.765774,
        "longitude": -105.030984
      },
      "distanceMeters": 80536.3,
      "durationMs": 16254381,
      "drivingDurationMs": 15627893,
      "idlingDurationMs": 626488,
      "fuelConsumedMl": 10240,
      "fuelConsumedGallons": 2.705,
      "maxSpeedMph": 61.8,
      "averageSpeedMph": 11.1,
      "safetyEvents": []
    },
    {
      "id": "trip_47373145_20250501_002",
      "vehicleId": "47373145",
      "driverId": "20000015",
      "startMs": 1746122340000,
      "endMs": 1746125653292,
      "startAddress": "46600 John Vista Suite 021",
      "endAddress": "5276 Wilson Cove Apt. 758",
      "startCoords": {
        "latitude": 39.761743,
        "longitude": -105.041298
      },
      "endCoords": {
        "latitude": 39.798641,
        "longitude": -104.924735
      },
      "distanceMeters": 23816.7,
      "durationMs": 3313292,
      "drivingDurationMs": 2825343,
      "idlingDurationMs": 487950,
      "fuelConsumedMl": 3028,
      "fuelConsumedGallons": 0.8,
      "maxSpeedMph": 30.7,
      "averageSpeedMph": 16.1,
      "safetyEvents": []
    },
    {
      "id": "trip_47373145_20250501_003",
      "vehicleId": "47373145",
      "driverId": "20000015",
      "startMs": 1746090120000,
      "endMs": 1746095260193,
      "startAddress": "20965 Carey Junctions",
      "endAddress": "705 Teresa Plaza Suite 427",
      "startCoords": {
        "latitude": 39.686986,
        "longitude": -105.086819
      },
      "endCoords": {
        "latitude": 39.695391,
        "longitude": -104.944582
      },
      "distanceMeters": 35867.4,
      "durationMs": 5140194,
      "drivingDurationMs": 4489722,
      "idlingDurationMs": 650472,
      "fuelConsumedMl": 4561,
      "fuelConsumedGallons": 1.205,
      "maxSpeedMph": 33.9,
      "averageSpeedMph": 15.6,
      "safetyEvents": []
    },
    {
      "id": "trip_47373145_20250501_004",
      "vehicleId": "47373145",
      "driverId": "20000015",
      "startMs": 1746118320000,
      "endMs": 1746119834653,
      "startAddress": "369 Webb Islands",
      "endAddress": "0113 Brad Spring Apt. 164",
      "startCoords": {
        "latitude": 39.780364,
        "longitude": -104.944344
      },
      "endCoords": {
        "latitude": 39.756673,
        "longitude": -105.059905
      },
      "distanceMeters": 10038.5,
      "durationMs": 1514654,
      "drivingDurationMs": 1233124,
      "idlingDurationMs": 281530,
      "fuelConsumedMl": 1276,
      "fuelConsumedGallons": 0.337,
      "maxSpeedMph": 68.7,
      "averageSpeedMph": 14.8,
      "safetyEvents": [
        {
          "type": "speeding",
          "startMs": 1746118800000,
          "maxSpeedMph": 68.7
        }
      ]
    },
    {
      "id": "trip_47373145_20250501_005",
      "vehicleId": "47373145",
      "driverId": "20000015",
      "startMs": 1746111840000,
      "endMs": 1746120865786,
      "startAddress": "79598 Pearson Hills Apt. 457",
      "endAddress": "48293 Potter Gardens",
      "startCoords": {
        "latitude": 39.77879,
        "longitude": -104.950595
      },
      "endCoords": {
        "latitude": 39.706637,
        "longitude": -104.914037
      },
      "distanceMeters": 61717.5,
      "durationMs": 9025787,
      "drivingDurationMs": 8742753,
      "idlingDurationMs": 283034,
      "fuelConsumedMl": 7847,
      "fuelConsumedGallons": 2.073,
      "maxSpeedMph": 52.6,
      "averageSpeedMph": 15.3,
      "safetyEvents": []
    },
    {
      "id": "trip_47373145_20250502_001",
      "vehicleId": "47373145",
      "driverId": null,
      "startMs": 1746191460000,
      "endMs": 1746199652321,
      "startAddress": "0585 Rice Fords",
      "endAddress": "7225 Steven Neck",
      "startCoords": {
        "latitude": 39.752491,
        "longitude": -104.975253
      },
      "endCoords": {
        "latitude": 39.71038,
        "longitude": -104.912035
      },
      "distanceMeters": 52399.7,
      "durationMs": 8192321,
      "drivingDurationMs": 7424564,
      "idlingDurationMs": 767757,
      "fuelConsumedMl": 6662,
      "fuelConsumedGallons": 1.76,
      "maxSpeedMph": 68.2,
      "averageSpeedMph": 14.3,
      "safetyEvents": [
        {
          "type": "speeding",
          "startMs": 1746193440000,
          "maxSpeedMph": 68.2
        }
      ]
    },
    {
      "id": "trip_47373145_20250502_002",
      "vehicleId": "47373145",
      "driverId": "20000004",
      "startMs": 1746167460000,
      "endMs": 1746172719229,
      "startAddress": "291 Villa Crest",
      "endAddress": "786 Briana Greens Apt. 389",
      "startCoords": {
        "latitude": 39.752506,
        "longitude": -104.959748
      },
      "endCoords": {
        "latitude": 39.753651,
        "longitude": -104.949449
      },
      "distanceMeters": 30117.6,
      "durationMs": 5259229,
      "drivingDurationMs": 4608090,
      "idlingDurationMs": 651140,
      "fuelConsumedMl": 3831,
      "fuelConsumedGallons": 1.012,
      "maxSpeedMph": 70.8,
      "averageSpeedMph": 12.8,
      "safetyEvents": [
        {
          "type": "speeding",
          "startMs": 1746171720000,
          "maxSpeedMph": 70.8
        }
      ]
    },
    {
      "id": "trip_47373145_20250502_003",
      "vehicleId": "47373145",
      "driverId": "20000004",
      "startMs": 1746172980000,
      "endMs": 1746179416276,
      "startAddress": "031 Wheeler Field Apt. 615",
      "endAddress": "665 Nicole Greens",
      "startCoords": {
        "latitude": 39.691756,
        "longitude": -104.920771
      },
      "endCoords": {
        "latitude": 39.700293,
        "longitude": -105.03347
      },
      "distanceMeters": 37428.2,
      "durationMs": 6436276,
      "drivingDurationMs": 5959444,
      "idlingDurationMs": 476832,
      "fuelConsumedMl": 4758,
      "fuelConsumedGallons": 1.257,
      "maxSpeedMph": 35.8,
      "averageSpeedMph": 13.0,
      "safetyEvents": []
    },
    {
      "id": "trip_47373145_20250502_004",
      "vehicleId": "47373145",
      "driverId": "20000004",
      "startMs": 1746209160000,
      "endMs": 1746210600172,
      "startAddress": "262 Michelle Spring",
      "endAddress": "39965 Kyle Gardens",
      "startCoords": {
        "latitude": 39.784381,
        "longitude": -104.982151
      },
      "endCoords": {
        "latitude": 39.791304,
        "longitude": -104.926231
      },
      "distanceMeters": 9716.3,
      "durationMs": 1440172,
      "drivingDurationMs": 1233580,
      "idlingDurationMs": 206593,
      "fuelConsumedMl": 1234,
      "fuelConsumedGallons": 0.326,
      "maxSpeedMph": 58.4,
      "averageSpeedMph": 15.1,
      "safetyEvents": []
    },
    {
      "id": "trip_47373145_20250502_005",
      "vehicleId": "47373145",
      "driverId": "20000004",
      "startMs": 1746169680000,
      "endMs": 1746171415635,
      "startAddress": "102 Dawn Branch",
      "endAddress": "90054 Jeremy Plain Apt. 817",
      "startCoords": {
        "latitude": 39.738606,
        "longitude": -105.030171
      },
      "endCoords": {
        "latitude": 39.745014,
        "longitude": -104.905176
      },
      "distanceMeters": 7774.1,
      "durationMs": 1735635,
      "drivingDurationMs": 1398730,
      "idlingDurationMs": 336905,
      "fuelConsumedMl": 988,
      "fuelConsumedGallons": 0.261,
      "maxSpeedMph": 47.1,
      "averageSpeedMph": 10.0,
      "safetyEvents": []
    },
    {
      "id": "trip_47373145_20250502_006",
      "vehicleId": "47373145",
      "driverId": "20000004",
      "startMs": 1746169560000,
      "endMs": 1746175900742,
      "startAddress": "91674 Erik Brook",
      "endAddress": "95942 Kevin Lane Suite 451",
      "startCoords": {
        "latitude": 39.771616,
        "longitude": -105.084053
      },
      "endCoords": {
        "latitude": 39.745667,
        "longitude": -105.044101
      },
      "distanceMeters": 36334.8,
      "durationMs": 6340743,
      "drivingDurationMs": 5426614,
      "idlingDurationMs": 914129,
      "fuelConsumedMl": 4618,
      "fuelConsumedGallons": 1.22,
      "maxSpeedMph": 44.3,
      "averageSpeedMph": 12.8,
      "safetyEvents": []
    },
    {
      "id": "trip_47373145_20250503_001",
      "vehicleId": "47373145",
      "driverId": "20000014",
      "startMs": 1746273600000,
      "endMs": 1746275358847,
      "startAddress": "769 James Passage Suite 286",
      "endAddress": "013 Amber Crest Apt. 664",
      "startCoords": {
        "latitude": 39.814741,
        "longitude": -105.050321
      },
      "endCoords": {
        "latitude": 39.827283,
        "longitude": -105.06564
      },
      "distanceMeters": 11026.0,
      "durationMs": 1758847,
      "drivingDurationMs": 1522918,
      "idlingDurationMs": 235929,
      "fuelConsumedMl": 1401,
      "fuelConsumedGallons": 0.37,
      "maxSpeedMph": 67.5,
      "averageSpeedMph": 14.0,
      "safetyEvents": [
        {
          "type": "speeding",
          "startMs": 1746274380000,
          "maxSpeedMph": 67.5
        }
      ]
    },
    {
      "id": "trip_47373145_20250503_002",
      "vehicleId": "47373145",
      "driverId": "20000014",
      "startMs": 1746287820000,
      "endMs": 1746305431543,
      "startAddress": "513 Boyd Trail",
      "endAddress": "501 Jacob Fork Suite 801",
      "startCoords": {
        "latitude": 39.787502,
        "longitude": -104.999874
      },
      "endCoords": {
        "latitude": 39.787902,
        "longitude": -105.005266
      },
      "distanceMeters": 73591.2,
      "durationMs": 17611544,
      "drivingDurationMs": 14666563,
      "idlingDurationMs": 2944980,
      "fuelConsumedMl": 9358,
      "fuelConsumedGallons": 2.472,
      "maxSpeedMph": 60.8,
      "averageSpeedMph": 9.3,
      "safetyEvents": []
    },
    {
      "id": "trip_47373145_20250504_001",
      "vehicleId": "47373145",
      "driverId": "20000013",
      "startMs": 1746363900000,
      "endMs": 1746380616405,
      "startAddress": "490 Joe Extension",
      "endAddress": "98578 Mccarty Dale Apt. 978",
      "startCoords": {
        "latitude": 39.79053,
        "longitude": -104.942954
      },
      "endCoords": {
        "latitude": 39.710343,
        "longitude": -105.000471
      },
      "distanceMeters": 80197.7,
      "durationMs": 16716406,
      "drivingDurationMs": 14134746,
      "idlingDurationMs": 2581660,
      "fuelConsumedMl": 10198,
      "fuelConsumedGallons": 2.694,
      "maxSpeedMph": 71.6,
      "averageSpeedMph": 10.7,
      "safetyEvents": [
        {
          "type": "speeding",
          "startMs": 1746365520000,
          "maxSpeedMph": 71.6
        }
      ]
    },
    {
      "id": "trip_47373145_20250504_002",
      "vehicleId": "47373145",
      "driverId": "20000013",
      "startMs": 1746377520000,
      "endMs": 1746379520365,
      "startAddress": "4483 Lisa Courts",
      "endAddress": "7828 Benjamin Key",
      "startCoords": {
        "latitude": 39.720865,
        "longitude": -105.081097
      },
      "endCoords": {
        "latitude": 39.820718,
        "longitude": -105.053424
      },
      "distanceMeters": 13476.4,
      "durationMs": 2000366,
      "drivingDurationMs": 1688703,
      "idlingDurationMs": 311663,
      "fuelConsumedMl": 1715,
      "fuelConsumedGallons": 0.453,
      "maxSpeedMph": 53.0,
      "averageSpeedMph": 15.1,
      "safetyEvents": []
    },
    {
      "id": "trip_47373145_20250504_003",
      "vehicleId": "47373145",
      "driverId": "20000013",
      "startMs": 1746342840000,
      "endMs": 1746348679563,
      "startAddress": "3662 Brooke Point",
      "endAddress": "9477 Christian Park",
      "startCoords": {
        "latitude": 39.748677,
        "longitude": -105.067545
      },
      "endCoords": {
        "latitude": 39.772984,
        "longitude": -105.018949
      },
      "distanceMeters": 42530.1,
      "durationMs": 5839563,
      "drivingDurationMs": 5234440,
      "idlingDurationMs": 605123,
      "fuelConsumedMl": 5406,
      "fuelConsumedGallons": 1.428,
      "maxSpeedMph": 49.1,
      "averageSpeedMph": 16.3,
      "safetyEvents": []
    },
    {
      "id": "trip_47373145_20250504_004",
      "vehicleId": "47373145",
      "driverId": "20000013",
      "startMs": 1746378240000,
      "endMs": 1746389110261,
      "startAddress": "13044 Thomas Spur Suite 074",
      "endAddress": "509 Charles Coves",
      "startCoords": {
        "latitude": 39.790192,
        "longitude": -105.019674
      },
      "endCoords": {
        "latitude": 39.811719,
        "longitude": -104.992106
      },
      "distanceMeters": 57517.0,
      "durationMs": 10870261,
      "drivingDurationMs": 8870306,
      "idlingDurationMs": 1999956,
      "fuelConsumedMl": 7313,
      "fuelConsumedGallons": 1.932,
      "maxSpeedMph": 62.6,
      "averageSpeedMph": 11.8,
      "safetyEvents": []
    },
    {
      "id": "trip_47373145_20250505_001",
      "vehicleId": "47373145",
      "driverId": "20000011",
      "startMs": 1746465900000,
      "endMs": 1746470941019,
      "startAddress": "29703 Bell Prairie Apt. 048",
      "endAddress": "30635 Frederick Mills",
      "startCoords": {
        "latitude": 39.803036,
        "longitude": -104.949046
      },
      "endCoords": {
        "latitude": 39.750834,
        "longitude": -105.080194
      },
      "distanceMeters": 36515.7,
      "durationMs": 5041019,
      "drivingDurationMs": 4318262,
      "idlingDurationMs": 722758,
      "fuelConsumedMl": 4641,
      "fuelConsumedGallons": 1.226,
      "maxSpeedMph": 48.5,
      "averageSpeedMph": 16.2,
      "safetyEvents": []
    },
    {
      "id": "trip_47373145_20250505_002",
      "vehicleId": "47373145",
      "driverId": null,
      "startMs": 1746431700000,
      "endMs": 1746446454305,
      "startAddress": "21824 Martinez Pines Suite 576",
      "endAddress": "8337 Aaron Overpass Suite 939",
      "startCoords": {
        "latitude": 39.703113,
        "longitude": -105.011123
      },
      "endCoords": {
        "latitude": 39.801412,
        "longitude": -104.901243
      },
      "distanceMeters": 81798.4,
      "durationMs": 14754305,
      "drivingDurationMs": 13181552,
      "idlingDurationMs": 1572753,
      "fuelConsumedMl": 10399,
      "fuelConsumedGallons": 2.747,
      "maxSpeedMph": 46.4,
      "averageSpeedMph": 12.4,
      "safetyEvents": []
    },
    {
      "id": "trip_47373145_20250505_003",
      "vehicleId": "47373145",
      "driverId": "20000011",
      "startMs": 1746464460000,
      "endMs": 1746472311201,
      "startAddress": "40798 Rebecca Creek Suite 681",
      "endAddress": "03361 Traci Spur",
      "startCoords": {
        "latitude": 39.703924,
        "longitude": -104.952873
      },
      "endCoords": {
        "latitude": 39.689893,
        "longitude": -104.98847
      },
      "distanceMeters": 56381.0,
      "durationMs": 7851202,
      "drivingDurationMs": 7431045,
      "idlingDurationMs": 420156,
      "fuelConsumedMl": 7170,
      "fuelConsumedGallons": 1.894,
      "maxSpeedMph": 56.7,
      "averageSpeedMph": 16.1,
      "safetyEvents": []
    },
    {
      "id": "trip_47373145_20250505_004",
      "vehicleId": "47373145",
      "driverId": "20000011",
      "startMs": 1746456000000,
      "endMs": 1746468490271,
      "startAddress": "188 Farley Lock Suite 316",
      "endAddress": "301 Hunt Shore Apt. 837",
      "startCoords": {
        "latitude": 39.686609,
        "longitude": -104.948602
      },
      "endCoords": {
        "latitude": 39.695441,
        "longitude": -105.002075
      },
      "distanceMeters": 71677.2,
      "durationMs": 12490272,
      "drivingDurationMs": 10490494,
      "idlingDurationMs": 1999778,
      "fuelConsumedMl": 9111,
      "fuelConsumedGallons": 2.407,
      "maxSpeedMph": 43.5,
      "averageSpeedMph": 12.8,
      "safetyEvents": []
    },
    {
      "id": "trip_47373145_20250505_005",
      "vehicleId": "47373145",
      "driverId": "20000011",
      "startMs": 1746427440000,
      "endMs": 1746430383064,
      "startAddress": "8482 Chandler Islands Apt. 012",
      "endAddress": "50176 Perez Mills",
      "startCoords": {
        "latitude": 39.701206,
        "longitude": -104.971556
      },
      "endCoords": {
        "latitude": 39.713458,
        "longitude": -104.947165
      },
      "distanceMeters": 16502.0,
      "durationMs": 2943065,
      "drivingDurationMs": 2599585,
      "idlingDurationMs": 343479,
      "fuelConsumedMl": 2097,
      "fuelConsumedGallons": 0.554,
      "maxSpeedMph": 47.1,
      "averageSpeedMph": 12.5,
      "safetyEvents": []
    },
    {
      "id": "trip_47373145_20250506_001",
      "vehicleId": "47373145",
      "driverId": "20000006",
      "startMs": 1746534840000,
      "endMs": 1746536797932,
      "startAddress": "3980 Lee Highway",
      "endAddress": "24131 Patel Parks Apt. 992",
      "startCoords": {
        "latitude": 39.719636,
        "longitude": -105.025126
      },
      "endCoords": {
        "latitude": 39.738469,
        "longitude": -105.019752
      },
      "distanceMeters": 10226.0,
      "durationMs": 1957933,
      "drivingDurationMs": 1690617,
      "idlingDurationMs": 267316,
      "fuelConsumedMl": 1298,
      "fuelConsumedGallons": 0.343,
      "maxSpeedMph": 57.4,
      "averageSpeedMph": 11.7,
      "safetyEvents": []
    },
    {
      "id": "trip_47373145_20250506_002",
      "vehicleId": "47373145",
      "driverId": "20000006",
      "startMs": 1746518340000,
      "endMs": 1746522430488,
      "startAddress": "339 Taylor Spurs",
      "endAddress": "3640 Connie Shores Suite 265",
      "startCoords": {
        "latitude": 39.694553,
        "longitude": -105.01653
      },
      "endCoords": {
        "latitude": 39.736179,
        "longitude": -105.068304
      },
      "distanceMeters": 22055.6,
      "durationMs": 4090489,
      "drivingDurationMs": 3326806,
      "idlingDurationMs": 763683,
      "fuelConsumedMl": 2805,
      "fuelConsumedGallons": 0.741,
      "maxSpeedMph": 69.3,
      "averageSpeedMph": 12.1,
      "safetyEvents": [
        {
          "type": "speeding",
          "startMs": 1746521040000,
          "maxSpeedMph": 69.3
        }
      ]
    },
    {
      "id": "trip_47373145_20250506_003",
      "vehicleId": "47373145",
      "driverId": "20000006",
      "startMs": 1746545940000,
      "endMs": 1746556405444,
      "startAddress": "06741 Kevin Estates Apt. 367",
      "endAddress": "0667 Brady Row Apt. 260",
      "startCoords": {
        "latitude": 39.684165,
        "longitude": -105.070032
      },
      "endCoords": {
        "latitude": 39.779603,
        "longitude": -104.936215
      },
      "distanceMeters": 49764.4,
      "durationMs": 10465444,
      "drivingDurationMs": 8457729,
      "idlingDurationMs": 2007715,
      "fuelConsumedMl": 6325,
      "fuelConsumedGallons": 1.671,
      "maxSpeedMph": 54.4,
      "averageSpeedMph": 10.6,
      "safetyEvents": []
    },
    {
      "id": "trip_47373145_20250506_004",
      "vehicleId": "47373145",
      "driverId": "20000006",
      "startMs": 1746519840000,
      "endMs": 1746524831581,
      "startAddress": "2375 Davis Trafficway Apt. 478",
      "endAddress": "42828 Malone Mountain",
      "startCoords": {
        "latitude": 39.705323,
        "longitude": -104.922704
      },
      "endCoords": {
        "latitude": 39.810113,
        "longitude": -104.924215
      },
      "distanceMeters": 37683.1,
      "durationMs": 4991582,
      "drivingDurationMs": 4248235,
      "idlingDurationMs": 743346,
      "fuelConsumedMl": 4792,
      "fuelConsumedGallons": 1.266,
      "maxSpeedMph": 53.1,
      "averageSpeedMph": 16.9,
      "safetyEvents": []
    },
    {
      "id": "trip_47373145_20250507_001",
      "vehicleId": "47373145",
      "driverId": "20000002",
      "startMs": 1746622020000,
      "endMs": 1746627455030,
      "startAddress": "974 Dyer Freeway",
      "endAddress": "99552 Novak Divide",
      "startCoords": {
        "latitude": 39.775297,
        "longitude": -105.082849
      },
      "endCoords": {
        "latitude": 39.697018,
        "longitude": -104.937872
      },
      "distanceMeters": 27777.2,
      "durationMs": 5435030,
      "drivingDurationMs": 4491712,
      "idlingDurationMs": 943318,
      "fuelConsumedMl": 3532,
      "fuelConsumedGallons": 0.933,
      "maxSpeedMph": 34.4,
      "averageSpeedMph": 11.4,
      "safetyEvents": []
    },
    {
      "id": "trip_47373145_20250507_002",
      "vehicleId": "47373145",
      "driverId": "20000002",
      "startMs": 1746614100000,
      "endMs": 1746618456980,
      "startAddress": "42956 Ruiz Extensions",
      "endAddress": "2309 Alvarez Lake",
      "startCoords": {
        "latitude": 39.745016,
        "longitude": -105.014202
      },
      "endCoords": {
        "latitude": 39.810428,
        "longitude": -104.939106
      },
      "distanceMeters": 28959.5,
      "durationMs": 4356981,
      "drivingDurationMs": 3526615,
      "idlingDurationMs": 830366,
      "fuelConsumedMl": 3683,
      "fuelConsumedGallons": 0.973,
      "maxSpeedMph": 54.0,
      "averageSpeedMph": 14.9,
      "safetyEvents": []
    },
    {
      "id": "trip_47373145_20250507_003",
      "vehicleId": "47373145",
      "driverId": "20000002",
      "startMs": 1746641640000,
      "endMs": 1746649497634,
      "startAddress": "4784 Hector Plaza Apt. 052",
      "endAddress": "3582 Felicia Road Suite 491",
      "startCoords": {
        "latitude": 39.756056,
        "longitude": -105.078802
      },
      "endCoords": {
        "latitude": 39.753724,
        "longitude": -105.04163
      },
      "distanceMeters": 41332.6,
      "durationMs": 7857635,
      "drivingDurationMs": 7652937,
      "idlingDurationMs": 204698,
      "fuelConsumedMl": 5254,
      "fuelConsumedGallons": 1.388,
      "maxSpeedMph": 54.2,
      "averageSpeedMph": 11.8,
      "safetyEvents": []
    },
    {
      "id": "trip_47373145_20250508_001",
      "vehicleId": "47373145",
      "driverId": "20000013",
      "startMs": 1746700020000,
      "endMs": 1746715747059,
      "startAddress": "0363 Douglas Circles Suite 043",
      "endAddress": "9759 Denise Ports Suite 742",
      "startCoords": {
        "latitude": 39.796205,
        "longitude": -104.990714
      },
      "endCoords": {
        "latitude": 39.804368,
        "longitude": -104.960003
      },
      "distanceMeters": 76323.9,
      "durationMs": 15727060,
      "drivingDurationMs": 14083293,
      "idlingDurationMs": 1643767,
      "fuelConsumedMl": 9706,
      "fuelConsumedGallons": 2.564,
      "maxSpeedMph": 52.9,
      "averageSpeedMph": 10.9,
      "safetyEvents": []
    },
    {
      "id": "trip_47373145_20250508_002",
      "vehicleId": "47373145",
      "driverId": "20000013",
      "startMs": 1746698820000,
      "endMs": 1746709795632,
      "startAddress": "42506 Eric Way Apt. 177",
      "endAddress": "873 Garcia Drive",
      "startCoords": {
        "latitude": 39.779808,
        "longitude": -104.996835
      },
      "endCoords": {
        "latitude": 39.705786,
        "longitude": -104.944807
      },
      "distanceMeters": 83023.5,
      "durationMs": 10975633,
      "drivingDurationMs": 9567529,
      "idlingDurationMs": 1408103,
      "fuelConsumedMl": 10558,
      "fuelConsumedGallons": 2.789,
      "maxSpeedMph": 37.8,
      "averageSpeedMph": 16.9,
      "safetyEvents": []
    },
    {
      "id": "trip_47373145_20250508_003",
      "vehicleId": "47373145",
      "driverId": "20000013",
      "startMs": 1746726660000,
      "endMs": 1746736930164,
      "startAddress": "37706 Matthew Pass Suite 756",
      "endAddress": "960 Heather Lakes Apt. 112",
      "startCoords": {
        "latitude": 39.758697,
        "longitude": -105.013439
      },
      "endCoords": {
        "latitude": 39.70744,
        "longitude": -105.037433
      },
      "distanceMeters": 82697.6,
      "durationMs": 10270164,
      "drivingDurationMs": 9441071,
      "idlingDurationMs": 829093,
      "fuelConsumedMl": 10516,
      "fuelConsumedGallons": 2.778,
      "maxSpeedMph": 31.6,
      "averageSpeedMph": 18.0,
      "safetyEvents": []
    },
    {
      "id": "trip_47373145_20250508_004",
      "vehicleId": "47373145",
      "driverId": "20000013",
      "startMs": 1746719700000,
      "endMs": 1746732395761,
      "startAddress": "402 Brown Tunnel Suite 702",
      "endAddress": "911 Tracy Corners Apt. 324",
      "startCoords": {
        "latitude": 39.711518,
        "longitude": -105.00727
      },
      "endCoords": {
        "latitude": 39.746707,
        "longitude": -104.946489
      },
      "distanceMeters": 65610.9,
      "durationMs": 12695761,
      "drivingDurationMs": 11763168,
      "idlingDurationMs": 932593,
      "fuelConsumedMl": 8343,
      "fuelConsumedGallons": 2.204,
      "maxSpeedMph": 49.3,
      "averageSpeedMph": 11.6,
      "safetyEvents": []
    },
    {
      "id": "trip_47373145_20250509_001",
      "vehicleId": "47373145",
      "driverId": "20000008",
      "startMs": 1746772020000,
      "endMs": 1746773954134,
      "startAddress": "09825 Thompson Well",
      "endAddress": "02818 Taylor Ports Apt. 061",
      "startCoords": {
        "latitude": 39.688735,
        "longitude": -104.956749
      },
      "endCoords": {
        "latitude": 39.773936,
        "longitude": -104.981118
      },
      "distanceMeters": 14251.1,
      "durationMs": 1934134,
      "drivingDurationMs": 1732252,
      "idlingDurationMs": 201882,
      "fuelConsumedMl": 1813,
      "fuelConsumedGallons": 0.479,
      "maxSpeedMph": 37.1,
      "averageSpeedMph": 16.5,
      "safetyEvents": []
    },
    {
      "id": "trip_47373145_20250509_002",
      "vehicleId": "47373145",
      "driverId": "20000008",
      "startMs": 1746794220000,
      "endMs": 1746809775602,
      "startAddress": "2551 Heidi Plaza",
      "endAddress": "3984 Destiny Radial Apt. 544",
      "startCoords": {
        "latitude": 39.688992,
        "longitude": -104.98183
      },
      "endCoords": {
        "latitude": 39.700261,
        "longitude": -104.951226
      },
      "distanceMeters": 84745.9,
      "durationMs": 15555603,
      "drivingDurationMs": 12994740,
      "idlingDurationMs": 2560863,
      "fuelConsumedMl": 10773,
      "fuelConsumedGallons": 2.846,
      "maxSpeedMph": 63.3,
      "averageSpeedMph": 12.2,
      "safetyEvents": []
    },
    {
      "id": "trip_47373145_20250509_003",
      "vehicleId": "47373145",
      "driverId": "20000008",
      "startMs": 1746784320000,
      "endMs": 1746791959832,
      "startAddress": "10011 Stone Track Suite 859",
      "endAddress": "21218 Nancy Causeway Suite 752",
      "startCoords": {
        "latitude": 39.810013,
        "longitude": -104.912215
      },
      "endCoords": {
        "latitude": 39.772662,
        "longitude": -104.938236
      },
      "distanceMeters": 39886.4,
      "durationMs": 7639833,
      "drivingDurationMs": 7185536,
      "idlingDurationMs": 454297,
      "fuelConsumedMl": 5072,
      "fuelConsumedGallons": 1.34,
      "maxSpeedMph": 46.0,
      "averageSpeedMph": 11.7,
      "safetyEvents": []
    },
    {
      "id": "trip_47373145_20250510_001",
      "vehicleId": "47373145",
      "driverId": "20000010",
      "startMs": 1746877380000,
      "endMs": 1746881158100,
      "startAddress": "787 Gallegos Island",
      "endAddress": "24804 Lee Groves Apt. 704",
      "startCoords": {
        "latitude": 39.698469,
        "longitude": -105.062687
      },
      "endCoords": {
        "latitude": 39.762087,
        "longitude": -104.99097
      },
      "distanceMeters": 26196.3,
      "durationMs": 3778101,
      "drivingDurationMs": 3079759,
      "idlingDurationMs": 698342,
      "fuelConsumedMl": 3331,
      "fuelConsumedGallons": 0.88,
      "maxSpeedMph": 69.8,
      "averageSpeedMph": 15.5,
      "safetyEvents": [
        {
          "type": "speeding",
          "startMs": 1746878040000,
          "maxSpeedMph": 69.8
        }
      ]
    },
    {
      "id": "trip_47373145_20250510_002",
      "vehicleId": "47373145",
      "driverId": "20000010",
      "startMs": 1746901440000,
      "endMs": 1746910800000,
      "startAddress": "71520 Collins Mews Suite 025",
      "endAddress": "2200 Anderson Canyon Apt. 353",
      "startCoords": {
        "latitude": 39.827106,
        "longitude": -105.052012
      },
      "endCoords": {
        "latitude": 39.786677,
        "longitude": -104.980297
      },
      "distanceMeters": 55269.1,
      "durationMs": 9360000,
      "drivingDurationMs": 8400223,
      "idlingDurationMs": 959777,
      "fuelConsumedMl": 7026,
      "fuelConsumedGallons": 1.856,
      "maxSpeedMph": 47.3,
      "averageSpeedMph": 13.2,
      "safetyEvents": []
    },
    {
      "id": "trip_47373145_20250510_003",
      "vehicleId": "47373145",
      "driverId": "20000010",
      "startMs": 1746884640000,
      "endMs": 1746896052973,
      "startAddress": "71265 Parker Wells Apt. 068",
      "endAddress": "35798 Boyer Plains",
      "startCoords": {
        "latitude": 39.761223,
        "longitude": -104.902518
      },
      "endCoords": {
        "latitude": 39.825171,
        "longitude": -105.081717
      },
      "distanceMeters": 77042.2,
      "durationMs": 11412974,
      "drivingDurationMs": 9792333,
      "idlingDurationMs": 1620641,
      "fuelConsumedMl": 9797,
      "fuelConsumedGallons": 2.588,
      "maxSpeedMph": 55.9,
      "averageSpeedMph": 15.1,
      "safetyEvents": []
    },
    {
      "id": "trip_47373145_20250510_004",
      "vehicleId": "47373145",
      "driverId": "20000010",
      "startMs": 1746882120000,
      "endMs": 1746892451160,
      "startAddress": "639 Watkins Trafficway Suite 356",
      "endAddress": "93082 Eric Mountains",
      "startCoords": {
        "latitude": 39.725095,
        "longitude": -105.022579
      },
      "endCoords": {
        "latitude": 39.811952,
        "longitude": -104.993566
      },
      "distanceMeters": 84284.6,
      "durationMs": 10331161,
      "drivingDurationMs": 9893610,
      "idlingDurationMs": 437550,
      "fuelConsumedMl": 10716,
      "fuelConsumedGallons": 2.831,
      "maxSpeedMph": 52.1,
      "averageSpeedMph": 18.2,
      "safetyEvents": []
    },
    {
      "id": "trip_47373145_20250511_001",
      "vehicleId": "47373145",
      "driverId": "20000005",
      "startMs": 1746958320000,
      "endMs": 1746964389129,
      "startAddress": "32289 Davis Forks",
      "endAddress": "52360 Kristi Hills",
      "startCoords": {
        "latitude": 39.704318,
        "longitude": -105.008519
      },
      "endCoords": {
        "latitude": 39.713824,
        "longitude": -104.971357
      },
      "distanceMeters": 40909.2,
      "durationMs": 6069130,
      "drivingDurationMs": 5079721,
      "idlingDurationMs": 989409,
      "fuelConsumedMl": 5201,
      "fuelConsumedGallons": 1.374,
      "maxSpeedMph": 67.3,
      "averageSpeedMph": 15.1,
      "safetyEvents": [
        {
          "type": "speeding",
          "startMs": 1746960360000,
          "maxSpeedMph": 67.3
        }
      ]
    },
    {
      "id": "trip_47373145_20250511_002",
      "vehicleId": "47373145",
      "driverId": "20000005",
      "startMs": 1746988860000,
      "endMs": 1746995183919,
      "startAddress": "651 Taylor Isle",
      "endAddress": "80821 Hannah Mission",
      "startCoords": {
        "latitude": 39.821366,
        "longitude": -105.026994
      },
      "endCoords": {
        "latitude": 39.754932,
        "longitude": -104.926253
      },
      "distanceMeters": 28622.5,
      "durationMs": 6323919,
      "drivingDurationMs": 5117205,
      "idlingDurationMs": 1206714,
      "fuelConsumedMl": 3638,
      "fuelConsumedGallons": 0.961,
      "maxSpeedMph": 63.0,
      "averageSpeedMph": 10.1,
      "safetyEvents": []
    },
    {
      "id": "trip_47373145_20250511_003",
      "vehicleId": "47373145",
      "driverId": "20000005",
      "startMs": 1746957960000,
      "endMs": 1746962662814,
      "startAddress": "582 King Mill",
      "endAddress": "5223 Bentley Orchard Apt. 544",
      "startCoords": {
        "latitude": 39.816546,
        "longitude": -105.017267
      },
      "endCoords": {
        "latitude": 39.687069,
        "longitude": -105.072917
      },
      "distanceMeters": 34647.1,
      "durationMs": 4702814,
      "drivingDurationMs": 4492457,
      "idlingDurationMs": 210357,
      "fuelConsumedMl": 4406,
      "fuelConsumedGallons": 1.164,
      "maxSpeedMph": 30.1,
      "averageSpeedMph": 16.5,
      "safetyEvents": []
    },
    {
      "id": "trip_47373145_20250511_004",
      "vehicleId": "47373145",
      "driverId": "20000005",
      "startMs": 1746948420000,
      "endMs": 1746956464674,
      "startAddress": "97494 Victoria Centers",
      "endAddress": "291 Tyler Common Apt. 011",
      "startCoords": {
        "latitude": 39.781373,
        "longitude": -104.975694
      },
      "endCoords": {
        "latitude": 39.767337,
        "longitude": -105.000074
      },
      "distanceMeters": 55985.1,
      "durationMs": 8044674,
      "drivingDurationMs": 7820939,
      "idlingDurationMs": 223736,
      "fuelConsumedMl": 7117,
      "fuelConsumedGallons": 1.88,
      "maxSpeedMph": 66.4,
      "averageSpeedMph": 15.6,
      "safetyEvents": [
        {
          "type": "speeding",
          "startMs": 1746949200000,
          "maxSpeedMph": 66.4
        }
      ]
    },
    {
      "id": "trip_47373145_20250512_001",
      "vehicleId": "47373145",
      "driverId": "20000019",
      "startMs": 1747052040000,
      "endMs": 1747055762180,
      "startAddress": "185 Crystal Stream",
      "endAddress": "81357 Cummings Dam Suite 267",
      "startCoords": {
        "latitude": 39.825914,
        "longitude": -105.003565
      },
      "endCoords": {
        "latitude": 39.715519,
        "longitude": -104.947665
      },
      "distanceMeters": 21277.3,
      "durationMs": 3722180,
      "drivingDurationMs": 3351306,
      "idlingDurationMs": 370874,
      "fuelConsumedMl": 2707,
      "fuelConsumedGallons": 0.715,
      "maxSpeedMph": 38.9,
      "averageSpeedMph": 12.8,
      "safetyEvents": []
    },
    {
      "id": "trip_47373145_20250512_002",
      "vehicleId": "47373145",
      "driverId": "20000019",
      "startMs": 1747073760000,
      "endMs": 1747083600000,
      "startAddress": "437 Tracy Isle Suite 486",
      "endAddress": "00493 Grant Spur",
      "startCoords": {
        "latitude": 39.795912,
        "longitude": -104.930412
      },
      "endCoords": {
        "latitude": 39.748396,
        "longitude": -105.087533
      },
      "distanceMeters": 62959.0,
      "durationMs": 9840000,
      "drivingDurationMs": 8827265,
      "idlingDurationMs": 1012735,
      "fuelConsumedMl": 8006,
      "fuelConsumedGallons": 2.115,
      "maxSpeedMph": 28.0,
      "averageSpeedMph": 14.3,
      "safetyEvents": []
    },
    {
      "id": "trip_47373145_20250512_003",
      "vehicleId": "47373145",
      "driverId": "20000019",
      "startMs": 1747045920000,
      "endMs": 1747056718365,
      "startAddress": "672 Cain River Suite 025",
      "endAddress": "3329 Harris Freeway Suite 441",
      "startCoords": {
        "latitude": 39.79311,
        "longitude": -105.010529
      },
      "endCoords": {
        "latitude": 39.809874,
        "longitude": -105.071391
      },
      "distanceMeters": 54232.4,
      "durationMs": 10798366,
      "drivingDurationMs": 10314578,
      "idlingDurationMs": 483787,
      "fuelConsumedMl": 6897,
      "fuelConsumedGallons": 1.822,
      "maxSpeedMph": 45.9,
      "averageSpeedMph": 11.2,
      "safetyEvents": []
    },
    {
      "id": "trip_47373145_20250512_004",
      "vehicleId": "47373145",
      "driverId": "20000019",
      "startMs": 1747031940000,
      "endMs": 1747035555707,
      "startAddress": "3746 Strickland Brooks",
      "endAddress": "7325 Allen Alley Suite 272",
      "startCoords": {
        "latitude": 39.731298,
        "longitude": -105.060918
      },
      "endCoords": {
        "latitude": 39.697208,
        "longitude": -104.911853
      },
      "distanceMeters": 22874.7,
      "durationMs": 3615708,
      "drivingDurationMs": 3175072,
      "idlingDurationMs": 440636,
      "fuelConsumedMl": 2907,
      "fuelConsumedGallons": 0.768,
      "maxSpeedMph": 35.7,
      "averageSpeedMph": 14.2,
      "safetyEvents": []
    },
    {
      "id": "trip_47373145_20250513_001",
      "vehicleId": "47373145",
      "driverId": "20000007",
      "startMs": 1747124460000,
      "endMs": 1747133064682,
      "startAddress": "4087 Rose Stream",
      "endAddress": "4252 Richard Via",
      "startCoords": {
        "latitude": 39.747713,
        "longitude": -105.016581
      },
      "endCoords": {
        "latitude": 39.757022,
        "longitude": -105.043591
      },
      "distanceMeters": 43036.2,
      "durationMs": 8604682,
      "drivingDurationMs": 8047170,
      "idlingDurationMs": 557512,
      "fuelConsumedMl": 5470,
      "fuelConsumedGallons": 1.445,
      "maxSpeedMph": 54.6,
      "averageSpeedMph": 11.2,
      "safetyEvents": []
    },
    {
      "id": "trip_47373145_20250513_002",
      "vehicleId": "47373145",
      "driverId": "20000007",
      "startMs": 1747143480000,
      "endMs": 1747144530261,
      "startAddress": "746 Hannah Via",
      "endAddress": "52139 Mercado Plains Apt. 370",
      "startCoords": {
        "latitude": 39.79802,
        "longitude": -104.920607
      },
      "endCoords": {
        "latitude": 39.744214,
        "longitude": -105.016833
      },
      "distanceMeters": 5581.2,
      "durationMs": 1050261,
      "drivingDurationMs": 850919,
      "idlingDurationMs": 199342,
      "fuelConsumedMl": 708,
      "fuelConsumedGallons": 0.187,
      "maxSpeedMph": 58.7,
      "averageSpeedMph": 11.9,
      "safetyEvents": []
    },
    {
      "id": "trip_47373145_20250514_001",
      "vehicleId": "47373145",
      "driverId": "20000016",
      "startMs": 1747228800000,
      "endMs": 1747239137917,
      "startAddress": "267 Roberts Avenue",
      "endAddress": "332 Benjamin Drive",
      "startCoords": {
        "latitude": 39.722017,
        "longitude": -105.036551
      },
      "endCoords": {
        "latitude": 39.719866,
        "longitude": -105.050749
      },
      "distanceMeters": 43931.1,
      "durationMs": 10337918,
      "drivingDurationMs": 8347190,
      "idlingDurationMs": 1990728,
      "fuelConsumedMl": 5587,
      "fuelConsumedGallons": 1.476,
      "maxSpeedMph": 55.9,
      "averageSpeedMph": 9.5,
      "safetyEvents": []
    },
    {
      "id": "trip_47373145_20250514_002",
      "vehicleId": "47373145",
      "driverId": "20000016",
      "startMs": 1747231680000,
      "endMs": 1747240892487,
      "startAddress": "51240 Sierra Extension Apt. 538",
      "endAddress": "231 William Motorway Apt. 786",
      "startCoords": {
        "latitude": 39.784121,
        "longitude": -105.019642
      },
      "endCoords": {
        "latitude": 39.69205,
        "longitude": -105.002437
      },
      "distanceMeters": 68168.4,
      "durationMs": 9212488,
      "drivingDurationMs": 7967195,
      "idlingDurationMs": 1245293,
      "fuelConsumedMl": 8669,
      "fuelConsumedGallons": 2.29,
      "maxSpeedMph": 43.7,
      "averageSpeedMph": 16.6,
      "safetyEvents": []
    },
    {
      "id": "trip_47373145_20250514_003",
      "vehicleId": "47373145",
      "driverId": "20000016",
      "startMs": 1747249140000,
      "endMs": 1747256400000,
      "startAddress": "4960 Moore View Apt. 443",
      "endAddress": "945 Decker Locks Suite 917",
      "startCoords": {
        "latitude": 39.800781,
        "longitude": -104.992592
      },
      "endCoords": {
        "latitude": 39.804625,
        "longitude": -105.058995
      },
      "distanceMeters": 36121.9,
      "durationMs": 7260000,
      "drivingDurationMs": 6419631,
      "idlingDurationMs": 840369,
      "fuelConsumedMl": 4592,
      "fuelConsumedGallons": 1.213,
      "maxSpeedMph": 62.3,
      "averageSpeedMph": 11.1,
      "safetyEvents": []
    },
    {
      "id": "trip_47373145_20250514_004",
      "vehicleId": "47373145",
      "driverId": "20000016",
      "startMs": 1747238220000,
      "endMs": 1747242233387,
      "startAddress": "78170 Villanueva Viaduct Apt. 423",
      "endAddress": "13660 Deborah Glen Suite 334",
      "startCoords": {
        "latitude": 39.820841,
        "longitude": -105.012646
      },
      "endCoords": {
        "latitude": 39.813518,
        "longitude": -104.90427
      },
      "distanceMeters": 21503.6,
      "durationMs": 4013388,
      "drivingDurationMs": 3462468,
      "idlingDurationMs": 550920,
      "fuelConsumedMl": 2733,
      "fuelConsumedGallons": 0.722,
      "maxSpeedMph": 30.5,
      "averageSpeedMph": 12.0,
      "safetyEvents": []
    },
    {
      "id": "trip_47373145_20250515_001",
      "vehicleId": "47373145",
      "driverId": "20000007",
      "startMs": 1747334400000,
      "endMs": 1747339371237,
      "startAddress": "1475 Jennifer Skyway Suite 777",
      "endAddress": "54484 Kimberly Corner Suite 029",
      "startCoords": {
        "latitude": 39.781739,
        "longitude": -105.077303
      },
      "endCoords": {
        "latitude": 39.805393,
        "longitude": -104.975844
      },
      "distanceMeters": 34049.1,
      "durationMs": 4971238,
      "drivingDurationMs": 4660007,
      "idlingDurationMs": 311231,
      "fuelConsumedMl": 4331,
      "fuelConsumedGallons": 1.144,
      "maxSpeedMph": 31.4,
      "averageSpeedMph": 15.3,
      "safetyEvents": []
    },
    {
      "id": "trip_47373145_20250515_002",
      "vehicleId": "47373145",
      "driverId": "20000007",
      "startMs": 1747325160000,
      "endMs": 1747334881147,
      "startAddress": "369 Baker Path Apt. 228",
      "endAddress": "31473 Williams Dale",
      "startCoords": {
        "latitude": 39.691881,
        "longitude": -105.044839
      },
      "endCoords": {
        "latitude": 39.805932,
        "longitude": -104.978443
      },
      "distanceMeters": 83175.4,
      "durationMs": 9721147,
      "drivingDurationMs": 9447673,
      "idlingDurationMs": 273474,
      "fuelConsumedMl": 10576,
      "fuelConsumedGallons": 2.794,
      "maxSpeedMph": 44.9,
      "averageSpeedMph": 19.1,
      "safetyEvents": []
    },
    {
      "id": "trip_47373145_20250515_003",
      "vehicleId": "47373145",
      "driverId": "20000007",
      "startMs": 1747308060000,
      "endMs": 1747315996967,
      "startAddress": "4999 Michael Cliff",
      "endAddress": "379 Hunt Island",
      "startCoords": {
        "latitude": 39.765291,
        "longitude": -105.038596
      },
      "endCoords": {
        "latitude": 39.722332,
        "longitude": -104.96612
      },
      "distanceMeters": 61925.3,
      "durationMs": 7936967,
      "drivingDurationMs": 7504767,
      "idlingDurationMs": 432201,
      "fuelConsumedMl": 7874,
      "fuelConsumedGallons": 2.08,
      "maxSpeedMph": 31.7,
      "averageSpeedMph": 17.5,
      "safetyEvents": []
    },
    {
      "id": "trip_47373145_20250515_004",
      "vehicleId": "47373145",
      "driverId": "20000007",
      "startMs": 1747323660000,
      "endMs": 1747326217555,
      "startAddress": "727 Richard Common Apt. 666",
      "endAddress": "38119 Chavez Road",
      "startCoords": {
        "latitude": 39.805709,
        "longitude": -105.07208
      },
      "endCoords": {
        "latitude": 39.81575,
        "longitude": -105.081963
      },
      "distanceMeters": 14134.2,
      "durationMs": 2557556,
      "drivingDurationMs": 2303608,
      "idlingDurationMs": 253948,
      "fuelConsumedMl": 1798,
      "fuelConsumedGallons": 0.475,
      "maxSpeedMph": 50.8,
      "averageSpeedMph": 12.4,
      "safetyEvents": []
    },
    {
      "id": "trip_47373145_20250515_005",
      "vehicleId": "47373145",
      "driverId": "20000007",
      "startMs": 1747290540000,
      "endMs": 1747296290623,
      "startAddress": "54951 Beasley Mission Suite 211",
      "endAddress": "37323 Carpenter Track",
      "startCoords": {
        "latitude": 39.781575,
        "longitude": -104.971883
      },
      "endCoords": {
        "latitude": 39.701337,
        "longitude": -104.929894
      },
      "distanceMeters": 40716.4,
      "durationMs": 5750624,
      "drivingDurationMs": 5106832,
      "idlingDurationMs": 643792,
      "fuelConsumedMl": 5178,
      "fuelConsumedGallons": 1.368,
      "maxSpeedMph": 65.7,
      "averageSpeedMph": 15.8,
      "safetyEvents": [
        {
          "type": "speeding",
          "startMs": 1747293000000,
          "maxSpeedMph": 65.7
        }
      ]
    },
    {
      "id": "trip_47373145_20250516_001",
      "vehicleId": "47373145",
      "driverId": "20000022",
      "startMs": 1747417380000,
      "endMs": 1747429200000,
      "startAddress": "52228 Chang Islands Suite 307",
      "endAddress": "329 Mark Grove",
      "startCoords": {
        "latitude": 39.716606,
        "longitude": -104.968338
      },
      "endCoords": {
        "latitude": 39.754495,
        "longitude": -104.990129
      },
      "distanceMeters": 65783.0,
      "durationMs": 11820000,
      "drivingDurationMs": 9569157,
      "idlingDurationMs": 2250843,
      "fuelConsumedMl": 8362,
      "fuelConsumedGallons": 2.209,
      "maxSpeedMph": 40.1,
      "averageSpeedMph": 12.4,
      "safetyEvents": []
    },
    {
      "id": "trip_47373145_20250516_002",
      "vehicleId": "47373145",
      "driverId": "20000022",
      "startMs": 1747390260000,
      "endMs": 1747394082351,
      "startAddress": "690 Schmidt Path",
      "endAddress": "406 Hill Curve Suite 342",
      "startCoords": {
        "latitude": 39.724607,
        "longitude": -104.914275
      },
      "endCoords": {
        "latitude": 39.707631,
        "longitude": -105.038544
      },
      "distanceMeters": 30379.9,
      "durationMs": 3822351,
      "drivingDurationMs": 3544602,
      "idlingDurationMs": 277749,
      "fuelConsumedMl": 3861,
      "fuelConsumedGallons": 1.02,
      "maxSpeedMph": 29.4,
      "averageSpeedMph": 17.8,
      "safetyEvents": []
    },
    {
      "id": "trip_47373145_20250516_003",
      "vehicleId": "47373145",
      "driverId": "20000022",
      "startMs": 1747419840000,
      "endMs": 1747428813681,
      "startAddress": "50445 Cochran Trail Suite 341",
      "endAddress": "89940 Martin Estate",
      "startCoords": {
        "latitude": 39.744044,
        "longitude": -104.939803
      },
      "endCoords": {
        "latitude": 39.78745,
        "longitude": -104.954781
      },
      "distanceMeters": 63657.0,
      "durationMs": 8973682,
      "drivingDurationMs": 7527777,
      "idlingDurationMs": 1445905,
      "fuelConsumedMl": 8093,
      "fuelConsumedGallons": 2.138,
      "maxSpeedMph": 53.3,
      "averageSpeedMph": 15.9,
      "safetyEvents": []
    },
    {
      "id": "trip_47373145_20250516_004",
      "vehicleId": "47373145",
      "driverId": "20000022",
      "startMs": 1747414740000,
      "endMs": 1747416487399,
      "startAddress": "176 Brooke Wall Apt. 646",
      "endAddress": "633 Allen Wells Apt. 610",
      "startCoords": {
        "latitude": 39.792728,
        "longitude": -104.95593
      },
      "endCoords": {
        "latitude": 39.689779,
        "longitude": -105.067042
      },
      "distanceMeters": 9266.5,
      "durationMs": 1747400,
      "drivingDurationMs": 1409066,
      "idlingDurationMs": 338334,
      "fuelConsumedMl": 1177,
      "fuelConsumedGallons": 0.311,
      "maxSpeedMph": 51.6,
      "averageSpeedMph": 11.9,
      "safetyEvents": []
    },
    {
      "id": "trip_47373145_20250516_005",
      "vehicleId": "47373145",
      "driverId": "20000022",
      "startMs": 1747413180000,
      "endMs": 1747421171201,
      "startAddress": "2205 Hunt Burg",
      "endAddress": "386 Hernandez Islands",
      "startCoords": {
        "latitude": 39.739131,
        "longitude": -105.008409
      },
      "endCoords": {
        "latitude": 39.71319,
        "longitude": -104.936271
      },
      "distanceMeters": 47288.7,
      "durationMs": 7991202,
      "drivingDurationMs": 6647491,
      "idlingDurationMs": 1343711,
      "fuelConsumedMl": 6011,
      "fuelConsumedGallons": 1.588,
      "maxSpeedMph": 31.5,
      "averageSpeedMph": 13.2,
      "safetyEvents": []
    },
    {
      "id": "trip_47373145_20250516_006",
      "vehicleId": "47373145",
      "driverId": "20000022",
      "startMs": 1747384860000,
      "endMs": 1747386414489,
      "startAddress": "15422 Jody Roads Suite 530",
      "endAddress": "7185 Miller Loop Apt. 408",
      "startCoords": {
        "latitude": 39.703628,
        "longitude": -104.914207
      },
      "endCoords": {
        "latitude": 39.694118,
        "longitude": -104.964524
      },
      "distanceMeters": 11290.5,
      "durationMs": 1554490,
      "drivingDurationMs": 1345951,
      "idlingDurationMs": 208539,
      "fuelConsumedMl": 1435,
      "fuelConsumedGallons": 0.379,
      "maxSpeedMph": 50.3,
      "averageSpeedMph": 16.2,
      "safetyEvents": []
    },
    {
      "id": "trip_47373145_20250517_001",
      "vehicleId": "47373145",
      "driverId": "20000004",
      "startMs": 1747469700000,
      "endMs": 1747473027485,
      "startAddress": "22998 Mindy Center",
      "endAddress": "30428 Jamie Summit Apt. 800",
      "startCoords": {
        "latitude": 39.78427,
        "longitude": -104.92206
      },
      "endCoords": {
        "latitude": 39.738745,
        "longitude": -104.961462
      },
      "distanceMeters": 19624.7,
      "durationMs": 3327486,
      "drivingDurationMs": 2954760,
      "idlingDurationMs": 372726,
      "fuelConsumedMl": 2495,
      "fuelConsumedGallons": 0.659,
      "maxSpeedMph": 42.2,
      "averageSpeedMph": 13.2,
      "safetyEvents": []
    },
    {
      "id": "trip_47373145_20250518_001",
      "vehicleId": "47373145",
      "driverId": "20000013",
      "startMs": 1747576440000,
      "endMs": 1747589424863,
      "startAddress": "1315 Preston Forest Apt. 480",
      "endAddress": "43849 Jones Garden Suite 745",
      "startCoords": {
        "latitude": 39.788114,
        "longitude": -104.94523
      },
      "endCoords": {
        "latitude": 39.762688,
        "longitude": -105.051238
      },
      "distanceMeters": 79388.8,
      "durationMs": 12984863,
      "drivingDurationMs": 10704852,
      "idlingDurationMs": 2280011,
      "fuelConsumedMl": 10092,
      "fuelConsumedGallons": 2.666,
      "maxSpeedMph": 69.9,
      "averageSpeedMph": 13.7,
      "safetyEvents": [
        {
          "type": "speeding",
          "startMs": 1747583520000,
          "maxSpeedMph": 69.9
        }
      ]
    },
    {
      "id": "trip_47373145_20250519_001",
      "vehicleId": "47373145",
      "driverId": "20000009",
      "startMs": 1747647480000,
      "endMs": 1747654724828,
      "startAddress": "3389 Webb Lodge",
      "endAddress": "770 Thompson Common Apt. 873",
      "startCoords": {
        "latitude": 39.793996,
        "longitude": -105.062875
      },
      "endCoords": {
        "latitude": 39.691687,
        "longitude": -105.084472
      },
      "distanceMeters": 36787.3,
      "durationMs": 7244828,
      "drivingDurationMs": 6205119,
      "idlingDurationMs": 1039710,
      "fuelConsumedMl": 4679,
      "fuelConsumedGallons": 1.236,
      "maxSpeedMph": 61.2,
      "averageSpeedMph": 11.4,
      "safetyEvents": []
    },
    {
      "id": "trip_47373145_20250519_002",
      "vehicleId": "47373145",
      "driverId": "20000009",
      "startMs": 1747672260000,
      "endMs": 1747675341359,
      "startAddress": "904 Gallagher Brooks Apt. 698",
      "endAddress": "11152 Duncan Greens",
      "startCoords": {
        "latitude": 39.715776,
        "longitude": -105.042321
      },
      "endCoords": {
        "latitude": 39.741387,
        "longitude": -104.997438
      },
      "distanceMeters": 19105.9,
      "durationMs": 3081360,
      "drivingDurationMs": 2871810,
      "idlingDurationMs": 209550,
      "fuelConsumedMl": 2430,
      "fuelConsumedGallons": 0.642,
      "maxSpeedMph": 56.1,
      "averageSpeedMph": 13.9,
      "safetyEvents": []
    },
    {
      "id": "trip_47373145_20250519_003",
      "vehicleId": "47373145",
      "driverId": "20000009",
      "startMs": 1747672440000,
      "endMs": 1747676868246,
      "startAddress": "26345 Albert Green Apt. 876",
      "endAddress": "753 Jones Roads Suite 182",
      "startCoords": {
        "latitude": 39.772992,
        "longitude": -104.949772
      },
      "endCoords": {
        "latitude": 39.787676,
        "longitude": -104.982096
      },
      "distanceMeters": 29656.8,
      "durationMs": 4428246,
      "drivingDurationMs": 4099524,
      "idlingDurationMs": 328722,
      "fuelConsumedMl": 3770,
      "fuelConsumedGallons": 0.996,
      "maxSpeedMph": 55.6,
      "averageSpeedMph": 15.0,
      "safetyEvents": []
    },
    {
      "id": "trip_47373145_20250519_004",
      "vehicleId": "47373145",
      "driverId": "20000009",
      "startMs": 1747652760000,
      "endMs": 1747656368727,
      "startAddress": "063 Robert Crossing Apt. 826",
      "endAddress": "05052 Jones Lodge Suite 547",
      "startCoords": {
        "latitude": 39.808223,
        "longitude": -105.029588
      },
      "endCoords": {
        "latitude": 39.782977,
        "longitude": -105.04076
      },
      "distanceMeters": 29031.4,
      "durationMs": 3608728,
      "drivingDurationMs": 3408218,
      "idlingDurationMs": 200510,
      "fuelConsumedMl": 3691,
      "fuelConsumedGallons": 0.975,
      "maxSpeedMph": 39.9,
      "averageSpeedMph": 18.0,
      "safetyEvents": []
    },
    {
      "id": "trip_47373145_20250520_001",
      "vehicleId": "47373145",
      "driverId": "20000009",
      "startMs": 1747739040000,
      "endMs": 1747750527191,
      "startAddress": "375 Stewart Village Apt. 210",
      "endAddress": "031 Smith Ford Suite 275",
      "startCoords": {
        "latitude": 39.703009,
        "longitude": -104.994157
      },
      "endCoords": {
        "latitude": 39.708987,
        "longitude": -104.970852
      },
      "distanceMeters": 54244.2,
      "durationMs": 11487192,
      "drivingDurationMs": 9206119,
      "idlingDurationMs": 2281073,
      "fuelConsumedMl": 6897,
      "fuelConsumedGallons": 1.822,
      "maxSpeedMph": 57.0,
      "averageSpeedMph": 10.6,
      "safetyEvents": []
    },
    {
      "id": "trip_47373145_20250520_002",
      "vehicleId": "47373145",
      "driverId": "20000009",
      "startMs": 1747753920000,
      "endMs": 1747757643821,
      "startAddress": "1674 Ferguson Light",
      "endAddress": "953 Perez Mews",
      "startCoords": {
        "latitude": 39.761542,
        "longitude": -104.932972
      },
      "endCoords": {
        "latitude": 39.772505,
        "longitude": -105.014458
      },
      "distanceMeters": 21996.7,
      "durationMs": 3723822,
      "drivingDurationMs": 3278820,
      "idlingDurationMs": 445002,
      "fuelConsumedMl": 2797,
      "fuelConsumedGallons": 0.739,
      "maxSpeedMph": 60.5,
      "averageSpeedMph": 13.2,
      "safetyEvents": []
    },
    {
      "id": "trip_47373145_20250521_001",
      "vehicleId": "47373145",
      "driverId": "20000018",
      "startMs": 1747843200000,
      "endMs": 1747844534474,
      "startAddress": "5900 Michelle Course Suite 125",
      "endAddress": "54710 Black Common",
      "startCoords": {
        "latitude": 39.768304,
        "longitude": -104.914107
      },
      "endCoords": {
        "latitude": 39.751508,
        "longitude": -104.93369
      },
      "distanceMeters": 5602.0,
      "durationMs": 1334475,
      "drivingDurationMs": 1078099,
      "idlingDurationMs": 256375,
      "fuelConsumedMl": 712,
      "fuelConsumedGallons": 0.188,
      "maxSpeedMph": 45.1,
      "averageSpeedMph": 9.4,
      "safetyEvents": []
    },
    {
      "id": "trip_47373145_20250521_002",
      "vehicleId": "47373145",
      "driverId": "20000018",
      "startMs": 1747820640000,
      "endMs": 1747821704986,
      "startAddress": "77735 Tyler Mountains Suite 294",
      "endAddress": "972 Welch Vista Suite 777",
      "startCoords": {
        "latitude": 39.73151,
        "longitude": -104.925081
      },
      "endCoords": {
        "latitude": 39.817157,
        "longitude": -104.926542
      },
      "distanceMeters": 7085.2,
      "durationMs": 1064987,
      "drivingDurationMs": 861798,
      "idlingDurationMs": 203188,
      "fuelConsumedMl": 901,
      "fuelConsumedGallons": 0.238,
      "maxSpeedMph": 50.7,
      "averageSpeedMph": 14.9,
      "safetyEvents": []
    },
    {
      "id": "trip_47373145_20250521_003",
      "vehicleId": "47373145",
      "driverId": "20000018",
      "startMs": 1747836900000,
      "endMs": 1747843633781,
      "startAddress": "63030 Ramirez Prairie Suite 606",
      "endAddress": "3560 David Spurs",
      "startCoords": {
        "latitude": 39.766152,
        "longitude": -105.002034
      },
      "endCoords": {
        "latitude": 39.717909,
        "longitude": -105.066163
      },
      "distanceMeters": 52871.7,
      "durationMs": 6733782,
      "drivingDurationMs": 6188426,
      "idlingDurationMs": 545356,
      "fuelConsumedMl": 6723,
      "fuelConsumedGallons": 1.776,
      "maxSpeedMph": 60.5,
      "averageSpeedMph": 17.6,
      "safetyEvents": []
    },
    {
      "id": "trip_47373145_20250522_001",
      "vehicleId": "47373145",
      "driverId": "20000012",
      "startMs": 1747928400000,
      "endMs": 1747939578698,
      "startAddress": "2272 Rodriguez Row Apt. 095",
      "endAddress": "622 Stout Tunnel",
      "startCoords": {
        "latitude": 39.77068,
        "longitude": -104.986724
      },
      "endCoords": {
        "latitude": 39.698662,
        "longitude": -105.016781
      },
      "distanceMeters": 50856.1,
      "durationMs": 11178699,
      "drivingDurationMs": 9119197,
      "idlingDurationMs": 2059501,
      "fuelConsumedMl": 6465,
      "fuelConsumedGallons": 1.708,
      "maxSpeedMph": 46.6,
      "averageSpeedMph": 10.2,
      "safetyEvents": []
    },
    {
      "id": "trip_47373145_20250522_002",
      "vehicleId": "47373145",
      "driverId": "20000012",
      "startMs": 1747902600000,
      "endMs": 1747910178283,
      "startAddress": "445 Chandler Route",
      "endAddress": "58909 Elizabeth Skyway",
      "startCoords": {
        "latitude": 39.692209,
        "longitude": -104.993715
      },
      "endCoords": {
        "latitude": 39.720804,
        "longitude": -105.009917
      },
      "distanceMeters": 41385.4,
      "durationMs": 7578283,
      "drivingDurationMs": 6647336,
      "idlingDurationMs": 930947,
      "fuelConsumedMl": 5262,
      "fuelConsumedGallons": 1.39,
      "maxSpeedMph": 60.9,
      "averageSpeedMph": 12.2,
      "safetyEvents": []
    },
    {
      "id": "trip_47373145_20250523_001",
      "vehicleId": "47373145",
      "driverId": "20000001",
      "startMs": 1748018580000,
      "endMs": 1748024891100,
      "startAddress": "2433 Camacho Common Suite 111",
      "endAddress": "739 Jennifer Drive Suite 806",
      "startCoords": {
        "latitude": 39.747701,
        "longitude": -105.086574
      },
      "endCoords": {
        "latitude": 39.711297,
        "longitude": -104.975612
      },
      "distanceMeters": 39080.9,
      "durationMs": 6311100,
      "drivingDurationMs": 5702271,
      "idlingDurationMs": 608829,
      "fuelConsumedMl": 4970,
      "fuelConsumedGallons": 1.313,
      "maxSpeedMph": 68.6,
      "averageSpeedMph": 13.9,
      "safetyEvents": [
        {
          "type": "speeding",
          "startMs": 1748020380000,
          "maxSpeedMph": 68.6
        }
      ]
    },
    {
      "id": "trip_47373145_20250523_002",
      "vehicleId": "47373145",
      "driverId": "20000001",
      "startMs": 1748022480000,
      "endMs": 1748025422287,
      "startAddress": "3681 Christina Highway",
      "endAddress": "098 Tammy Green",
      "startCoords": {
        "latitude": 39.795413,
        "longitude": -104.950077
      },
      "endCoords": {
        "latitude": 39.827486,
        "longitude": -104.91163
      },
      "distanceMeters": 21004.6,
      "durationMs": 2942288,
      "drivingDurationMs": 2738314,
      "idlingDurationMs": 203974,
      "fuelConsumedMl": 2669,
      "fuelConsumedGallons": 0.705,
      "maxSpeedMph": 69.8,
      "averageSpeedMph": 16.0,
      "safetyEvents": [
        {
          "type": "speeding",
          "startMs": 1748022780000,
          "maxSpeedMph": 69.8
        }
      ]
    },
    {
      "id": "trip_47373145_20250524_001",
      "vehicleId": "47373145",
      "driverId": "20000001",
      "startMs": 1748103180000,
      "endMs": 1748117353802,
      "startAddress": "7419 Charles Cliffs",
      "endAddress": "054 Laura Trail",
      "startCoords": {
        "latitude": 39.690053,
        "longitude": -105.083733
      },
      "endCoords": {
        "latitude": 39.706717,
        "longitude": -105.05607
      },
      "distanceMeters": 62846.1,
      "durationMs": 14173803,
      "drivingDurationMs": 11440919,
      "idlingDurationMs": 2732884,
      "fuelConsumedMl": 7991,
      "fuelConsumedGallons": 2.111,
      "maxSpeedMph": 38.7,
      "averageSpeedMph": 9.9,
      "safetyEvents": []
    },
    {
      "id": "trip_47373145_20250524_002",
      "vehicleId": "47373145",
      "driverId": "20000001",
      "startMs": 1748096460000,
      "endMs": 1748100901480,
      "startAddress": "20125 Pearson Lakes",
      "endAddress": "592 Donna Course",
      "startCoords": {
        "latitude": 39.805789,
        "longitude": -104.95306
      },
      "endCoords": {
        "latitude": 39.790874,
        "longitude": -104.963669
      },
      "distanceMeters": 24306.1,
      "durationMs": 4441480,
      "drivingDurationMs": 3877628,
      "idlingDurationMs": 563852,
      "fuelConsumedMl": 3089,
      "fuelConsumedGallons": 0.816,
      "maxSpeedMph": 50.4,
      "averageSpeedMph": 12.2,
      "safetyEvents": []
    },
    {
      "id": "trip_47373145_20250525_001",
      "vehicleId": "47373145",
      "driverId": "20000012",
      "startMs": 1748190060000,
      "endMs": 1748194519060,
      "startAddress": "44652 Robyn Union Apt. 495",
      "endAddress": "516 Watkins Burgs",
      "startCoords": {
        "latitude": 39.74576,
        "longitude": -105.047509
      },
      "endCoords": {
        "latitude": 39.783641,
        "longitude": -104.957798
      },
      "distanceMeters": 22061.2,
      "durationMs": 4459060,
      "drivingDurationMs": 3872161,
      "idlingDurationMs": 586899,
      "fuelConsumedMl": 2805,
      "fuelConsumedGallons": 0.741,
      "maxSpeedMph": 68.3,
      "averageSpeedMph": 11.1,
      "safetyEvents": [
        {
          "type": "speeding",
          "startMs": 1748190780000,
          "maxSpeedMph": 68.3
        }
      ]
    },
    {
      "id": "trip_47373145_20250525_002",
      "vehicleId": "47373145",
      "driverId": "20000012",
      "startMs": 1748169120000,
      "endMs": 1748179300412,
      "startAddress": "68861 William Ports Apt. 596",
      "endAddress": "049 Jacob Spur",
      "startCoords": {
        "latitude": 39.717425,
        "longitude": -104.992313
      },
      "endCoords": {
        "latitude": 39.735756,
        "longitude": -105.033695
      },
      "distanceMeters": 76551.1,
      "durationMs": 10180412,
      "drivingDurationMs": 8675415,
      "idlingDurationMs": 1504997,
      "fuelConsumedMl": 9732,
      "fuelConsumedGallons": 2.571,
      "maxSpeedMph": 60.5,
      "averageSpeedMph": 16.8,
      "safetyEvents": []
    },
    {
      "id": "trip_47373145_20250525_003",
      "vehicleId": "47373145",
      "driverId": "20000012",
      "startMs": 1748178660000,
      "endMs": 1748180795357,
      "startAddress": "74951 Rich Groves Apt. 126",
      "endAddress": "4707 Mark Parks",
      "startCoords": {
        "latitude": 39.817588,
        "longitude": -104.935702
      },
      "endCoords": {
        "latitude": 39.757977,
        "longitude": -105.024433
      },
      "distanceMeters": 10715.7,
      "durationMs": 2135357,
      "drivingDurationMs": 1710792,
      "idlingDurationMs": 424565,
      "fuelConsumedMl": 1363,
      "fuelConsumedGallons": 0.36,
      "maxSpeedMph": 49.8,
      "averageSpeedMph": 11.2,
      "safetyEvents": []
    },
    {
      "id": "trip_47373145_20250526_001",
      "vehicleId": "47373145",
      "driverId": "20000001",
      "startMs": 1748246100000,
      "endMs": 1748250489269,
      "startAddress": "0418 Timothy Green",
      "endAddress": "05804 Johnny Vista Suite 783",
      "startCoords": {
        "latitude": 39.703769,
        "longitude": -104.979424
      },
      "endCoords": {
        "latitude": 39.7715,
        "longitude": -104.97872
      },
      "distanceMeters": 21864.2,
      "durationMs": 4389269,
      "drivingDurationMs": 3682768,
      "idlingDurationMs": 706501,
      "fuelConsumedMl": 2778,
      "fuelConsumedGallons": 0.734,
      "maxSpeedMph": 50.1,
      "averageSpeedMph": 11.1,
      "safetyEvents": []
    },
    {
      "id": "trip_47373145_20250526_002",
      "vehicleId": "47373145",
      "driverId": "20000001",
      "startMs": 1748285400000,
      "endMs": 1748293200000,
      "startAddress": "4210 James Plaza",
      "endAddress": "746 Debra Valleys",
      "startCoords": {
        "latitude": 39.685774,
        "longitude": -105.018821
      },
      "endCoords": {
        "latitude": 39.753764,
        "longitude": -104.940444
      },
      "distanceMeters": 59234.0,
      "durationMs": 7800000,
      "drivingDurationMs": 7322532,
      "idlingDurationMs": 477468,
      "fuelConsumedMl": 7533,
      "fuelConsumedGallons": 1.99,
      "maxSpeedMph": 49.5,
      "averageSpeedMph": 17.0,
      "safetyEvents": []
    },
    {
      "id": "trip_47373145_20250527_001",
      "vehicleId": "47373145",
      "driverId": "20000001",
      "startMs": 1748358660000,
      "endMs": 1748372394797,
      "startAddress": "23650 Keith Manor Suite 672",
      "endAddress": "5019 Riley Bypass",
      "startCoords": {
        "latitude": 39.752151,
        "longitude": -104.943092
      },
      "endCoords": {
        "latitude": 39.761005,
        "longitude": -105.04274
      },
      "distanceMeters": 61464.4,
      "durationMs": 13734797,
      "drivingDurationMs": 11136118,
      "idlingDurationMs": 2598679,
      "fuelConsumedMl": 7813,
      "fuelConsumedGallons": 2.064,
      "maxSpeedMph": 40.3,
      "averageSpeedMph": 10.0,
      "safetyEvents": []
    },
    {
      "id": "trip_47373145_20250527_002",
      "vehicleId": "47373145",
      "driverId": "20000001",
      "startMs": 1748331300000,
      "endMs": 1748333464609,
      "startAddress": "9299 Rebecca Port Suite 867",
      "endAddress": "157 David Canyon Apt. 896",
      "startCoords": {
        "latitude": 39.775422,
        "longitude": -105.067568
      },
      "endCoords": {
        "latitude": 39.726166,
        "longitude": -104.997252
      },
      "distanceMeters": 14042.5,
      "durationMs": 2164610,
      "drivingDurationMs": 1953949,
      "idlingDurationMs": 210661,
      "fuelConsumedMl": 1787,
      "fuelConsumedGallons": 0.472,
      "maxSpeedMph": 69.2,
      "averageSpeedMph": 14.5,
      "safetyEvents": [
        {
          "type": "speeding",
          "startMs": 1748333100000,
          "maxSpeedMph": 69.2
        }
      ]
    },
    {
      "id": "trip_47373145_20250527_003",
      "vehicleId": "47373145",
      "driverId": "20000001",
      "startMs": 1748371800000,
      "endMs": 1748379600000,
      "startAddress": "52340 Griffin Rapids Suite 443",
      "endAddress": "224 Chad Keys Apt. 034",
      "startCoords": {
        "latitude": 39.707996,
        "longitude": -104.931102
      },
      "endCoords": {
        "latitude": 39.812011,
        "longitude": -105.081547
      },
      "distanceMeters": 47440.1,
      "durationMs": 7800000,
      "drivingDurationMs": 6516922,
      "idlingDurationMs": 1283078,
      "fuelConsumedMl": 6030,
      "fuelConsumedGallons": 1.593,
      "maxSpeedMph": 30.5,
      "averageSpeedMph": 13.6,
      "safetyEvents": []
    },
    {
      "id": "trip_47373145_20250527_004",
      "vehicleId": "47373145",
      "driverId": "20000001",
      "startMs": 1748336520000,
      "endMs": 1748340917780,
      "startAddress": "07075 Chapman Prairie Apt. 697",
      "endAddress": "14635 Ortega Loop Suite 406",
      "startCoords": {
        "latitude": 39.804218,
        "longitude": -105.052168
      },
      "endCoords": {
        "latitude": 39.743922,
        "longitude": -104.995474
      },
      "distanceMeters": 27661.7,
      "durationMs": 4397781,
      "drivingDurationMs": 3754465,
      "idlingDurationMs": 643316,
      "fuelConsumedMl": 3517,
      "fuelConsumedGallons": 0.929,
      "maxSpeedMph": 49.5,
      "averageSpeedMph": 14.1,
      "safetyEvents": []
    },
    {
      "id": "trip_47373145_20250527_005",
      "vehicleId": "47373145",
      "driverId": "20000001",
      "startMs": 1748364780000,
      "endMs": 1748366585033,
      "startAddress": "0642 Fisher Corners",
      "endAddress": "022 Harmon Oval",
      "startCoords": {
        "latitude": 39.691664,
        "longitude": -104.980279
      },
      "endCoords": {
        "latitude": 39.741812,
        "longitude": -105.045141
      },
      "distanceMeters": 11526.8,
      "durationMs": 1805033,
      "drivingDurationMs": 1574240,
      "idlingDurationMs": 230793,
      "fuelConsumedMl": 1465,
      "fuelConsumedGallons": 0.387,
      "maxSpeedMph": 32.4,
      "averageSpeedMph": 14.3,
      "safetyEvents": []
    },
    {
      "id": "trip_47373145_20250528_001",
      "vehicleId": "47373145",
      "driverId": "20000005",
      "startMs": 1748433780000,
      "endMs": 1748445231567,
      "startAddress": "75645 Velez Pass Suite 803",
      "endAddress": "84957 Maxwell Landing Suite 530",
      "startCoords": {
        "latitude": 39.791824,
        "longitude": -104.904643
      },
      "endCoords": {
        "latitude": 39.727128,
        "longitude": -104.9324
      },
      "distanceMeters": 70510.6,
      "durationMs": 11451567,
      "drivingDurationMs": 10910738,
      "idlingDurationMs": 540829,
      "fuelConsumedMl": 8964,
      "fuelConsumedGallons": 2.368,
      "maxSpeedMph": 39.6,
      "averageSpeedMph": 13.8,
      "safetyEvents": []
    },
    {
      "id": "trip_47373145_20250528_002",
      "vehicleId": "47373145",
      "driverId": "20000005",
      "startMs": 1748439300000,
      "endMs": 1748440954723,
      "startAddress": "39281 Brandon Trace Apt. 668",
      "endAddress": "425 Krista Plaza",
      "startCoords": {
        "latitude": 39.76254,
        "longitude": -105.063387
      },
      "endCoords": {
        "latitude": 39.827016,
        "longitude": -105.014915
      },
      "distanceMeters": 8917.5,
      "durationMs": 1654723,
      "drivingDurationMs": 1447014,
      "idlingDurationMs": 207709,
      "fuelConsumedMl": 1136,
      "fuelConsumedGallons": 0.3,
      "maxSpeedMph": 43.4,
      "averageSpeedMph": 12.1,
      "safetyEvents": []
    },
    {
      "id": "trip_47373145_20250528_003",
      "vehicleId": "47373145",
      "driverId": null,
      "startMs": 1748452920000,
      "endMs": 1748454352944,
      "startAddress": "8950 Fields Fort",
      "endAddress": "0761 Natalie Common",
      "startCoords": {
        "latitude": 39.807242,
        "longitude": -104.937328
      },
      "endCoords": {
        "latitude": 39.808931,
        "longitude": -105.024474
      },
      "distanceMeters": 9739.9,
      "durationMs": 1432945,
      "drivingDurationMs": 1165364,
      "idlingDurationMs": 267581,
      "fuelConsumedMl": 1238,
      "fuelConsumedGallons": 0.327,
      "maxSpeedMph": 28.0,
      "averageSpeedMph": 15.2,
      "safetyEvents": []
    },
    {
      "id": "trip_47373145_20250528_004",
      "vehicleId": "47373145",
      "driverId": "20000005",
      "startMs": 1748458560000,
      "endMs": 1748466000000,
      "startAddress": "76084 Williams Terrace Apt. 411",
      "endAddress": "0337 Miranda Stream",
      "startCoords": {
        "latitude": 39.719161,
        "longitude": -105.069862
      },
      "endCoords": {
        "latitude": 39.801018,
        "longitude": -105.051184
      },
      "distanceMeters": 35381.1,
      "durationMs": 7440000,
      "drivingDurationMs": 6688353,
      "idlingDurationMs": 751647,
      "fuelConsumedMl": 4497,
      "fuelConsumedGallons": 1.188,
      "maxSpeedMph": 38.6,
      "averageSpeedMph": 10.6,
      "safetyEvents": []
    },
    {
      "id": "trip_47373145_20250528_005",
      "vehicleId": "47373145",
      "driverId": "20000005",
      "startMs": 1748456160000,
      "endMs": 1748465527839,
      "startAddress": "70798 Wanda Forks",
      "endAddress": "18695 Linda Branch Apt. 257",
      "startCoords": {
        "latitude": 39.814549,
        "longitude": -104.921109
      },
      "endCoords": {
        "latitude": 39.774444,
        "longitude": -105.072648
      },
      "distanceMeters": 57219.0,
      "durationMs": 9367839,
      "drivingDurationMs": 8179018,
      "idlingDurationMs": 1188822,
      "fuelConsumedMl": 7276,
      "fuelConsumedGallons": 1.922,
      "maxSpeedMph": 59.7,
      "averageSpeedMph": 13.7,
      "safetyEvents": []
    },
    {
      "id": "trip_47373145_20250528_006",
      "vehicleId": "47373145",
      "driverId": null,
      "startMs": 1748438580000,
      "endMs": 1748449536170,
      "startAddress": "602 Lee Land Suite 621",
      "endAddress": "7091 Michael Forest Apt. 535",
      "startCoords": {
        "latitude": 39.757242,
        "longitude": -104.9283
      },
      "endCoords": {
        "latitude": 39.813931,
        "longitude": -104.950473
      },
      "distanceMeters": 76731.1,
      "durationMs": 10956171,
      "drivingDurationMs": 10524230,
      "idlingDurationMs": 431941,
      "fuelConsumedMl": 9755,
      "fuelConsumedGallons": 2.577,
      "maxSpeedMph": 32.3,
      "averageSpeedMph": 15.7,
      "safetyEvents": []
    },
    {
      "id": "trip_47373145_20250529_001",
      "vehicleId": "47373145",
      "driverId": "20000007",
      "startMs": 1748526540000,
      "endMs": 1748531732996,
      "startAddress": "56726 Johnson Way",
      "endAddress": "61570 Jordan Streets",
      "startCoords": {
        "latitude": 39.760915,
        "longitude": -104.966279
      },
      "endCoords": {
        "latitude": 39.689948,
        "longitude": -105.046656
      },
      "distanceMeters": 33174.1,
      "durationMs": 5192997,
      "drivingDurationMs": 4506209,
      "idlingDurationMs": 686788,
      "fuelConsumedMl": 4217,
      "fuelConsumedGallons": 1.114,
      "maxSpeedMph": 52.2,
      "averageSpeedMph": 14.3,
      "safetyEvents": []
    },
    {
      "id": "trip_47373145_20250529_002",
      "vehicleId": "47373145",
      "driverId": "20000007",
      "startMs": 1748536320000,
      "endMs": 1748538787802,
      "startAddress": "96776 Donna Pine",
      "endAddress": "2931 Elliott Rapid",
      "startCoords": {
        "latitude": 39.736306,
        "longitude": -104.971352
      },
      "endCoords": {
        "latitude": 39.791386,
        "longitude": -104.942363
      },
      "distanceMeters": 10244.8,
      "durationMs": 2467803,
      "drivingDurationMs": 2004513,
      "idlingDurationMs": 463290,
      "fuelConsumedMl": 1302,
      "fuelConsumedGallons": 0.344,
      "maxSpeedMph": 62.9,
      "averageSpeedMph": 9.3,
      "safetyEvents": []
    },
    {
      "id": "trip_47373145_20250529_003",
      "vehicleId": "47373145",
      "driverId": "20000007",
      "startMs": 1748539800000,
      "endMs": 1748545122887,
      "startAddress": "826 Cunningham Coves",
      "endAddress": "5847 Davenport Inlet",
      "startCoords": {
        "latitude": 39.750676,
        "longitude": -104.933456
      },
      "endCoords": {
        "latitude": 39.733341,
        "longitude": -104.902008
      },
      "distanceMeters": 33386.3,
      "durationMs": 5322888,
      "drivingDurationMs": 4365364,
      "idlingDurationMs": 957523,
      "fuelConsumedMl": 4243,
      "fuelConsumedGallons": 1.121,
      "maxSpeedMph": 48.9,
      "averageSpeedMph": 14.0,
      "safetyEvents": []
    },
    {
      "id": "trip_47373145_20250529_004",
      "vehicleId": "47373145",
      "driverId": "20000007",
      "startMs": 1748526780000,
      "endMs": 1748533559761,
      "startAddress": "819 Jenkins Rue Apt. 331",
      "endAddress": "69235 James Bridge Suite 272",
      "startCoords": {
        "latitude": 39.707145,
        "longitude": -105.080594
      },
      "endCoords": {
        "latitude": 39.693141,
        "longitude": -105.027083
      },
      "distanceMeters": 31900.1,
      "durationMs": 6779762,
      "drivingDurationMs": 6032802,
      "idlingDurationMs": 746960,
      "fuelConsumedMl": 4054,
      "fuelConsumedGallons": 1.071,
      "maxSpeedMph": 59.9,
      "averageSpeedMph": 10.5,
      "safetyEvents": []
    },
    {
      "id": "trip_47373145_20250529_005",
      "vehicleId": "47373145",
      "driverId": "20000007",
      "startMs": 1748508540000,
      "endMs": 1748513437598,
      "startAddress": "571 Randy Pass Suite 002",
      "endAddress": "12561 Myers Villages",
      "startCoords": {
        "latitude": 39.796499,
        "longitude": -105.08229
      },
      "endCoords": {
        "latitude": 39.68647,
        "longitude": -104.961727
      },
      "distanceMeters": 33442.1,
      "durationMs": 4897598,
      "drivingDurationMs": 4132926,
      "idlingDurationMs": 764673,
      "fuelConsumedMl": 4251,
      "fuelConsumedGallons": 1.123,
      "maxSpeedMph": 39.0,
      "averageSpeedMph": 15.3,
      "safetyEvents": []
    },
    {
      "id": "trip_47373145_20250529_006",
      "vehicleId": "47373145",
      "driverId": "20000007",
      "startMs": 1748525460000,
      "endMs": 1748530018616,
      "startAddress": "333 Carr Brooks Apt. 894",
      "endAddress": "560 Perry Village Apt. 082",
      "startCoords": {
        "latitude": 39.791063,
        "longitude": -104.913483
      },
      "endCoords": {
        "latitude": 39.776331,
        "longitude": -105.006581
      },
      "distanceMeters": 29044.5,
      "durationMs": 4558616,
      "drivingDurationMs": 4091715,
      "idlingDurationMs": 466902,
      "fuelConsumedMl": 3695,
      "fuelConsumedGallons": 0.976,
      "maxSpeedMph": 62.6,
      "averageSpeedMph": 14.3,
      "safetyEvents": []
    },
    {
      "id": "trip_47373145_20250530_001",
      "vehicleId": "47373145",
      "driverId": "20000008",
      "startMs": 1748616120000,
      "endMs": 1748623930053,
      "startAddress": "9227 Holmes Pass Suite 472",
      "endAddress": "370 Johnson Spurs",
      "startCoords": {
        "latitude": 39.701611,
        "longitude": -105.040127
      },
      "endCoords": {
        "latitude": 39.684583,
        "longitude": -105.026122
      },
      "distanceMeters": 52234.5,
      "durationMs": 7810054,
      "drivingDurationMs": 7079940,
      "idlingDurationMs": 730114,
      "fuelConsumedMl": 6640,
      "fuelConsumedGallons": 1.754,
      "maxSpeedMph": 52.8,
      "averageSpeedMph": 15.0,
      "safetyEvents": []
    },
    {
      "id": "trip_47373145_20250530_002",
      "vehicleId": "47373145",
      "driverId": null,
      "startMs": 1748595060000,
      "endMs": 1748605061002,
      "startAddress": "482 Cruz Walk Suite 899",
      "endAddress": "24905 Campbell Dam",
      "startCoords": {
        "latitude": 39.825697,
        "longitude": -105.015615
      },
      "endCoords": {
        "latitude": 39.744611,
        "longitude": -105.079374
      },
      "distanceMeters": 50505.7,
      "durationMs": 10001003,
      "drivingDurationMs": 9035696,
      "idlingDurationMs": 965306,
      "fuelConsumedMl": 6420,
      "fuelConsumedGallons": 1.696,
      "maxSpeedMph": 39.5,
      "averageSpeedMph": 11.3,
      "safetyEvents": []
    },
    {
      "id": "trip_47373145_20250530_003",
      "vehicleId": "47373145",
      "driverId": null,
      "startMs": 1748589000000,
      "endMs": 1748591670826,
      "startAddress": "60054 Valencia Estates",
      "endAddress": "178 Michael Oval Apt. 007",
      "startCoords": {
        "latitude": 39.791974,
        "longitude": -104.91794
      },
      "endCoords": {
        "latitude": 39.806093,
        "longitude": -104.922573
      },
      "distanceMeters": 18351.6,
      "durationMs": 2670827,
      "drivingDurationMs": 2336625,
      "idlingDurationMs": 334202,
      "fuelConsumedMl": 2332,
      "fuelConsumedGallons": 0.616,
      "maxSpeedMph": 51.2,
      "averageSpeedMph": 15.4,
      "safetyEvents": []
    },
    {
      "id": "trip_47373145_20250530_004",
      "vehicleId": "47373145",
      "driverId": "20000008",
      "startMs": 1748620560000,
      "endMs": 1748632154990,
      "startAddress": "448 Nunez Locks",
      "endAddress": "760 Melissa Lodge Suite 905",
      "startCoords": {
        "latitude": 39.720901,
        "longitude": -105.00772
      },
      "endCoords": {
        "latitude": 39.693909,
        "longitude": -105.053706
      },
      "distanceMeters": 70475.8,
      "durationMs": 11594990,
      "drivingDurationMs": 9934901,
      "idlingDurationMs": 1660089,
      "fuelConsumedMl": 8960,
      "fuelConsumedGallons": 2.367,
      "maxSpeedMph": 32.6,
      "averageSpeedMph": 13.6,
      "safetyEvents": []
    },
    {
      "id": "trip_47373145_20250530_005",
      "vehicleId": "47373145",
      "driverId": "20000008",
      "startMs": 1748614980000,
      "endMs": 1748624098437,
      "startAddress": "1662 Miller Branch",
      "endAddress": "7941 Fisher Rapid Apt. 730",
      "startCoords": {
        "latitude": 39.774705,
        "longitude": -104.955649
      },
      "endCoords": {
        "latitude": 39.762344,
        "longitude": -105.068045
      },
      "distanceMeters": 69007.5,
      "durationMs": 9118438,
      "drivingDurationMs": 8549684,
      "idlingDurationMs": 568754,
      "fuelConsumedMl": 8775,
      "fuelConsumedGallons": 2.318,
      "maxSpeedMph": 58.6,
      "averageSpeedMph": 16.9,
      "safetyEvents": []
    },
    {
      "id": "trip_47373145_20250531_001",
      "vehicleId": "47373145",
      "driverId": null,
      "startMs": 1748691000000,
      "endMs": 1748700329076,
      "startAddress": "46660 Smith Stream Apt. 639",
      "endAddress": "9395 Hamilton Village",
      "startCoords": {
        "latitude": 39.789342,
        "longitude": -105.013778
      },
      "endCoords": {
        "latitude": 39.810996,
        "longitude": -105.079468
      },
      "distanceMeters": 61589.4,
      "durationMs": 9329076,
      "drivingDurationMs": 8742752,
      "idlingDurationMs": 586324,
      "fuelConsumedMl": 7832,
      "fuelConsumedGallons": 2.069,
      "maxSpeedMph": 38.0,
      "averageSpeedMph": 14.8,
      "safetyEvents": []
    },
    {
      "id": "trip_47373145_20250531_002",
      "vehicleId": "47373145",
      "driverId": "20000010",
      "startMs": 1748716320000,
      "endMs": 1748717232244,
      "startAddress": "03505 Walker Estate",
      "endAddress": "10874 Perez Cliffs Apt. 053",
      "startCoords": {
        "latitude": 39.685993,
        "longitude": -104.974393
      },
      "endCoords": {
        "latitude": 39.704876,
        "longitude": -105.056814
      },
      "distanceMeters": 5848.9,
      "durationMs": 912245,
      "drivingDurationMs": 731483,
      "idlingDurationMs": 180761,
      "fuelConsumedMl": 742,
      "fuelConsumedGallons": 0.196,
      "maxSpeedMph": 28.2,
      "averageSpeedMph": 14.3,
      "safetyEvents": []
    },
    {
      "id": "trip_47373145_20250531_003",
      "vehicleId": "47373145",
      "driverId": "20000010",
      "startMs": 1748705040000,
      "endMs": 1748718113412,
      "startAddress": "479 Tyler Lights",
      "endAddress": "144 Adams Pass",
      "startCoords": {
        "latitude": 39.783006,
        "longitude": -104.907206
      },
      "endCoords": {
        "latitude": 39.801162,
        "longitude": -105.0499
      },
      "distanceMeters": 69179.9,
      "durationMs": 13073413,
      "drivingDurationMs": 11686839,
      "idlingDurationMs": 1386574,
      "fuelConsumedMl": 8797,
      "fuelConsumedGallons": 2.324,
      "maxSpeedMph": 58.4,
      "averageSpeedMph": 11.8,
      "safetyEvents": []
    },
    {
      "id": "trip_47373145_20250531_004",
      "vehicleId": "47373145",
      "driverId": "20000010",
      "startMs": 1748701980000,
      "endMs": 1748711839961,
      "startAddress": "5053 Charles Street Apt. 247",
      "endAddress": "98367 Kenneth Dam Suite 398",
      "startCoords": {
        "latitude": 39.779796,
        "longitude": -105.074061
      },
      "endCoords": {
        "latitude": 39.743961,
        "longitude": -105.054226
      },
      "distanceMeters": 62803.2,
      "durationMs": 9859961,
      "drivingDurationMs": 9208551,
      "idlingDurationMs": 651410,
      "fuelConsumedMl": 7983,
      "fuelConsumedGallons": 2.109,
      "maxSpeedMph": 40.6,
      "averageSpeedMph": 14.2,
      "safetyEvents": []
    }
  ]
}