{
  "vehicleId": "47373145",
  "vehicleName": "DEN-VAN-02",
  "month": "2025_05",
  "pagination": {
    "endCursor": "trip_47373145_20250531_21551",
    "hasNextPage": false
  },
  "trips": [
    {
      "id": "trip_47373145_20250501_17087",
      "vehicleId": "47373145",
      "driverId": "20000014",
      "startMs": 1746071499000,
      "endMs": 1746077024000,
      "startAddress": "430 Benjamin Hollow Apt. 583",
      "endAddress": "100 Lisa Terrace",
      "startCoords": {
        "latitude": 39.717797,
        "longitude": -104.948731
      },
      "endCoords": {
        "latitude": 39.73194,
        "longitude": -104.951074
      },
      "distanceMeters": 31544.9,
      "durationMs": 5525000,
      "drivingDurationMs": 4672433,
      "idlingDurationMs": 852567,
      "fuelConsumedMl": 4013,
      "fuelConsumedGallons": 1.06,
      "maxSpeedMph": 34.5,
      "averageSpeedMph": 12.8,
      "safetyEvents": []
    },
    {
      "id": "trip_47373145_20250501_17120",
      "vehicleId": "47373145",
      "driverId": "20000018",
      "startMs": 1746090765000,
      "endMs": 1746092625000,
      "startAddress": "4215 Sharp Place Suite 978",
      "endAddress": "0458 Weiss Plaza",
      "startCoords": {
        "latitude": 39.733973,
        "longitude": -104.915085
      },
      "endCoords": {
        "latitude": 39.716158,
        "longitude": -104.979243
      },
      "distanceMeters": 12609.2,
      "durationMs": 1860000,
      "drivingDurationMs": 1544812,
      "idlingDurationMs": 315188,
      "fuelConsumedMl": 1605,
      "fuelConsumedGallons": 0.424,
      "maxSpeedMph": 35.9,
      "averageSpeedMph": 15.2,
      "safetyEvents": []
    },
    {
      "id": "trip_47373145_20250501_17146",
      "vehicleId": "47373145",
      "driverId": "20000005",
      "startMs": 1746105987000,
      "endMs": 1746113846000,
      "startAddress": "657 Rangel Islands Suite 765",
      "endAddress": "1603 Padilla Springs",
      "startCoords": {
        "latitude": 39.743142,
        "longitude": -104.966895
      },
      "endCoords": {
        "latitude": 39.736158,
        "longitude": -104.951312
      },
      "distanceMeters": 53898.9,
      "durationMs": 7859000,
      "drivingDurationMs": 6428625,
      "idlingDurationMs": 1430375,
      "fuelConsumedMl": 6852,
      "fuelConsumedGallons": 1.81,
      "maxSpeedMph": 31.5,
      "averageSpeedMph": 15.3,
      "safetyEvents": []
    },
    {
      "id": "trip_47373145_20250501_17176",
      "vehicleId": "47373145",
      "driverId": "20000008",
      "startMs": 1746122604000,
      "endMs": 1746133455000,
      "startAddress": "22525 Toni Fort",
      "endAddress": "028 Megan Lodge",
      "startCoords": {
        "latitude": 39.770528,
        "longitude": -104.960898
      },
      "endCoords": {
        "latitude": 39.792089,
        "longitude": -105.054155
      },
      "distanceMeters": 71078.5,
      "durationMs": 10851000,
      "drivingDurationMs": 8211091,
      "idlingDurationMs": 2639909,
      "fuelConsumedMl": 9036,
      "fuelConsumedGallons": 2.387,
      "maxSpeedMph": 35.5,
      "averageSpeedMph": 14.7,
      "safetyEvents": []
    },
    {
      "id": "trip_47373145_20250501_17204",
      "vehicleId": "47373145",
      "driverId": "20000015",
      "startMs": 1746142837000,
      "endMs": 1746144740000,
      "startAddress": "540 Daniel Points",
      "endAddress": "0751 Matthew Mills",
      "startCoords": {
        "latitude": 39.751339,
        "longitude": -105.068185
      },
      "endCoords": {
        "latitude": 39.699025,
        "longitude": -104.914148
      },
      "distanceMeters": 11768.4,
      "durationMs": 1903000,
      "drivingDurationMs": 1473110,
      "idlingDurationMs": 429890,
      "fuelConsumedMl": 1495,
      "fuelConsumedGallons": 0.395,
      "maxSpeedMph": 32.9,
      "averageSpeedMph": 13.8,
      "safetyEvents": []
    },
    {
      "id": "trip_47373145_20250502_17231",
      "vehicleId": "47373145",
      "driverId": "20000022",
      "startMs": 1746157979000,
      "endMs": 1746164438000,
      "startAddress": "400 Kimberly Fort Apt. 436",
      "endAddress": "453 Stokes Flats",
      "startCoords": {
        "latitude": 39.684928,
        "longitude": -105.034492
      },
      "endCoords": {
        "latitude": 39.730908,
        "longitude": -104.900656
      },
      "distanceMeters": 40259.6,
      "durationMs": 6459000,
      "drivingDurationMs": 5745836,
      "idlingDurationMs": 713164,
      "fuelConsumedMl": 5118,
      "fuelConsumedGallons": 1.352,
      "maxSpeedMph": 29.8,
      "averageSpeedMph": 13.9,
      "safetyEvents": []
    },
    {
      "id": "trip_47373145_20250502_17260",
      "vehicleId": "47373145",
      "driverId": "20000015",
      "startMs": 1746174718000,
      "endMs": 1746199735000,
      "startAddress": "43029 Heidi Gardens",
      "endAddress": "946 Barton Centers Apt. 940",
      "startCoords": {
        "latitude": 39.748479,
        "longitude": -105.022868
      },
      "endCoords": {
        "latitude": 39.79979,
        "longitude": -104.900785
      },
      "distanceMeters": 147187.0,
      "durationMs": 25017000,
      "drivingDurationMs": 19615916,
      "idlingDurationMs": 5401084,
      "fuelConsumedMl": 18715,
      "fuelConsumedGallons": 4.944,
      "maxSpeedMph": 39.8,
      "averageSpeedMph": 13.2,
      "safetyEvents": []
    },
    {
      "id": "trip_47373145_20250502_17307",
      "vehicleId": "47373145",
      "driverId": "20000011",
      "startMs": 1746200656000,
      "endMs": 1746202996000,
      "startAddress": "974 Sanchez Canyon",
      "endAddress": "20725 Howell Knolls Suite 322",
      "startCoords": {
        "latitude": 39.704656,
        "longitude": -105.076068
      },
      "endCoords": {
        "latitude": 39.722245,
        "longitude": -105.083546
      },
      "distanceMeters": 10497.7,
      "durationMs": 2340000,
      "drivingDurationMs": 1858367,
      "idlingDurationMs": 481633,
      "fuelConsumedMl": 1336,
      "fuelConsumedGallons": 0.353,
      "maxSpeedMph": 34.2,
      "averageSpeedMph": 10.0,
      "safetyEvents": []
    },
    {
      "id": "trip_47373145_20250502_17333",
      "vehicleId": "47373145",
      "driverId": "20000022",
      "startMs": 1746214269000,
      "endMs": 1746227364000,
      "startAddress": "9897 Hudson Estate",
      "endAddress": "0339 Jacobson Rapids",
      "startCoords": {
        "latitude": 39.762569,
        "longitude": -104.968463
      },
      "endCoords": {
        "latitude": 39.766045,
        "longitude": -104.960366
      },
      "distanceMeters": 77159.3,
      "durationMs": 13095000,
      "drivingDurationMs": 10073482,
      "idlingDurationMs": 3021518,
      "fuelConsumedMl": 9812,
      "fuelConsumedGallons": 2.592,
      "maxSpeedMph": 39.7,
      "averageSpeedMph": 13.2,
      "safetyEvents": []
    },
    {
      "id": "trip_47373145_20250503_17366",
      "vehicleId": "47373145",
      "driverId": "20000020",
      "startMs": 1746232828000,
      "endMs": 1746236603000,
      "startAddress": "4372 Tracy Stream",
      "endAddress": "58166 Lewis Light Suite 042",
      "startCoords": {
        "latitude": 39.79995,
        "longitude": -104.91001
      },
      "endCoords": {
        "latitude": 39.721396,
        "longitude": -104.97219
      },
      "distanceMeters": 21999.9,
      "durationMs": 3775000,
      "drivingDurationMs": 3393354,
      "idlingDurationMs": 381646,
      "fuelConsumedMl": 2797,
      "fuelConsumedGallons": 0.739,
      "maxSpeedMph": 26.5,
      "averageSpeedMph": 13.0,
      "safetyEvents": []
    },
    {
      "id": "trip_47373145_20250503_17389",
      "vehicleId": "47373145",
      "driverId": "20000018",
      "startMs": 1746246071000,
      "endMs": 1746248111000,
      "startAddress": "847 Claudia Rue",
      "endAddress": "71805 Paul Turnpike",
      "startCoords": {
        "latitude": 39.793267,
        "longitude": -104.964231
      },
      "endCoords": {
        "latitude": 39.794229,
        "longitude": -105.04278
      },
      "distanceMeters": 14135.6,
      "durationMs": 2040000,
      "drivingDurationMs": 1692137,
      "idlingDurationMs": 347863,
      "fuelConsumedMl": 1798,
      "fuelConsumedGallons": 0.475,
      "maxSpeedMph": 28.4,
      "averageSpeedMph": 15.5,
      "safetyEvents": []
    },
    {
      "id": "trip_47373145_20250503_17425",
      "vehicleId": "47373145",
      "driverId": "20000017",
      "startMs": 1746267603000,
      "endMs": 1746269643000,
      "startAddress": "3222 Krueger Brooks",
      "endAddress": "66295 Curtis Wells Suite 934",
      "startCoords": {
        "latitude": 39.734854,
        "longitude": -105.083178
      },
      "endCoords": {
        "latitude": 39.721335,
        "longitude": -104.917009
      },
      "distanceMeters": 12478.3,
      "durationMs": 2040000,
      "drivingDurationMs": 1694182,
      "idlingDurationMs": 345818,
      "fuelConsumedMl": 1586,
      "fuelConsumedGallons": 0.419,
      "maxSpeedMph": 27.5,
      "averageSpeedMph": 13.7,
      "safetyEvents": []
    },
    {
      "id": "trip_47373145_20250503_17455",
      "vehicleId": "47373145",
      "driverId": "20000018",
      "startMs": 1746286046000,
      "endMs": 1746287666000,
      "startAddress": "50315 Ryan Groves Apt. 351",
      "endAddress": "26039 Ann Centers Apt. 980",
      "startCoords": {
        "latitude": 39.712367,
        "longitude": -104.916721
      },
      "endCoords": {
        "latitude": 39.786186,
        "longitude": -104.911255
      },
      "distanceMeters": 8447.3,
      "durationMs": 1620000,
      "drivingDurationMs": 1453344,
      "idlingDurationMs": 166656,
      "fuelConsumedMl": 1075,
      "fuelConsumedGallons": 0.284,
      "maxSpeedMph": 31.1,
      "averageSpeedMph": 11.7,
      "safetyEvents": []
    },
    {
      "id": "trip_47373145_20250503_17486",
      "vehicleId": "47373145",
      "driverId": "20000014",
      "startMs": 1746301980000,
      "endMs": 1746307044000,
      "startAddress": "381 Eric Way Apt. 315",
      "endAddress": "3761 Kevin Land",
      "startCoords": {
        "latitude": 39.760776,
        "longitude": -105.056356
      },
      "endCoords": {
        "latitude": 39.790053,
        "longitude": -105.079158
      },
      "distanceMeters": 36980.1,
      "durationMs": 5064000,
      "drivingDurationMs": 4524812,
      "idlingDurationMs": 539188,
      "fuelConsumedMl": 4701,
      "fuelConsumedGallons": 1.242,
      "maxSpeedMph": 28.6,
      "averageSpeedMph": 16.3,
      "safetyEvents": []
    },
    {
      "id": "trip_47373145_20250504_17513",
      "vehicleId": "47373145",
      "driverId": "20000019",
      "startMs": 1746326329000,
      "endMs": 1746332285000,
      "startAddress": "563 Spencer Club Suite 971",
      "endAddress": "01061 Moore Curve",
      "startCoords": {
        "latitude": 39.805571,
        "longitude": -105.019586
      },
      "endCoords": {
        "latitude": 39.727837,
        "longitude": -104.942203
      },
      "distanceMeters": 44965.6,
      "durationMs": 5956000,
      "drivingDurationMs": 5299166,
      "idlingDurationMs": 656834,
      "fuelConsumedMl": 5716,
      "fuelConsumedGallons": 1.51,
      "maxSpeedMph": 28.0,
      "averageSpeedMph": 16.9,
      "safetyEvents": []
    },
    {
      "id": "trip_47373145_20250504_17542",
      "vehicleId": "47373145",
      "driverId": "20000007",
      "startMs": 1746349628000,
      "endMs": 1746355133000,
      "startAddress": "33356 Anderson Isle",
      "endAddress": "5788 Michael Points Apt. 790",
      "startCoords": {
        "latitude": 39.709627,
        "longitude": -104.906526
      },
      "endCoords": {
        "latitude": 39.820126,
        "longitude": -105.009013
      },
      "distanceMeters": 40448.2,
      "durationMs": 5505000,
      "drivingDurationMs": 4891566,
      "idlingDurationMs": 613434,
      "fuelConsumedMl": 5144,
      "fuelConsumedGallons": 1.359,
      "maxSpeedMph": 31.1,
      "averageSpeedMph": 16.4,
      "safetyEvents": []
    },
    {
      "id": "trip_47373145_20250504_17571",
      "vehicleId": "47373145",
      "driverId": "20000004",
      "startMs": 1746366851000,
      "endMs": 1746372164000,
      "startAddress": "0480 Lopez Mountains Apt. 633",
      "endAddress": "8499 Wallace Valleys Suite 005",
      "startCoords": {
        "latitude": 39.770412,
        "longitude": -104.971397
      },
      "endCoords": {
        "latitude": 39.776811,
        "longitude": -104.956363
      },
      "distanceMeters": 32435.4,
      "durationMs": 5313000,
      "drivingDurationMs": 4016833,
      "idlingDurationMs": 1296167,
      "fuelConsumedMl": 4122,
      "fuelConsumedGallons": 1.089,
      "maxSpeedMph": 27.0,
      "averageSpeedMph": 13.7,
      "safetyEvents": []
    },
    {
      "id": "trip_47373145_20250504_17600",
      "vehicleId": "47373145",
      "driverId": "20000011",
      "startMs": 1746390994000,
      "endMs": 1746392854000,
      "startAddress": "46148 Sandra Drives Apt. 279",
      "endAddress": "98168 Melissa Parkway Apt. 014",
      "startCoords": {
        "latitude": 39.7939,
        "longitude": -105.000099
      },
      "endCoords": {
        "latitude": 39.750868,
        "longitude": -104.912951
      },
      "distanceMeters": 9178.4,
      "durationMs": 1860000,
      "drivingDurationMs": 1553687,
      "idlingDurationMs": 306313,
      "fuelConsumedMl": 1166,
      "fuelConsumedGallons": 0.308,
      "maxSpeedMph": 26.2,
      "averageSpeedMph": 11.0,
      "safetyEvents": []
    },
    {
      "id": "trip_47373145_20250505_17629",
      "vehicleId": "47373145",
      "driverId": "20000005",
      "startMs": 1746421238000,
      "endMs": 1746422978000,
      "startAddress": "05371 Taylor Creek",
      "endAddress": "851 John Locks",
      "startCoords": {
        "latitude": 39.770253,
        "longitude": -105.051595
      },
      "endCoords": {
        "latitude": 39.724668,
        "longitude": -105.0777
      },
      "distanceMeters": 7549.6,
      "durationMs": 1740000,
      "drivingDurationMs": 1365592,
      "idlingDurationMs": 374408,
      "fuelConsumedMl": 961,
      "fuelConsumedGallons": 0.254,
      "maxSpeedMph": 26.7,
      "averageSpeedMph": 9.7,
      "safetyEvents": []
    },
    {
      "id": "trip_47373145_20250505_17659",
      "vehicleId": "47373145",
      "driverId": "20000011",
      "startMs": 1746441144000,
      "endMs": 1746449000000,
      "startAddress": "78906 Berger Crest",
      "endAddress": "875 Lewis River",
      "startCoords": {
        "latitude": 39.771044,
        "longitude": -105.049444
      },
      "endCoords": {
        "latitude": 39.804105,
        "longitude": -105.077141
      },
      "distanceMeters": 36438.6,
      "durationMs": 7856000,
      "drivingDurationMs": 6105383,
      "idlingDurationMs": 1750617,
      "fuelConsumedMl": 4633,
      "fuelConsumedGallons": 1.224,
      "maxSpeedMph": 28.3,
      "averageSpeedMph": 10.4,
      "safetyEvents": []
    },
    {
      "id": "trip_47373145_20250505_17686",
      "vehicleId": "47373145",
      "driverId": "20000005",
      "startMs": 1746455625000,
      "endMs": 1746463062000,
      "startAddress": "389 Ramos Streets Suite 203",
      "endAddress": "000 Kimberly Via",
      "startCoords": {
        "latitude": 39.766698,
        "longitude": -105.046499
      },
      "endCoords": {
        "latitude": 39.798596,
        "longitude": -104.924731
      },
      "distanceMeters": 45661.2,
      "durationMs": 7437000,
      "drivingDurationMs": 5738578,
      "idlingDurationMs": 1698422,
      "fuelConsumedMl": 5807,
      "fuelConsumedGallons": 1.534,
      "maxSpeedMph": 38.4,
      "averageSpeedMph": 13.7,
      "safetyEvents": []
    },
    {
      "id": "trip_47373145_20250505_17715",
      "vehicleId": "47373145",
      "driverId": "20000021",
      "startMs": 1746469358000,
      "endMs": 1746471038000,
      "startAddress": "31457 Kim Rapid Apt. 297",
      "endAddress": "49479 Jacqueline Cape Suite 390",
      "startCoords": {
        "latitude": 39.69564,
        "longitude": -104.946676
      },
      "endCoords": {
        "latitude": 39.704843,
        "longitude": -105.024468
      },
      "distanceMeters": 8956.8,
      "durationMs": 1680000,
      "drivingDurationMs": 1332756,
      "idlingDurationMs": 347244,
      "fuelConsumedMl": 1139,
      "fuelConsumedGallons": 0.301,
      "maxSpeedMph": 37.4,
      "averageSpeedMph": 11.9,
      "safetyEvents": []
    },
    {
      "id": "trip_47373145_20250505_17744",
      "vehicleId": "47373145",
      "driverId": "20000007",
      "startMs": 1746486306000,
      "endMs": 1746491284000,
      "startAddress": "4975 Cindy Spurs",
      "endAddress": "75323 Harris Harbors Suite 799",
      "startCoords": {
        "latitude": 39.784759,
        "longitude": -104.940913
      },
      "endCoords": {
        "latitude": 39.812934,
        "longitude": -105.067089
      },
      "distanceMeters": 37774.0,
      "durationMs": 4978000,
      "drivingDurationMs": 4357509,
      "idlingDurationMs": 620491,
      "fuelConsumedMl": 4804,
      "fuelConsumedGallons": 1.269,
      "maxSpeedMph": 34.2,
      "averageSpeedMph": 17.0,
      "safetyEvents": []
    },
    {
      "id": "trip_47373145_20250506_17775",
      "vehicleId": "47373145",
      "driverId": "20000021",
      "startMs": 1746499536000,
      "endMs": 1746504789000,
      "startAddress": "5859 Munoz Neck",
      "endAddress": "52030 Park Cove Suite 039",
      "startCoords": {
        "latitude": 39.798464,
        "longitude": -105.082798
      },
      "endCoords": {
        "latitude": 39.699831,
        "longitude": -104.925319
      },
      "distanceMeters": 24189.4,
      "durationMs": 5253000,
      "drivingDurationMs": 4223130,
      "idlingDurationMs": 1029870,
      "fuelConsumedMl": 3074,
      "fuelConsumedGallons": 0.812,
      "maxSpeedMph": 33.3,
      "averageSpeedMph": 10.3,
      "safetyEvents": []
    },
    {
      "id": "trip_47373145_20250506_17805",
      "vehicleId": "47373145",
      "driverId": "20000018",
      "startMs": 1746519389000,
      "endMs": 1746531193000,
      "startAddress": "7470 Susan Isle",
      "endAddress": "644 Bailey Trail",
      "startCoords": {
        "latitude": 39.809525,
        "longitude": -104.992409
      },
      "endCoords": {
        "latitude": 39.73547,
        "longitude": -104.919524
      },
      "distanceMeters": 51203.8,
      "durationMs": 11804000,
      "drivingDurationMs": 9688049,
      "idlingDurationMs": 2115951,
      "fuelConsumedMl": 6511,
      "fuelConsumedGallons": 1.72,
      "maxSpeedMph": 30.5,
      "averageSpeedMph": 9.7,
      "safetyEvents": []
    },
    {
      "id": "trip_47373145_20250506_17834",
      "vehicleId": "47373145",
      "driverId": "20000019",
      "startMs": 1746531433000,
      "endMs": 1746541694000,
      "startAddress": "4907 Hill Square Apt. 633",
      "endAddress": "7583 James Shoals",
      "startCoords": {
        "latitude": 39.753465,
        "longitude": -105.060956
      },
      "endCoords": {
        "latitude": 39.736215,
        "longitude": -104.908619
      },
      "distanceMeters": 67885.4,
      "durationMs": 10261000,
      "drivingDurationMs": 8564653,
      "idlingDurationMs": 1696347,
      "fuelConsumedMl": 8631,
      "fuelConsumedGallons": 2.28,
      "maxSpeedMph": 35.5,
      "averageSpeedMph": 14.8,
      "safetyEvents": []
    },
    {
      "id": "trip_47373145_20250506_17866",
      "vehicleId": "47373145",
      "driverId": "20000011",
      "startMs": 1746545996000,
      "endMs": 1746549976000,
      "startAddress": "84106 James Hills Apt. 142",
      "endAddress": "9888 Smith Trail",
      "startCoords": {
        "latitude": 39.773025,
        "longitude": -105.003429
      },
      "endCoords": {
        "latitude": 39.756492,
        "longitude": -104.902757
      },
      "distanceMeters": 19282.1,
      "durationMs": 3980000,
      "drivingDurationMs": 3433083,
      "idlingDurationMs": 546917,
      "fuelConsumedMl": 2453,
      "fuelConsumedGallons": 0.648,
      "maxSpeedMph": 35.5,
      "averageSpeedMph": 10.8,
      "safetyEvents": []
    },
    {
      "id": "trip_47373145_20250506_17892",
      "vehicleId": "47373145",
      "driverId": "20000007",
      "startMs": 1746559792000,
      "endMs": 1746562937000,
      "startAddress": "738 Stevens Knoll Suite 222",
      "endAddress": "7895 Kemp Cliff Apt. 667",
      "startCoords": {
        "latitude": 39.818526,
        "longitude": -104.980135
      },
      "endCoords": {
        "latitude": 39.687462,
        "longitude": -105.063416
      },
      "distanceMeters": 13259.4,
      "durationMs": 3145000,
      "drivingDurationMs": 2393479,
      "idlingDurationMs": 751521,
      "fuelConsumedMl": 1685,
      "fuelConsumedGallons": 0.445,
      "maxSpeedMph": 33.3,
      "averageSpeedMph": 9.4,
      "safetyEvents": []
    },
    {
      "id": "trip_47373145_20250507_17923",
      "vehicleId": "47373145",
      "driverId": "20000005",
      "startMs": 1746579025000,
      "endMs": 1746596637000,
      "startAddress": "7817 Eric Stravenue",
      "endAddress": "0515 Phillip Knoll",
      "startCoords": {
        "latitude": 39.719895,
        "longitude": -104.943594
      },
      "endCoords": {
        "latitude": 39.77443,
        "longitude": -104.919515
      },
      "distanceMeters": 123606.2,
      "durationMs": 17612000,
      "drivingDurationMs": 14376633,
      "idlingDurationMs": 3235367,
      "fuelConsumedMl": 15717,
      "fuelConsumedGallons": 4.152,
      "maxSpeedMph": 33.2,
      "averageSpeedMph": 15.7,
      "safetyEvents": []
    },
    {
      "id": "trip_47373145_20250507_17958",
      "vehicleId": "47373145",
      "driverId": "20000020",
      "startMs": 1746597469000,
      "endMs": 1746600735000,
      "startAddress": "082 Miller Keys Suite 565",
      "endAddress": "21260 Young Shoals Apt. 418",
      "startCoords": {
        "latitude": 39.748632,
        "longitude": -104.932191
      },
      "endCoords": {
        "latitude": 39.767815,
        "longitude": -104.920327
      },
      "distanceMeters": 21111.7,
      "durationMs": 3266000,
      "drivingDurationMs": 2644026,
      "idlingDurationMs": 621974,
      "fuelConsumedMl": 2684,
      "fuelConsumedGallons": 0.709,
      "maxSpeedMph": 37.7,
      "averageSpeedMph": 14.5,
      "safetyEvents": []
    },
    {
      "id": "trip_47373145_20250507_17985",
      "vehicleId": "47373145",
      "driverId": "20000021",
      "startMs": 1746609997000,
      "endMs": 1746621228000,
      "startAddress": "244 Williams Greens Apt. 792",
      "endAddress": "3292 Roy Heights",
      "startCoords": {
        "latitude": 39.804663,
        "longitude": -104.941401
      },
      "endCoords": {
        "latitude": 39.688312,
        "longitude": -104.919917
      },
      "distanceMeters": 54547.9,
      "durationMs": 11231000,
      "drivingDurationMs": 8578345,
      "idlingDurationMs": 2652655,
      "fuelConsumedMl": 6935,
      "fuelConsumedGallons": 1.832,
      "maxSpeedMph": 36.6,
      "averageSpeedMph": 10.9,
      "safetyEvents": []
    },
    {
      "id": "trip_47373145_20250507_18012",
      "vehicleId": "47373145",
      "driverId": "20000022",
      "startMs": 1746622423000,
      "endMs": 1746635052000,
      "startAddress": "1495 Leon Hill",
      "endAddress": "6623 Johnathan Field",
      "startCoords": {
        "latitude": 39.691139,
        "longitude": -105.024428
      },
      "endCoords": {
        "latitude": 39.742278,
        "longitude": -104.934633
      },
      "distanceMeters": 64728.1,
      "durationMs": 12629000,
      "drivingDurationMs": 10998007,
      "idlingDurationMs": 1630993,
      "fuelConsumedMl": 8229,
      "fuelConsumedGallons": 2.174,
      "maxSpeedMph": 37.7,
      "averageSpeedMph": 11.5,
      "safetyEvents": []
    },
    {
      "id": "trip_47373145_20250507_18041",
      "vehicleId": "47373145",
      "driverId": "20000020",
      "startMs": 1746642807000,
      "endMs": 1746644967000,
      "startAddress": "0614 Brittany Keys Apt. 617",
      "endAddress": "6644 Monica Greens Suite 352",
      "startCoords": {
        "latitude": 39.743871,
        "longitude": -104.940687
      },
      "endCoords": {
        "latitude": 39.786134,
        "longitude": -105.063818
      },
      "distanceMeters": 10123.9,
      "durationMs": 2160000,
      "drivingDurationMs": 1725383,
      "idlingDurationMs": 434617,
      "fuelConsumedMl": 1287,
      "fuelConsumedGallons": 0.34,
      "maxSpeedMph": 28.3,
      "averageSpeedMph": 10.5,
      "safetyEvents": []
    },
    {
      "id": "trip_47373145_20250507_18065",
      "vehicleId": "47373145",
      "driverId": "20000021",
      "startMs": 1746653402000,
      "endMs": 1746660054000,
      "startAddress": "66201 Santiago Centers Suite 990",
      "endAddress": "134 Erickson Circle Suite 947",
      "startCoords": {
        "latitude": 39.770878,
        "longitude": -105.040124
      },
      "endCoords": {
        "latitude": 39.694699,
        "longitude": -104.973292
      },
      "distanceMeters": 29603.7,
      "durationMs": 6652000,
      "drivingDurationMs": 5582367,
      "idlingDurationMs": 1069633,
      "fuelConsumedMl": 3763,
      "fuelConsumedGallons": 0.994,
      "maxSpeedMph": 36.0,
      "averageSpeedMph": 10.0,
      "safetyEvents": []
    },
    {
      "id": "trip_47373145_20250508_18098",
      "vehicleId": "47373145",
      "driverId": "20000005",
      "startMs": 1746678624000,
      "endMs": 1746680664000,
      "startAddress": "500 Nelson Station",
      "endAddress": "7782 Jones Lane",
      "startCoords": {
        "latitude": 39.776816,
        "longitude": -104.984552
      },
      "endCoords": {
        "latitude": 39.747116,
        "longitude": -104.936392
      },
      "distanceMeters": 9420.6,
      "durationMs": 2040000,
      "drivingDurationMs": 1660793,
      "idlingDurationMs": 379207,
      "fuelConsumedMl": 1196,
      "fuelConsumedGallons": 0.316,
      "maxSpeedMph": 31.5,
      "averageSpeedMph": 10.3,
      "safetyEvents": []
    },
    {
      "id": "trip_47373145_20250508_18127",
      "vehicleId": "47373145",
      "driverId": "20000015",
      "startMs": 1746694407000,
      "endMs": 1746704048000,
      "startAddress": "8528 Morris Shoal",
      "endAddress": "475 Eddie Corner",
      "startCoords": {
        "latitude": 39.747628,
        "longitude": -105.074528
      },
      "endCoords": {
        "latitude": 39.755372,
        "longitude": -105.00886
      },
      "distanceMeters": 43930.4,
      "durationMs": 9641000,
      "drivingDurationMs": 8108026,
      "idlingDurationMs": 1532974,
      "fuelConsumedMl": 5587,
      "fuelConsumedGallons": 1.476,
      "maxSpeedMph": 29.2,
      "averageSpeedMph": 10.2,
      "safetyEvents": []
    },
    {
      "id": "trip_47373145_20250508_18157",
      "vehicleId": "47373145",
      "driverId": "20000004",
      "startMs": 1746706507000,
      "endMs": 1746708347000,
      "startAddress": "8296 Scott Manors",
      "endAddress": "624 Christopher Common Suite 438",
      "startCoords": {
        "latitude": 39.798194,
        "longitude": -104.984169
      },
      "endCoords": {
        "latitude": 39.752091,
        "longitude": -105.037988
      },
      "distanceMeters": 14134.0,
      "durationMs": 1840000,
      "drivingDurationMs": 1646702,
      "idlingDurationMs": 193298,
      "fuelConsumedMl": 1798,
      "fuelConsumedGallons": 0.475,
      "maxSpeedMph": 36.7,
      "averageSpeedMph": 17.2,
      "safetyEvents": []
    },
    {
      "id": "trip_47373145_20250508_18185",
      "vehicleId": "47373145",
      "driverId": "20000019",
      "startMs": 1746721470000,
      "endMs": 1746735058000,
      "startAddress": "0484 Evans Lodge",
      "endAddress": "839 Gloria Squares",
      "startCoords": {
        "latitude": 39.724676,
        "longitude": -105.038843
      },
      "endCoords": {
        "latitude": 39.74312,
        "longitude": -105.006294
      },
      "distanceMeters": 70831.7,
      "durationMs": 13588000,
      "drivingDurationMs": 11688393,
      "idlingDurationMs": 1899607,
      "fuelConsumedMl": 9005,
      "fuelConsumedGallons": 2.379,
      "maxSpeedMph": 38.1,
      "averageSpeedMph": 11.7,
      "safetyEvents": []
    },
    {
      "id": "trip_47373145_20250508_18214",
      "vehicleId": "47373145",
      "driverId": "20000011",
      "startMs": 1746740257000,
      "endMs": 1746742957000,
      "startAddress": "681 Thompson Greens",
      "endAddress": "0801 Steele Parkway",
      "startCoords": {
        "latitude": 39.68563,
        "longitude": -104.929151
      },
      "endCoords": {
        "latitude": 39.790446,
        "longitude": -104.980384
      },
      "distanceMeters": 16479.3,
      "durationMs": 2700000,
      "drivingDurationMs": 2307215,
      "idlingDurationMs": 392785,
      "fuelConsumedMl": 2097,
      "fuelConsumedGallons": 0.554,
      "maxSpeedMph": 34.8,
      "averageSpeedMph": 13.7,
      "safetyEvents": []
    },
    {
      "id": "trip_47373145_20250509_18245",
      "vehicleId": "47373145",
      "driverId": "20000018",
      "startMs": 1746759869000,
      "endMs": 1746761909000,
      "startAddress": "630 Webb Ford",
      "endAddress": "9825 Ashley Green Suite 057",
      "startCoords": {
        "latitude": 39.711852,
        "longitude": -105.051779
      },
      "endCoords": {
        "latitude": 39.778519,
        "longitude": -104.9192
      },
      "distanceMeters": 11163.9,
      "durationMs": 2040000,
      "drivingDurationMs": 1787523,
      "idlingDurationMs": 252477,
      "fuelConsumedMl": 1420,
      "fuelConsumedGallons": 0.375,
      "maxSpeedMph": 27.1,
      "averageSpeedMph": 12.2,
      "safetyEvents": []
    },
    {
      "id": "trip_47373145_20250509_18273",
      "vehicleId": "47373145",
      "driverId": "20000001",
      "startMs": 1746772909000,
      "endMs": 1746774649000,
      "startAddress": "48361 Webb Tunnel",
      "endAddress": "04427 Christine Brooks",
      "startCoords": {
        "latitude": 39.721974,
        "longitude": -104.976407
      },
      "endCoords": {
        "latitude": 39.754348,
        "longitude": -104.922061
      },
      "distanceMeters": 10075.7,
      "durationMs": 1740000,
      "drivingDurationMs": 1428367,
      "idlingDurationMs": 311633,
      "fuelConsumedMl": 1279,
      "fuelConsumedGallons": 0.338,
      "maxSpeedMph": 33.2,
      "averageSpeedMph": 13.0,
      "safetyEvents": []
    },
    {
      "id": "trip_47373145_20250509_18300",
      "vehicleId": "47373145",
      "driverId": "20000021",
      "startMs": 1746785231000,
      "endMs": 1746787571000,
      "startAddress": "13309 Leah Shore Apt. 129",
      "endAddress": "560 Smith Motorway",
      "startCoords": {
        "latitude": 39.77013,
        "longitude": -104.899577
      },
      "endCoords": {
        "latitude": 39.732976,
        "longitude": -105.022886
      },
      "distanceMeters": 13941.3,
      "durationMs": 2340000,
      "drivingDurationMs": 1970554,
      "idlingDurationMs": 369446,
      "fuelConsumedMl": 1772,
      "fuelConsumedGallons": 0.468,
      "maxSpeedMph": 27.3,
      "averageSpeedMph": 13.3,
      "safetyEvents": []
    },
    {
      "id": "trip_47373145_20250509_18331",
      "vehicleId": "47373145",
      "driverId": "20000005",
      "startMs": 1746802219000,
      "endMs": 1746804319000,
      "startAddress": "444 Patrick Club",
      "endAddress": "690 Tiffany Greens",
      "startCoords": {
        "latitude": 39.750032,
        "longitude": -104.982084
      },
      "endCoords": {
        "latitude": 39.799632,
        "longitude": -104.93032
      },
      "distanceMeters": 13762.6,
      "durationMs": 2100000,
      "drivingDurationMs": 1577290,
      "idlingDurationMs": 522710,
      "fuelConsumedMl": 1749,
      "fuelConsumedGallons": 0.462,
      "maxSpeedMph": 37.5,
      "averageSpeedMph": 14.7,
      "safetyEvents": []
    },
    {
      "id": "trip_47373145_20250509_18362",
      "vehicleId": "47373145",
      "driverId": "20000005",
      "startMs": 1746815413000,
      "endMs": 1746821033000,
      "startAddress": "3271 Holmes Pine Apt. 696",
      "endAddress": "4793 Beasley Manor Apt. 465",
      "startCoords": {
        "latitude": 39.741784,
        "longitude": -105.009065
      },
      "endCoords": {
        "latitude": 39.726856,
        "longitude": -104.917931
      },
      "distanceMeters": 26892.6,
      "durationMs": 5620000,
      "drivingDurationMs": 4359132,
      "idlingDurationMs": 1260868,
      "fuelConsumedMl": 3418,
      "fuelConsumedGallons": 0.903,
      "maxSpeedMph": 34.5,
      "averageSpeedMph": 10.7,
      "safetyEvents": []
    },
    {
      "id": "trip_47373145_20250509_18384",
      "vehicleId": "47373145",
      "driverId": "20000016",
      "startMs": 1746830633000,
      "endMs": 1746832613000,
      "startAddress": "41449 Scott Plains",
      "endAddress": "094 Patricia Passage Suite 092",
      "startCoords": {
        "latitude": 39.719253,
        "longitude": -105.076432
      },
      "endCoords": {
        "latitude": 39.743116,
        "longitude": -105.068247
      },
      "distanceMeters": 10358.3,
      "durationMs": 1980000,
      "drivingDurationMs": 1760321,
      "idlingDurationMs": 219679,
      "fuelConsumedMl": 1317,
      "fuelConsumedGallons": 0.348,
      "maxSpeedMph": 36.7,
      "averageSpeedMph": 11.7,
      "safetyEvents": []
    },
    {
      "id": "trip_47373145_20250510_18413",
      "vehicleId": "47373145",
      "driverId": "20000017",
      "startMs": 1746851960000,
      "endMs": 1746858591000,
      "startAddress": "668 King Plains",
      "endAddress": "75236 Burke Oval",
      "startCoords": {
        "latitude": 39.688865,
        "longitude": -104.979312
      },
      "endCoords": {
        "latitude": 39.774836,
        "longitude": -105.017125
      },
      "distanceMeters": 33940.4,
      "durationMs": 6631000,
      "drivingDurationMs": 5063747,
      "idlingDurationMs": 1567253,
      "fuelConsumedMl": 4315,
      "fuelConsumedGallons": 1.14,
      "maxSpeedMph": 38.4,
      "averageSpeedMph": 11.4,
      "safetyEvents": []
    },
    {
      "id": "trip_47373145_20250510_18440",
      "vehicleId": "47373145",
      "driverId": "20000021",
      "startMs": 1746868490000,
      "endMs": 1746873660000,
      "startAddress": "64402 Nicole Ville Apt. 479",
      "endAddress": "81139 James Harbors Suite 287",
      "startCoords": {
        "latitude": 39.786753,
        "longitude": -105.007395
      },
      "endCoords": {
        "latitude": 39.697275,
        "longitude": -104.971755
      },
      "distanceMeters": 35527.8,
      "durationMs": 5170000,
      "drivingDurationMs": 4450284,
      "idlingDurationMs": 719716,
      "fuelConsumedMl": 4516,
      "fuelConsumedGallons": 1.193,
      "maxSpeedMph": 25.9,
      "averageSpeedMph": 15.4,
      "safetyEvents": []
    },
    {
      "id": "trip_47373145_20250510_18470",
      "vehicleId": "47373145",
      "driverId": "20000009",
      "startMs": 1746882822000,
      "endMs": 1746893043000,
      "startAddress": "0458 Jamie Flat",
      "endAddress": "52590 Natasha Turnpike Apt. 678",
      "startCoords": {
        "latitude": 39.766709,
        "longitude": -104.988461
      },
      "endCoords": {
        "latitude": 39.714317,
        "longitude": -104.967264
      },
      "distanceMeters": 75621.8,
      "durationMs": 10221000,
      "drivingDurationMs": 9128244,
      "idlingDurationMs": 1092756,
      "fuelConsumedMl": 9615,
      "fuelConsumedGallons": 2.54,
      "maxSpeedMph": 33.2,
      "averageSpeedMph": 16.6,
      "safetyEvents": []
    },
    {
      "id": "trip_47373145_20250510_18501",
      "vehicleId": "47373145",
      "driverId": "20000014",
      "startMs": 1746897873000,
      "endMs": 1746916998000,
      "startAddress": "407 Ryan Spur",
      "endAddress": "0945 Mckee Ridges",
      "startCoords": {
        "latitude": 39.751782,
        "longitude": -104.966376
      },
      "endCoords": {
        "latitude": 39.703586,
        "longitude": -105.012113
      },
      "distanceMeters": 140002.8,
      "durationMs": 19125000,
      "drivingDurationMs": 15865673,
      "idlingDurationMs": 3259327,
      "fuelConsumedMl": 17799,
      "fuelConsumedGallons": 4.702,
      "maxSpeedMph": 37.7,
      "averageSpeedMph": 16.4,
      "safetyEvents": []
    },
    {
      "id": "trip_47373145_20250510_18532",
      "vehicleId": "47373145",
      "driverId": "20000018",
      "startMs": 1746919937000,
      "endMs": 1746924342000,
      "startAddress": "582 Felicia Wall",
      "endAddress": "6022 Miguel Pass",
      "startCoords": {
        "latitude": 39.781807,
        "longitude": -105.019025
      },
      "endCoords": {
        "latitude": 39.748228,
        "longitude": -105.029696
      },
      "distanceMeters": 19219.1,
      "durationMs": 4405000,
      "drivingDurationMs": 3335360,
      "idlingDurationMs": 1069640,
      "fuelConsumedMl": 2445,
      "fuelConsumedGallons": 0.646,
      "maxSpeedMph": 28.6,
      "averageSpeedMph": 9.8,
      "safetyEvents": []
    },
    {
      "id": "trip_47373145_20250511_18562",
      "vehicleId": "47373145",
      "driverId": "20000016",
      "startMs": 1746939611000,
      "endMs": 1746940991000,
      "startAddress": "2344 Jacob Greens Apt. 926",
      "endAddress": "1974 Manuel Groves",
      "startCoords": {
        "latitude": 39.758962,
        "longitude": -104.968112
      },
      "endCoords": {
        "latitude": 39.784042,
        "longitude": -105.08176
      },
      "distanceMeters": 8582.0,
      "durationMs": 1380000,
      "drivingDurationMs": 1089985,
      "idlingDurationMs": 290015,
      "fuelConsumedMl": 1090,
      "fuelConsumedGallons": 0.288,
      "maxSpeedMph": 27.2,
      "averageSpeedMph": 13.9,
      "safetyEvents": []
    },
    {
      "id": "trip_47373145_20250511_18589",
      "vehicleId": "47373145",
      "driverId": "20000002",
      "startMs": 1746963866000,
      "endMs": 1746966450000,
      "startAddress": "490 Katie Square Suite 523",
      "endAddress": "305 Wade Forge Apt. 913",
      "startCoords": {
        "latitude": 39.791333,
        "longitude": -105.08378
      },
      "endCoords": {
        "latitude": 39.809743,
        "longitude": -105.081169
      },
      "distanceMeters": 12891.0,
      "durationMs": 2584000,
      "drivingDurationMs": 2023764,
      "idlingDurationMs": 560236,
      "fuelConsumedMl": 1639,
      "fuelConsumedGallons": 0.433,
      "maxSpeedMph": 39.1,
      "averageSpeedMph": 11.2,
      "safetyEvents": []
    },
    {
      "id": "trip_47373145_20250511_18613",
      "vehicleId": "47373145",
      "driverId": "20000022",
      "startMs": 1746979244000,
      "endMs": 1746981104000,
      "startAddress": "8677 Michael Walks Suite 796",
      "endAddress": "4310 Estrada Cliffs Suite 549",
      "startCoords": {
        "latitude": 39.698803,
        "longitude": -105.040732
      },
      "endCoords": {
        "latitude": 39.712017,
        "longitude": -104.995558
      },
      "distanceMeters": 12336.8,
      "durationMs": 1860000,
      "drivingDurationMs": 1472780,
      "idlingDurationMs": 387220,
      "fuelConsumedMl": 1567,
      "fuelConsumedGallons": 0.414,
      "maxSpeedMph": 32.8,
      "averageSpeedMph": 14.8,
      "safetyEvents": []
    },
    {
      "id": "trip_47373145_20250511_18639",
      "vehicleId": "47373145",
      "driverId": "20000012",
      "startMs": 1746994077000,
      "endMs": 1746999077000,
      "startAddress": "4177 Schmidt Dam",
      "endAddress": "345 Laurie Extension Apt. 439",
      "startCoords": {
        "latitude": 39.769043,
        "longitude": -105.079597
      },
      "endCoords": {
        "latitude": 39.754929,
        "longitude": -105.081787
      },
      "distanceMeters": 33050.8,
      "durationMs": 5000000,
      "drivingDurationMs": 4060955,
      "idlingDurationMs": 939045,
      "fuelConsumedMl": 4202,
      "fuelConsumedGallons": 1.11,
      "maxSpeedMph": 39.2,
      "averageSpeedMph": 14.8,
      "safetyEvents": []
    },
    {
      "id": "trip_47373145_20250512_18669",
      "vehicleId": "47373145",
      "driverId": "20000021",
      "startMs": 1747034489000,
      "endMs": 1747036049000,
      "startAddress": "3606 Hall Center Suite 778",
      "endAddress": "4892 White Groves",
      "startCoords": {
        "latitude": 39.774701,
        "longitude": -105.054475
      },
      "endCoords": {
        "latitude": 39.751125,
        "longitude": -104.992566
      },
      "distanceMeters": 8834.9,
      "durationMs": 1560000,
      "drivingDurationMs": 1246585,
      "idlingDurationMs": 313415,
      "fuelConsumedMl": 1124,
      "fuelConsumedGallons": 0.297,
      "maxSpeedMph": 28.0,
      "averageSpeedMph": 12.7,
      "safetyEvents": []
    },
    {
      "id": "trip_47373145_20250512_18696",
      "vehicleId": "47373145",
      "driverId": "20000022",
      "startMs": 1747046782000,
      "endMs": 1747053534000,
      "startAddress": "7059 Yvonne Springs",
      "endAddress": "02349 Jennifer Flat Apt. 950",
      "startCoords": {
        "latitude": 39.807409,
        "longitude": -105.04106
      },
      "endCoords": {
        "latitude": 39.702784,
        "longitude": -105.07601
      },
      "distanceMeters": 49681.9,
      "durationMs": 6752000,
      "drivingDurationMs": 5826660,
      "idlingDurationMs": 925340,
      "fuelConsumedMl": 6318,
      "fuelConsumedGallons": 1.669,
      "maxSpeedMph": 38.6,
      "averageSpeedMph": 16.5,
      "safetyEvents": []
    },
    {
      "id": "trip_47373145_20250512_18725",
      "vehicleId": "47373145",
      "driverId": "20000013",
      "startMs": 1747061350000,
      "endMs": 1747063150000,
      "startAddress": "533 Stacy Plaza",
      "endAddress": "535 Patel Lane",
      "startCoords": {
        "latitude": 39.802962,
        "longitude": -104.92147
      },
      "endCoords": {
        "latitude": 39.796793,
        "longitude": -105.056677
      },
      "distanceMeters": 10063.6,
      "durationMs": 1800000,
      "drivingDurationMs": 1450704,
      "idlingDurationMs": 349296,
      "fuelConsumedMl": 1279,
      "fuelConsumedGallons": 0.338,
      "maxSpeedMph": 32.8,
      "averageSpeedMph": 12.5,
      "safetyEvents": []
    },
    {
      "id": "trip_47373145_20250512_18756",
      "vehicleId": "47373145",
      "driverId": "20000002",
      "startMs": 1747080455000,
      "endMs": 1747081775000,
      "startAddress": "7356 Kristina Gardens Apt. 400",
      "endAddress": "837 David Spur Apt. 451",
      "startCoords": {
        "latitude": 39.764326,
        "longitude": -104.995341
      },
      "endCoords": {
        "latitude": 39.714481,
        "longitude": -105.072568
      },
      "distanceMeters": 9141.0,
      "durationMs": 1320000,
      "drivingDurationMs": 1089752,
      "idlingDurationMs": 230248,
      "fuelConsumedMl": 1162,
      "fuelConsumedGallons": 0.307,
      "maxSpeedMph": 34.3,
      "averageSpeedMph": 15.5,
      "safetyEvents": []
    },
    {
      "id": "trip_47373145_20250513_18785",
      "vehicleId": "47373145",
      "driverId": "20000014",
      "startMs": 1747095754000,
      "endMs": 1747097554000,
      "startAddress": "579 Benjamin Creek Suite 730",
      "endAddress": "9035 Gary Valley",
      "startCoords": {
        "latitude": 39.683928,
        "longitude": -104.987099
      },
      "endCoords": {
        "latitude": 39.72325,
        "longitude": -105.025141
      },
      "distanceMeters": 11688.1,
      "durationMs": 1800000,
      "drivingDurationMs": 1389971,
      "idlingDurationMs": 410029,
      "fuelConsumedMl": 1488,
      "fuelConsumedGallons": 0.393,
      "maxSpeedMph": 31.0,
      "averageSpeedMph": 14.5,
      "safetyEvents": []
    },
    {
      "id": "trip_47373145_20250513_18812",
      "vehicleId": "47373145",
      "driverId": "20000002",
      "startMs": 1747110336000,
      "endMs": 1747120965000,
      "startAddress": "91161 Rhonda Extension Suite 181",
      "endAddress": "483 Rogers Brooks",
      "startCoords": {
        "latitude": 39.77628,
        "longitude": -105.015249
      },
      "endCoords": {
        "latitude": 39.687484,
        "longitude": -104.913909
      },
      "distanceMeters": 62397.7,
      "durationMs": 10629000,
      "drivingDurationMs": 8720588,
      "idlingDurationMs": 1908412,
      "fuelConsumedMl": 7934,
      "fuelConsumedGallons": 2.096,
      "maxSpeedMph": 33.2,
      "averageSpeedMph": 13.1,
      "safetyEvents": []
    },
    {
      "id": "trip_47373145_20250513_18842",
      "vehicleId": "47373145",
      "driverId": "20000011",
      "startMs": 1747127689000,
      "endMs": 1747133151000,
      "startAddress": "8333 Reese Shores Suite 931",
      "endAddress": "225 Anthony Junctions",
      "startCoords": {
        "latitude": 39.710666,
        "longitude": -104.982996
      },
      "endCoords": {
        "latitude": 39.73569,
        "longitude": -105.008646
      },
      "distanceMeters": 22324.5,
      "durationMs": 5462000,
      "drivingDurationMs": 4464029,
      "idlingDurationMs": 997971,
      "fuelConsumedMl": 2839,
      "fuelConsumedGallons": 0.75,
      "maxSpeedMph": 31.4,
      "averageSpeedMph": 9.1,
      "safetyEvents": []
    },
    {
      "id": "trip_47373145_20250513_18874",
      "vehicleId": "47373145",
      "driverId": "20000004",
      "startMs": 1747147050000,
      "endMs": 1747148910000,
      "startAddress": "743 Elizabeth Plaza Suite 200",
      "endAddress": "30861 Davis Plain Apt. 480",
      "startCoords": {
        "latitude": 39.805205,
        "longitude": -104.92221
      },
      "endCoords": {
        "latitude": 39.795915,
        "longitude": -104.903622
      },
      "distanceMeters": 10921.6,
      "durationMs": 1860000,
      "drivingDurationMs": 1525635,
      "idlingDurationMs": 334365,
      "fuelConsumedMl": 1389,
      "fuelConsumedGallons": 0.367,
      "maxSpeedMph": 31.0,
      "averageSpeedMph": 13.1,
      "safetyEvents": []
    },
    {
      "id": "trip_47373145_20250513_18901",
      "vehicleId": "47373145",
      "driverId": "20000004",
      "startMs": 1747159394000,
      "endMs": 1747161614000,
      "startAddress": "213 Nichols Burg",
      "endAddress": "740 Andrew Circle",
      "startCoords": {
        "latitude": 39.707802,
        "longitude": -104.947613
      },
      "endCoords": {
        "latitude": 39.803991,
        "longitude": -104.965601
      },
      "distanceMeters": 10450.3,
      "durationMs": 2220000,
      "drivingDurationMs": 1701031,
      "idlingDurationMs": 518969,
      "fuelConsumedMl": 1329,
      "fuelConsumedGallons": 0.351,
      "maxSpeedMph": 27.7,
      "averageSpeedMph": 10.5,
      "safetyEvents": []
    },
    {
      "id": "trip_47373145_20250513_18932",
      "vehicleId": "47373145",
      "driverId": "20000018",
      "startMs": 1747172861000,
      "endMs": 1747174541000,
      "startAddress": "54816 Moore Wall Apt. 145",
      "endAddress": "6172 Perry Corners",
      "startCoords": {
        "latitude": 39.813568,
        "longitude": -105.011259
      },
      "endCoords": {
        "latitude": 39.70734,
        "longitude": -105.035935
      },
      "distanceMeters": 6932.3,
      "durationMs": 1680000,
      "drivingDurationMs": 1286484,
      "idlingDurationMs": 393516,
      "fuelConsumedMl": 882,
      "fuelConsumedGallons": 0.233,
      "maxSpeedMph": 39.0,
      "averageSpeedMph": 9.2,
      "safetyEvents": []
    },
    {
      "id": "trip_47373145_20250514_18959",
      "vehicleId": "47373145",
      "driverId": "20000015",
      "startMs": 1747186036000,
      "endMs": 1747191712000,
      "startAddress": "419 Krystal Light",
      "endAddress": "13912 Glenn Corner",
      "startCoords": {
        "latitude": 39.77076,
        "longitude": -104.985009
      },
      "endCoords": {
        "latitude": 39.81718,
        "longitude": -104.973577
      },
      "distanceMeters": 24778.3,
      "durationMs": 5676000,
      "drivingDurationMs": 4406268,
      "idlingDurationMs": 1269732,
      "fuelConsumedMl": 3149,
      "fuelConsumedGallons": 0.832,
      "maxSpeedMph": 32.9,
      "averageSpeedMph": 9.8,
      "safetyEvents": []
    },
    {
      "id": "trip_47373145_20250514_18989",
      "vehicleId": "47373145",
      "driverId": "20000006",
      "startMs": 1747205375000,
      "endMs": 1747207835000,
      "startAddress": "48556 West Trail",
      "endAddress": "092 Robyn Manors Apt. 742",
      "startCoords": {
        "latitude": 39.711581,
        "longitude": -104.907287
      },
      "endCoords": {
        "latitude": 39.815364,
        "longitude": -105.014223
      },
      "distanceMeters": 16288.8,
      "durationMs": 2460000,
      "drivingDurationMs": 1877224,
      "idlingDurationMs": 582776,
      "fuelConsumedMl": 2071,
      "fuelConsumedGallons": 0.547,
      "maxSpeedMph": 30.5,
      "averageSpeedMph": 14.8,
      "safetyEvents": []
    },
    {
      "id": "trip_47373145_20250514_19017",
      "vehicleId": "47373145",
      "driverId": "20000021",
      "startMs": 1747219495000,
      "endMs": 1747221055000,
      "startAddress": "413 Schneider Views Suite 616",
      "endAddress": "8307 Brian Road Suite 026",
      "startCoords": {
        "latitude": 39.817572,
        "longitude": -105.068941
      },
      "endCoords": {
        "latitude": 39.777995,
        "longitude": -105.054395
      },
      "distanceMeters": 8839.2,
      "durationMs": 1560000,
      "drivingDurationMs": 1392586,
      "idlingDurationMs": 167414,
      "fuelConsumedMl": 1124,
      "fuelConsumedGallons": 0.297,
      "maxSpeedMph": 27.7,
      "averageSpeedMph": 12.7,
      "safetyEvents": []
    },
    {
      "id": "trip_47373145_20250514_19049",
      "vehicleId": "47373145",
      "driverId": "20000017",
      "startMs": 1747234665000,
      "endMs": 1747237125000,
      "startAddress": "04676 Torres Island Apt. 389",
      "endAddress": "16210 Russell Motorway Apt. 907",
      "startCoords": {
        "latitude": 39.691543,
        "longitude": -105.054683
      },
      "endCoords": {
        "latitude": 39.767164,
        "longitude": -104.908234
      },
      "distanceMeters": 14758.2,
      "durationMs": 2460000,
      "drivingDurationMs": 1849614,
      "idlingDurationMs": 610386,
      "fuelConsumedMl": 1878,
      "fuelConsumedGallons": 0.496,
      "maxSpeedMph": 28.7,
      "averageSpeedMph": 13.4,
      "safetyEvents": []
    },
    {
      "id": "trip_47373145_20250514_19076",
      "vehicleId": "47373145",
      "driverId": "20000020",
      "startMs": 1747247496000,
      "endMs": 1747254449000,
      "startAddress": "781 Parker River Apt. 309",
      "endAddress": "94742 Humphrey Port",
      "startCoords": {
        "latitude": 39.722679,
        "longitude": -105.079665
      },
      "endCoords": {
        "latitude": 39.731221,
        "longitude": -105.014493
      },
      "distanceMeters": 48504.7,
      "durationMs": 6953000,
      "drivingDurationMs": 6008599,
      "idlingDurationMs": 944401,
      "fuelConsumedMl": 6166,
      "fuelConsumedGallons": 1.629,
      "maxSpeedMph": 37.6,
      "averageSpeedMph": 15.6,
      "safetyEvents": []
    },
    {
      "id": "trip_47373145_20250514_19109",
      "vehicleId": "47373145",
      "driverId": "20000007",
      "startMs": 1747264162000,
      "endMs": 1747266202000,
      "startAddress": "85537 Murray Mountains Apt. 827",
      "endAddress": "057 Daniel Station Suite 250",
      "startCoords": {
        "latitude": 39.759249,
        "longitude": -104.971186
      },
      "endCoords": {
        "latitude": 39.824111,
        "longitude": -104.996271
      },
      "distanceMeters": 11620.0,
      "durationMs": 2040000,
      "drivingDurationMs": 1540292,
      "idlingDurationMs": 499708,
      "fuelConsumedMl": 1476,
      "fuelConsumedGallons": 0.39,
      "maxSpeedMph": 31.7,
      "averageSpeedMph": 12.7,
      "safetyEvents": []
    },
    {
      "id": "trip_47373145_20250515_19138",
      "vehicleId": "47373145",
      "driverId": "20000005",
      "startMs": 1747283587000,
      "endMs": 1747285147000,
      "startAddress": "51132 Peterson Inlet Suite 961",
      "endAddress": "988 Victor Valley Suite 628",
      "startCoords": {
        "latitude": 39.697986,
        "longitude": -104.987568
      },
      "endCoords": {
        "latitude": 39.807643,
        "longitude": -105.035017
      },
      "distanceMeters": 6638.9,
      "durationMs": 1560000,
      "drivingDurationMs": 1253835,
      "idlingDurationMs": 306165,
      "fuelConsumedMl": 844,
      "fuelConsumedGallons": 0.223,
      "maxSpeedMph": 26.4,
      "averageSpeedMph": 9.5,
      "safetyEvents": []
    },
    {
      "id": "trip_47373145_20250515_19169",
      "vehicleId": "47373145",
      "driverId": "20000006",
      "startMs": 1747298708000,
      "endMs": 1747301325000,
      "startAddress": "8112 Tyler Place Apt. 970",
      "endAddress": "3298 John Unions",
      "startCoords": {
        "latitude": 39.761614,
        "longitude": -104.932225
      },
      "endCoords": {
        "latitude": 39.704789,
        "longitude": -104.994905
      },
      "distanceMeters": 13291.9,
      "durationMs": 2617000,
      "drivingDurationMs": 2220038,
      "idlingDurationMs": 396962,
      "fuelConsumedMl": 1688,
      "fuelConsumedGallons": 0.446,
      "maxSpeedMph": 34.8,
      "averageSpeedMph": 11.4,
      "safetyEvents": []
    },
    {
      "id": "trip_47373145_20250515_19195",
      "vehicleId": "47373145",
      "driverId": "20000013",
      "startMs": 1747311924000,
      "endMs": 1747314024000,
      "startAddress": "5851 Courtney Passage Suite 621",
      "endAddress": "86106 Bradley Dam Suite 408",
      "startCoords": {
        "latitude": 39.761391,
        "longitude": -104.943283
      },
      "endCoords": {
        "latitude": 39.797386,
        "longitude": -105.001357
      },
      "distanceMeters": 14129.3,
      "durationMs": 2100000,
      "drivingDurationMs": 1729151,
      "idlingDurationMs": 370849,
      "fuelConsumedMl": 1798,
      "fuelConsumedGallons": 0.475,
      "maxSpeedMph": 33.8,
      "averageSpeedMph": 15.1,
      "safetyEvents": []
    },
    {
      "id": "trip_47373145_20250515_19219",
      "vehicleId": "47373145",
      "driverId": "20000015",
      "startMs": 1747324406000,
      "endMs": 1747333021000,
      "startAddress": "02788 Frye Hollow Suite 610",
      "endAddress": "9030 Stacey Shoal Suite 064",
      "startCoords": {
        "latitude": 39.688899,
        "longitude": -105.083018
      },
      "endCoords": {
        "latitude": 39.799047,
        "longitude": -105.039352
      },
      "distanceMeters": 40231.2,
      "durationMs": 8615000,
      "drivingDurationMs": 6726698,
      "idlingDurationMs": 1888302,
      "fuelConsumedMl": 5114,
      "fuelConsumedGallons": 1.351,
      "maxSpeedMph": 29.1,
      "averageSpeedMph": 10.4,
      "safetyEvents": []
    },
    {
      "id": "trip_47373145_20250515_19247",
      "vehicleId": "47373145",
      "driverId": "20000022",
      "startMs": 1747338990000,
      "endMs": 1747349127000,
      "startAddress": "394 Hammond Knolls Apt. 751",
      "endAddress": "157 David Oval Apt. 105",
      "startCoords": {
        "latitude": 39.748011,
        "longitude": -104.97007
      },
      "endCoords": {
        "latitude": 39.694681,
        "longitude": -105.058116
      },
      "distanceMeters": 49181.1,
      "durationMs": 10137000,
      "drivingDurationMs": 8981961,
      "idlingDurationMs": 1155039,
      "fuelConsumedMl": 6253,
      "fuelConsumedGallons": 1.652,
      "maxSpeedMph": 37.5,
      "averageSpeedMph": 10.9,
      "safetyEvents": []
    },
    {
      "id": "trip_47373145_20250516_19282",
      "vehicleId": "47373145",
      "driverId": "20000004",
      "startMs": 1747361364000,
      "endMs": 1747363044000,
      "startAddress": "2553 Wallace Parkways",
      "endAddress": "145 Tiffany Spurs Suite 462",
      "startCoords": {
        "latitude": 39.697228,
        "longitude": -104.90068
      },
      "endCoords": {
        "latitude": 39.787113,
        "longitude": -105.027229
      },
      "distanceMeters": 8299.3,
      "durationMs": 1680000,
      "drivingDurationMs": 1343408,
      "idlingDurationMs": 336592,
      "fuelConsumedMl": 1056,
      "fuelConsumedGallons": 0.279,
      "maxSpeedMph": 26.9,
      "averageSpeedMph": 11.1,
      "safetyEvents": []
    },
    {
      "id": "trip_47373145_20250516_19315",
      "vehicleId": "47373145",
      "driverId": "20000001",
      "startMs": 1747381507000,
      "endMs": 1747384087000,
      "startAddress": "2347 Benson Square Suite 818",
      "endAddress": "399 Michael Port",
      "startCoords": {
        "latitude": 39.705755,
        "longitude": -104.904794
      },
      "endCoords": {
        "latitude": 39.706856,
        "longitude": -104.969178
      },
      "distanceMeters": 11572.6,
      "durationMs": 2580000,
      "drivingDurationMs": 2200703,
      "idlingDurationMs": 379297,
      "fuelConsumedMl": 1473,
      "fuelConsumedGallons": 0.389,
      "maxSpeedMph": 33.2,
      "averageSpeedMph": 10.0,
      "safetyEvents": []
    },
    {
      "id": "trip_47373145_20250516_19344",
      "vehicleId": "47373145",
      "driverId": "20000019",
      "startMs": 1747396070000,
      "endMs": 1747398410000,
      "startAddress": "584 Thomas Summit Apt. 485",
      "endAddress": "31648 Jeremy Lake Suite 814",
      "startCoords": {
        "latitude": 39.737363,
        "longitude": -104.949284
      },
      "endCoords": {
        "latitude": 39.716929,
        "longitude": -105.063078
      },
      "distanceMeters": 9820.6,
      "durationMs": 2340000,
      "drivingDurationMs": 1786384,
      "idlingDurationMs": 553616,
      "fuelConsumedMl": 1249,
      "fuelConsumedGallons": 0.33,
      "maxSpeedMph": 38.3,
      "averageSpeedMph": 9.4,
      "safetyEvents": []
    },
    {
      "id": "trip_47373145_20250516_19378",
      "vehicleId": "47373145",
      "driverId": "20000012",
      "startMs": 1747413563000,
      "endMs": 1747419261000,
      "startAddress": "035 Sarah Stream",
      "endAddress": "5282 Courtney Underpass Apt. 267",
      "startCoords": {
        "latitude": 39.805033,
        "longitude": -104.91551
      },
      "endCoords": {
        "latitude": 39.743512,
        "longitude": -105.070626
      },
      "distanceMeters": 44373.4,
      "durationMs": 5698000,
      "drivingDurationMs": 5097474,
      "idlingDurationMs": 600526,
      "fuelConsumedMl": 5640,
      "fuelConsumedGallons": 1.49,
      "maxSpeedMph": 35.9,
      "averageSpeedMph": 17.4,
      "safetyEvents": []
    },
    {
      "id": "trip_47373145_20250516_19405",
      "vehicleId": "47373145",
      "driverId": "20000012",
      "startMs": 1747424814000,
      "endMs": 1747426794000,
      "startAddress": "520 Chandler Manor Apt. 916",
      "endAddress": "905 Melissa Square Suite 161",
      "startCoords": {
        "latitude": 39.755405,
        "longitude": -104.985015
      },
      "endCoords": {
        "latitude": 39.685603,
        "longitude": -104.936225
      },
      "distanceMeters": 11375.2,
      "durationMs": 1980000,
      "drivingDurationMs": 1741557,
      "idlingDurationMs": 238443,
      "fuelConsumedMl": 1446,
      "fuelConsumedGallons": 0.382,
      "maxSpeedMph": 33.5,
      "averageSpeedMph": 12.9,
      "safetyEvents": []
    },
    {
      "id": "trip_47373145_20250517_19435",
      "vehicleId": "47373145",
      "driverId": "20000002",
      "startMs": 1747442915000,
      "endMs": 1747444475000,
      "startAddress": "12033 Higgins Viaduct Suite 379",
      "endAddress": "94355 Todd Freeway",
      "startCoords": {
        "latitude": 39.758845,
        "longitude": -104.931236
      },
      "endCoords": {
        "latitude": 39.784955,
        "longitude": -104.99404
      },
      "distanceMeters": 10846.9,
      "durationMs": 1560000,
      "drivingDurationMs": 1269257,
      "idlingDurationMs": 290743,
      "fuelConsumedMl": 1378,
      "fuelConsumedGallons": 0.364,
      "maxSpeedMph": 34.4,
      "averageSpeedMph": 15.6,
      "safetyEvents": []
    },
    {
      "id": "trip_47373145_20250517_19463",
      "vehicleId": "47373145",
      "driverId": "20000002",
      "startMs": 1747461522000,
      "endMs": 1747463442000,
      "startAddress": "346 Garcia Village",
      "endAddress": "7145 Robert Freeway Suite 014",
      "startCoords": {
        "latitude": 39.708972,
        "longitude": -105.053189
      },
      "endCoords": {
        "latitude": 39.711377,
        "longitude": -105.038283
      },
      "distanceMeters": 8581.1,
      "durationMs": 1920000,
      "drivingDurationMs": 1533197,
      "idlingDurationMs": 386803,
      "fuelConsumedMl": 1090,
      "fuelConsumedGallons": 0.288,
      "maxSpeedMph": 35.6,
      "averageSpeedMph": 10.0,
      "safetyEvents": []
    },
    {
      "id": "trip_47373145_20250517_19494",
      "vehicleId": "47373145",
      "driverId": "20000022",
      "startMs": 1747481129000,
      "endMs": 1747492831000,
      "startAddress": "4724 Mitchell Ranch Suite 202",
      "endAddress": "22593 Orr Causeway Apt. 117",
      "startCoords": {
        "latitude": 39.826765,
        "longitude": -104.947316
      },
      "endCoords": {
        "latitude": 39.734653,
        "longitude": -104.959441
      },
      "distanceMeters": 65895.6,
      "durationMs": 11702000,
      "drivingDurationMs": 8989681,
      "idlingDurationMs": 2712319,
      "fuelConsumedMl": 8377,
      "fuelConsumedGallons": 2.213,
      "maxSpeedMph": 36.9,
      "averageSpeedMph": 12.6,
      "safetyEvents": []
    },
    {
      "id": "trip_47373145_20250517_19525",
      "vehicleId": "47373145",
      "driverId": "20000013",
      "startMs": 1747498559000,
      "endMs": 1747501499000,
      "startAddress": "32701 Lawrence Circle Apt. 749",
      "endAddress": "8538 Marissa Extensions",
      "startCoords": {
        "latitude": 39.71936,
        "longitude": -104.957255
      },
      "endCoords": {
        "latitude": 39.801232,
        "longitude": -104.937584
      },
      "distanceMeters": 12718.1,
      "durationMs": 2940000,
      "drivingDurationMs": 2310841,
      "idlingDurationMs": 629159,
      "fuelConsumedMl": 1616,
      "fuelConsumedGallons": 0.427,
      "maxSpeedMph": 39.5,
      "averageSpeedMph": 9.7,
      "safetyEvents": []
    },
    {
      "id": "trip_47373145_20250517_19554",
      "vehicleId": "47373145",
      "driverId": "20000012",
      "startMs": 1747512371000,
      "endMs": 1747514111000,
      "startAddress": "6659 Karen Centers Suite 435",
      "endAddress": "03738 Alexander Underpass Suite 894",
      "startCoords": {
        "latitude": 39.753386,
        "longitude": -104.989658
      },
      "endCoords": {
        "latitude": 39.731757,
        "longitude": -104.931288
      },
      "distanceMeters": 8884.8,
      "durationMs": 1740000,
      "drivingDurationMs": 1385932,
      "idlingDurationMs": 354068,
      "fuelConsumedMl": 1128,
      "fuelConsumedGallons": 0.298,
      "maxSpeedMph": 30.8,
      "averageSpeedMph": 11.4,
      "safetyEvents": []
    },
    {
      "id": "trip_47373145_20250518_19582",
      "vehicleId": "47373145",
      "driverId": "20000020",
      "startMs": 1747537058000,
      "endMs": 1747539392000,
      "startAddress": "0457 Aaron Wall",
      "endAddress": "10617 Kelly Ferry Suite 412",
      "startCoords": {
        "latitude": 39.772829,
        "longitude": -105.015647
      },
      "endCoords": {
        "latitude": 39.798808,
        "longitude": -105.011995
      },
      "distanceMeters": 9500.8,
      "durationMs": 2334000,
      "drivingDurationMs": 1855111,
      "idlingDurationMs": 478889,
      "fuelConsumedMl": 1208,
      "fuelConsumedGallons": 0.319,
      "maxSpeedMph": 33.8,
      "averageSpeedMph": 9.1,
      "safetyEvents": []
    },
    {
      "id": "trip_47373145_20250518_19611",
      "vehicleId": "47373145",
      "driverId": "20000016",
      "startMs": 1747558639000,
      "endMs": 1747560833000,
      "startAddress": "87617 Alan Causeway Apt. 908",
      "endAddress": "481 Nicole Motorway",
      "startCoords": {
        "latitude": 39.750826,
        "longitude": -104.997499
      },
      "endCoords": {
        "latitude": 39.69619,
        "longitude": -104.922207
      },
      "distanceMeters": 12508.3,
      "durationMs": 2194000,
      "drivingDurationMs": 1677814,
      "idlingDurationMs": 516186,
      "fuelConsumedMl": 1590,
      "fuelConsumedGallons": 0.42,
      "maxSpeedMph": 38.3,
      "averageSpeedMph": 12.8,
      "safetyEvents": []
    },
    {
      "id": "trip_47373145_20250518_19635",
      "vehicleId": "47373145",
      "driverId": "20000005",
      "startMs": 1747574643000,
      "endMs": 1747576023000,
      "startAddress": "73760 Joseph Fields Suite 044",
      "endAddress": "475 Bennett Plains",
      "startCoords": {
        "latitude": 39.784975,
        "longitude": -104.995705
      },
      "endCoords": {
        "latitude": 39.697626,
        "longitude": -105.008356
      },
      "distanceMeters": 6826.2,
      "durationMs": 1380000,
      "drivingDurationMs": 1223308,
      "idlingDurationMs": 156692,
      "fuelConsumedMl": 867,
      "fuelConsumedGallons": 0.229,
      "maxSpeedMph": 35.3,
      "averageSpeedMph": 11.1,
      "safetyEvents": []
    },
    {
      "id": "trip_47373145_20250518_19664",
      "vehicleId": "47373145",
      "driverId": "20000017",
      "startMs": 1747596116000,
      "endMs": 1747598989000,
      "startAddress": "541 Ruiz Groves Suite 344",
      "endAddress": "162 Jeremy Trace",
      "startCoords": {
        "latitude": 39.715876,
        "longitude": -105.001927
      },
      "endCoords": {
        "latitude": 39.771804,
        "longitude": -105.041343
      },
      "distanceMeters": 11011.6,
      "durationMs": 2873000,
      "drivingDurationMs": 2164982,
      "idlingDurationMs": 708018,
      "fuelConsumedMl": 1401,
      "fuelConsumedGallons": 0.37,
      "maxSpeedMph": 26.1,
      "averageSpeedMph": 8.6,
      "safetyEvents": []
    },
    {
      "id": "trip_47373145_20250519_19694",
      "vehicleId": "47373145",
      "driverId": "20000011",
      "startMs": 1747646776000,
      "endMs": 1747648816000,
      "startAddress": "20718 Diaz Trafficway Apt. 296",
      "endAddress": "861 Jackson Place",
      "startCoords": {
        "latitude": 39.820194,
        "longitude": -104.962103
      },
      "endCoords": {
        "latitude": 39.788072,
        "longitude": -104.952613
      },
      "distanceMeters": 8533.1,
      "durationMs": 2040000,
      "drivingDurationMs": 1530237,
      "idlingDurationMs": 509763,
      "fuelConsumedMl": 1086,
      "fuelConsumedGallons": 0.287,
      "maxSpeedMph": 27.3,
      "averageSpeedMph": 9.4,
      "safetyEvents": []
    },
    {
      "id": "trip_47373145_20250519_19725",
      "vehicleId": "47373145",
      "driverId": "20000005",
      "startMs": 1747661535000,
      "endMs": 1747663695000,
      "startAddress": "130 Monica Ville Suite 077",
      "endAddress": "72706 Hammond Greens",
      "startCoords": {
        "latitude": 39.730551,
        "longitude": -104.935693
      },
      "endCoords": {
        "latitude": 39.773011,
        "longitude": -104.901944
      },
      "distanceMeters": 9554.5,
      "durationMs": 2160000,
      "drivingDurationMs": 1731019,
      "idlingDurationMs": 428981,
      "fuelConsumedMl": 1215,
      "fuelConsumedGallons": 0.321,
      "maxSpeedMph": 31.4,
      "averageSpeedMph": 9.9,
      "safetyEvents": []
    },
    {
      "id": "trip_47373145_20250519_19752",
      "vehicleId": "47373145",
      "driverId": "20000021",
      "startMs": 1747678307000,
      "endMs": 1747684590000,
      "startAddress": "27901 Anne Summit",
      "endAddress": "469 Pierce Spur Apt. 902",
      "startCoords": {
        "latitude": 39.743813,
        "longitude": -104.99868
      },
      "endCoords": {
        "latitude": 39.725243,
        "longitude": -105.006029
      },
      "distanceMeters": 33589.4,
      "durationMs": 6283000,
      "drivingDurationMs": 5545139,
      "idlingDurationMs": 737861,
      "fuelConsumedMl": 4270,
      "fuelConsumedGallons": 1.128,
      "maxSpeedMph": 26.3,
      "averageSpeedMph": 12.0,
      "safetyEvents": []
    },
    {
      "id": "trip_47373145_20250519_19782",
      "vehicleId": "47373145",
      "driverId": "20000009",
      "startMs": 1747695139000,
      "endMs": 1747698782000,
      "startAddress": "0018 Watson Streets",
      "endAddress": "07822 Kevin Turnpike Suite 865",
      "startCoords": {
        "latitude": 39.787819,
        "longitude": -104.940652
      },
      "endCoords": {
        "latitude": 39.823798,
        "longitude": -105.072252
      },
      "distanceMeters": 18441.6,
      "durationMs": 3643000,
      "drivingDurationMs": 2837110,
      "idlingDurationMs": 805890,
      "fuelConsumedMl": 2343,
      "fuelConsumedGallons": 0.619,
      "maxSpeedMph": 35.3,
      "averageSpeedMph": 11.3,
      "safetyEvents": []
    },
    {
      "id": "trip_47373145_20250520_19808",
      "vehicleId": "47373145",
      "driverId": "20000015",
      "startMs": 1747710461000,
      "endMs": 1747718864000,
      "startAddress": "21738 Gross Views Suite 723",
      "endAddress": "314 James Freeway",
      "startCoords": {
        "latitude": 39.75144,
        "longitude": -105.059632
      },
      "endCoords": {
        "latitude": 39.748521,
        "longitude": -104.992692
      },
      "distanceMeters": 42389.7,
      "durationMs": 8403000,
      "drivingDurationMs": 7257582,
      "idlingDurationMs": 1145418,
      "fuelConsumedMl": 5390,
      "fuelConsumedGallons": 1.424,
      "maxSpeedMph": 29.0,
      "averageSpeedMph": 11.3,
      "safetyEvents": []
    },
    {
      "id": "trip_47373145_20250520_19836",
      "vehicleId": "47373145",
      "driverId": "20000007",
      "startMs": 1747728336000,
      "endMs": 1747733834000,
      "startAddress": "432 Devon Burg Suite 139",
      "endAddress": "6389 Scott Greens",
      "startCoords": {
        "latitude": 39.733466,
        "longitude": -105.074391
      },
      "endCoords": {
        "latitude": 39.824197,
        "longitude": -104.918549
      },
      "distanceMeters": 39368.8,
      "durationMs": 5498000,
      "drivingDurationMs": 4894002,
      "idlingDurationMs": 603998,
      "fuelConsumedMl": 5004,
      "fuelConsumedGallons": 1.322,
      "maxSpeedMph": 33.4,
      "averageSpeedMph": 16.0,
      "safetyEvents": []
    },
    {
      "id": "trip_47373145_20250520_19866",
      "vehicleId": "47373145",
      "driverId": "20000018",
      "startMs": 1747744063000,
      "endMs": 1747755140000,
      "startAddress": "3122 Forbes Prairie Suite 831",
      "endAddress": "0347 Price Inlet",
      "startCoords": {
        "latitude": 39.8236,
        "longitude": -105.081265
      },
      "endCoords": {
        "latitude": 39.702471,
        "longitude": -104.923106
      },
      "distanceMeters": 87059.2,
      "durationMs": 11077000,
      "drivingDurationMs": 9901833,
      "idlingDurationMs": 1175167,
      "fuelConsumedMl": 11069,
      "fuelConsumedGallons": 2.924,
      "maxSpeedMph": 27.0,
      "averageSpeedMph": 17.6,
      "safetyEvents": []
    },
    {
      "id": "trip_47373145_20250520_19894",
      "vehicleId": "47373145",
      "driverId": "20000004",
      "startMs": 1747755883000,
      "endMs": 1747762973000,
      "startAddress": "678 Hughes Brooks Suite 212",
      "endAddress": "3967 Brown Lane Suite 400",
      "startCoords": {
        "latitude": 39.74942,
        "longitude": -105.061285
      },
      "endCoords": {
        "latitude": 39.717202,
        "longitude": -105.07117
      },
      "distanceMeters": 35125.3,
      "durationMs": 7090000,
      "drivingDurationMs": 6265024,
      "idlingDurationMs": 824976,
      "fuelConsumedMl": 4467,
      "fuelConsumedGallons": 1.18,
      "maxSpeedMph": 32.3,
      "averageSpeedMph": 11.1,
      "safetyEvents": []
    },
    {
      "id": "trip_47373145_20250520_19920",
      "vehicleId": "47373145",
      "driverId": "20000004",
      "startMs": 1747768315000,
      "endMs": 1747786766000,
      "startAddress": "06788 Susan Harbor",
      "endAddress": "351 Morgan Vista",
      "startCoords": {
        "latitude": 39.712899,
        "longitude": -105.013053
      },
      "endCoords": {
        "latitude": 39.737788,
        "longitude": -105.083138
      },
      "distanceMeters": 93599.2,
      "durationMs": 18451000,
      "drivingDurationMs": 15137633,
      "idlingDurationMs": 3313367,
      "fuelConsumedMl": 11901,
      "fuelConsumedGallons": 3.144,
      "maxSpeedMph": 39.1,
      "averageSpeedMph": 11.3,
      "safetyEvents": []
    },
    {
      "id": "trip_47373145_20250521_19951",
      "vehicleId": "47373145",
      "driverId": "20000011",
      "startMs": 1747788428000,
      "endMs": 1747790828000,
      "startAddress": "9731 Brown Valley",
      "endAddress": "43321 Washington Prairie Apt. 263",
      "startCoords": {
        "latitude": 39.698391,
        "longitude": -105.010381
      },
      "endCoords": {
        "latitude": 39.701548,
        "longitude": -104.984609
      },
      "distanceMeters": 9991.0,
      "durationMs": 2400000,
      "drivingDurationMs": 1812821,
      "idlingDurationMs": 587179,
      "fuelConsumedMl": 1272,
      "fuelConsumedGallons": 0.336,
      "maxSpeedMph": 36.2,
      "averageSpeedMph": 9.3,
      "safetyEvents": []
    },
    {
      "id": "trip_47373145_20250521_19982",
      "vehicleId": "47373145",
      "driverId": "20000005",
      "startMs": 1747811916000,
      "endMs": 1747844065000,
      "startAddress": "94281 Michael Ford",
      "endAddress": "31427 Ashley Ranch",
      "startCoords": {
        "latitude": 39.785241,
        "longitude": -104.900332
      },
      "endCoords": {
        "latitude": 39.723987,
        "longitude": -104.970966
      },
      "distanceMeters": 219983.6,
      "durationMs": 32149000,
      "drivingDurationMs": 25807509,
      "idlingDurationMs": 6341491,
      "fuelConsumedMl": 27970,
      "fuelConsumedGallons": 7.389,
      "maxSpeedMph": 39.2,
      "averageSpeedMph": 15.3,
      "safetyEvents": []
    },
    {
      "id": "trip_47373145_20250521_20044",
      "vehicleId": "47373145",
      "driverId": "20000021",
      "startMs": 1747846594000,
      "endMs": 1747848994000,
      "startAddress": "1545 Ashlee Fall",
      "endAddress": "9078 Sarah Heights",
      "startCoords": {
        "latitude": 39.748672,
        "longitude": -104.968153
      },
      "endCoords": {
        "latitude": 39.686934,
        "longitude": -104.933795
      },
      "distanceMeters": 14101.2,
      "durationMs": 2400000,
      "drivingDurationMs": 2114760,
      "idlingDurationMs": 285240,
      "fuelConsumedMl": 1794,
      "fuelConsumedGallons": 0.474,
      "maxSpeedMph": 29.4,
      "averageSpeedMph": 13.1,
      "safetyEvents": []
    },
    {
      "id": "trip_47373145_20250521_20069",
      "vehicleId": "47373145",
      "driverId": "20000009",
      "startMs": 1747855525000,
      "endMs": 1747873941000,
      "startAddress": "9156 John Turnpike Suite 323",
      "endAddress": "5823 Brian Lake Suite 493",
      "startCoords": {
        "latitude": 39.771696,
        "longitude": -105.086483
      },
      "endCoords": {
        "latitude": 39.693715,
        "longitude": -104.990997
      },
      "distanceMeters": 115798.4,
      "durationMs": 18416000,
      "drivingDurationMs": 15954294,
      "idlingDurationMs": 2461706,
      "fuelConsumedMl": 14721,
      "fuelConsumedGallons": 3.889,
      "maxSpeedMph": 31.9,
      "averageSpeedMph": 14.1,
      "safetyEvents": []
    },
    {
      "id": "trip_47373145_20250522_20104",
      "vehicleId": "47373145",
      "driverId": "20000001",
      "startMs": 1747873997000,
      "endMs": 1747875557000,
      "startAddress": "5351 Charles Groves Suite 676",
      "endAddress": "124 Taylor Rest Apt. 498",
      "startCoords": {
        "latitude": 39.805509,
        "longitude": -105.036154
      },
      "endCoords": {
        "latitude": 39.684345,
        "longitude": -104.983796
      },
      "distanceMeters": 9697.3,
      "durationMs": 1560000,
      "drivingDurationMs": 1239902,
      "idlingDurationMs": 320098,
      "fuelConsumedMl": 1234,
      "fuelConsumedGallons": 0.326,
      "maxSpeedMph": 38.6,
      "averageSpeedMph": 13.9,
      "safetyEvents": []
    },
    {
      "id": "trip_47373145_20250522_20136",
      "vehicleId": "47373145",
      "driverId": "20000022",
      "startMs": 1747898043000,
      "endMs": 1747904875000,
      "startAddress": "333 Hurst Court",
      "endAddress": "1576 Edwards Inlet Apt. 683",
      "startCoords": {
        "latitude": 39.693128,
        "longitude": -104.914303
      },
      "endCoords": {
        "latitude": 39.71721,
        "longitude": -105.062422
      },
      "distanceMeters": 43617.6,
      "durationMs": 6832000,
      "drivingDurationMs": 5560753,
      "idlingDurationMs": 1271247,
      "fuelConsumedMl": 5546,
      "fuelConsumedGallons": 1.465,
      "maxSpeedMph": 27.3,
      "averageSpeedMph": 14.3,
      "safetyEvents": []
    },
    {
      "id": "trip_47373145_20250522_20165",
      "vehicleId": "47373145",
      "driverId": "20000002",
      "startMs": 1747913015000,
      "endMs": 1747925512000,
      "startAddress": "59705 Sandra Park Suite 477",
      "endAddress": "6171 Lopez Alley Apt. 134",
      "startCoords": {
        "latitude": 39.783526,
        "longitude": -104.954945
      },
      "endCoords": {
        "latitude": 39.704447,
        "longitude": -105.027299
      },
      "distanceMeters": 59892.7,
      "durationMs": 12497000,
      "drivingDurationMs": 11238062,
      "idlingDurationMs": 1258938,
      "fuelConsumedMl": 7616,
      "fuelConsumedGallons": 2.012,
      "maxSpeedMph": 26.8,
      "averageSpeedMph": 10.7,
      "safetyEvents": []
    },
    {
      "id": "trip_47373145_20250522_20197",
      "vehicleId": "47373145",
      "driverId": "20000017",
      "startMs": 1747928376000,
      "endMs": 1747930116000,
      "startAddress": "9071 Terrence Glen",
      "endAddress": "228 Terrell Summit Suite 384",
      "startCoords": {
        "latitude": 39.712075,
        "longitude": -104.90047
      },
      "endCoords": {
        "latitude": 39.705382,
        "longitude": -104.973262
      },
      "distanceMeters": 10948.9,
      "durationMs": 1740000,
      "drivingDurationMs": 1542318,
      "idlingDurationMs": 197682,
      "fuelConsumedMl": 1393,
      "fuelConsumedGallons": 0.368,
      "maxSpeedMph": 39.7,
      "averageSpeedMph": 14.1,
      "safetyEvents": []
    },
    {
      "id": "trip_47373145_20250522_20228",
      "vehicleId": "47373145",
      "driverId": "20000016",
      "startMs": 1747942068000,
      "endMs": 1747948938000,
      "startAddress": "89242 Roberts Shores",
      "endAddress": "69206 Lawrence Parkways",
      "startCoords": {
        "latitude": 39.719321,
        "longitude": -104.959618
      },
      "endCoords": {
        "latitude": 39.691771,
        "longitude": -105.072744
      },
      "distanceMeters": 42299.5,
      "durationMs": 6870000,
      "drivingDurationMs": 5883048,
      "idlingDurationMs": 986952,
      "fuelConsumedMl": 5379,
      "fuelConsumedGallons": 1.421,
      "maxSpeedMph": 26.9,
      "averageSpeedMph": 13.8,
      "safetyEvents": []
    },
    {
      "id": "trip_47373145_20250523_20255",
      "vehicleId": "47373145",
      "driverId": "20000009",
      "startMs": 1747958561000,
      "endMs": 1747961261000,
      "startAddress": "142 Eaton Green Suite 809",
      "endAddress": "26977 Guerrero Point Apt. 700",
      "startCoords": {
        "latitude": 39.782883,
        "longitude": -104.982328
      },
      "endCoords": {
        "latitude": 39.780578,
        "longitude": -104.954074
      },
      "distanceMeters": 18154.5,
      "durationMs": 2700000,
      "drivingDurationMs": 2119907,
      "idlingDurationMs": 580093,
      "fuelConsumedMl": 2309,
      "fuelConsumedGallons": 0.61,
      "maxSpeedMph": 37.8,
      "averageSpeedMph": 15.0,
      "safetyEvents": []
    },
    {
      "id": "trip_47373145_20250523_20280",
      "vehicleId": "47373145",
      "driverId": "20000002",
      "startMs": 1747973520000,
      "endMs": 1747975620000,
      "startAddress": "8380 Angela Fields",
      "endAddress": "87527 William Fields",
      "startCoords": {
        "latitude": 39.791484,
        "longitude": -105.012347
      },
      "endCoords": {
        "latitude": 39.732759,
        "longitude": -105.021758
      },
      "distanceMeters": 11556.4,
      "durationMs": 2100000,
      "drivingDurationMs": 1844008,
      "idlingDurationMs": 255992,
      "fuelConsumedMl": 1469,
      "fuelConsumedGallons": 0.388,
      "maxSpeedMph": 26.1,
      "averageSpeedMph": 12.3,
      "safetyEvents": []
    },
    {
      "id": "trip_47373145_20250523_20309",
      "vehicleId": "47373145",
      "driverId": "20000016",
      "startMs": 1747989165000,
      "endMs": 1747991385000,
      "startAddress": "4490 Brandon Cliffs",
      "endAddress": "50467 Mullins Unions",
      "startCoords": {
        "latitude": 39.738273,
        "longitude": -104.938514
      },
      "endCoords": {
        "latitude": 39.756679,
        "longitude": -105.038348
      },
      "distanceMeters": 14593.0,
      "durationMs": 2220000,
      "drivingDurationMs": 1964994,
      "idlingDurationMs": 255006,
      "fuelConsumedMl": 1855,
      "fuelConsumedGallons": 0.49,
      "maxSpeedMph": 33.5,
      "averageSpeedMph": 14.7,
      "safetyEvents": []
    },
    {
      "id": "trip_47373145_20250523_20346",
      "vehicleId": "47373145",
      "driverId": "20000013",
      "startMs": 1748008261000,
      "endMs": 1748010421000,
      "startAddress": "166 Audrey Mission",
      "endAddress": "8833 Kathryn Pine Suite 105",
      "startCoords": {
        "latitude": 39.770547,
        "longitude": -105.022985
      },
      "endCoords": {
        "latitude": 39.692256,
        "longitude": -105.040932
      },
      "distanceMeters": 11251.3,
      "durationMs": 2160000,
      "drivingDurationMs": 1735257,
      "idlingDurationMs": 424743,
      "fuelConsumedMl": 1431,
      "fuelConsumedGallons": 0.378,
      "maxSpeedMph": 33.3,
      "averageSpeedMph": 11.7,
      "safetyEvents": []
    },
    {
      "id": "trip_47373145_20250523_20373",
      "vehicleId": "47373145",
      "driverId": "20000013",
      "startMs": 1748022429000,
      "endMs": 1748031109000,
      "startAddress": "539 Brown Ramp",
      "endAddress": "68425 Amanda Tunnel Suite 209",
      "startCoords": {
        "latitude": 39.707178,
        "longitude": -104.985949
      },
      "endCoords": {
        "latitude": 39.751641,
        "longitude": -104.903878
      },
      "distanceMeters": 41010.8,
      "durationMs": 8680000,
      "drivingDurationMs": 7313477,
      "idlingDurationMs": 1366523,
      "fuelConsumedMl": 5213,
      "fuelConsumedGallons": 1.377,
      "maxSpeedMph": 34.6,
      "averageSpeedMph": 10.6,
      "safetyEvents": []
    },
    {
      "id": "trip_47373145_20250523_20405",
      "vehicleId": "47373145",
      "driverId": "20000004",
      "startMs": 1748039615000,
      "endMs": 1748048501000,
      "startAddress": "1774 Rebecca Well",
      "endAddress": "236 Susan Stream",
      "startCoords": {
        "latitude": 39.801495,
        "longitude": -105.003522
      },
      "endCoords": {
        "latitude": 39.802282,
        "longitude": -105.016755
      },
      "distanceMeters": 54377.8,
      "durationMs": 8886000,
      "drivingDurationMs": 7761109,
      "idlingDurationMs": 1124891,
      "fuelConsumedMl": 6912,
      "fuelConsumedGallons": 1.826,
      "maxSpeedMph": 34.2,
      "averageSpeedMph": 13.7,
      "safetyEvents": []
    },
    {
      "id": "trip_47373145_20250524_20433",
      "vehicleId": "47373145",
      "driverId": "20000018",
      "startMs": 1748055724000,
      "endMs": 1748060505000,
      "startAddress": "012 Betty Glens Suite 971",
      "endAddress": "1729 Evan Ways",
      "startCoords": {
        "latitude": 39.799618,
        "longitude": -104.999965
      },
      "endCoords": {
        "latitude": 39.734161,
        "longitude": -105.009932
      },
      "distanceMeters": 20669.8,
      "durationMs": 4781000,
      "drivingDurationMs": 4010190,
      "idlingDurationMs": 770810,
      "fuelConsumedMl": 2627,
      "fuelConsumedGallons": 0.694,
      "maxSpeedMph": 31.4,
      "averageSpeedMph": 9.7,
      "safetyEvents": []
    },
    {
      "id": "trip_47373145_20250524_20461",
      "vehicleId": "47373145",
      "driverId": "20000011",
      "startMs": 1748073872000,
      "endMs": 1748076815000,
      "startAddress": "5164 Christina Green",
      "endAddress": "05811 Christopher Forks",
      "startCoords": {
        "latitude": 39.770221,
        "longitude": -105.066215
      },
      "endCoords": {
        "latitude": 39.69751,
        "longitude": -105.025919
      },
      "distanceMeters": 20301.1,
      "durationMs": 2943000,
      "drivingDurationMs": 2291125,
      "idlingDurationMs": 651875,
      "fuelConsumedMl": 2582,
      "fuelConsumedGallons": 0.682,
      "maxSpeedMph": 31.7,
      "averageSpeedMph": 15.4,
      "safetyEvents": []
    },
    {
      "id": "trip_47373145_20250524_20488",
      "vehicleId": "47373145",
      "driverId": "20000012",
      "startMs": 1748086181000,
      "endMs": 1748095853000,
      "startAddress": "1562 Ian Center",
      "endAddress": "33757 Julie Walks Apt. 625",
      "startCoords": {
        "latitude": 39.767925,
        "longitude": -105.022477
      },
      "endCoords": {
        "latitude": 39.826178,
        "longitude": -105.004109
      },
      "distanceMeters": 39002.6,
      "durationMs": 9672000,
      "drivingDurationMs": 7506042,
      "idlingDurationMs": 2165958,
      "fuelConsumedMl": 4959,
      "fuelConsumedGallons": 1.31,
      "maxSpeedMph": 30.8,
      "averageSpeedMph": 9.0,
      "safetyEvents": []
    },
    {
      "id": "trip_47373145_20250524_20519",
      "vehicleId": "47373145",
      "driverId": "20000022",
      "startMs": 1748101597000,
      "endMs": 1748102977000,
      "startAddress": "00959 Webb Island",
      "endAddress": "0855 Pena Fall",
      "startCoords": {
        "latitude": 39.721816,
        "longitude": -104.977299
      },
      "endCoords": {
        "latitude": 39.814844,
        "longitude": -104.906494
      },
      "distanceMeters": 9172.2,
      "durationMs": 1380000,
      "drivingDurationMs": 1124054,
      "idlingDurationMs": 255946,
      "fuelConsumedMl": 1166,
      "fuelConsumedGallons": 0.308,
      "maxSpeedMph": 26.4,
      "averageSpeedMph": 14.9,
      "safetyEvents": []
    },
    {
      "id": "trip_47373145_20250524_20546",
      "vehicleId": "47373145",
      "driverId": "20000018",
      "startMs": 1748115580000,
      "endMs": 1748126912000,
      "startAddress": "6209 Morales Row Apt. 004",
      "endAddress": "351 Davis Forges Apt. 525",
      "startCoords": {
        "latitude": 39.759203,
        "longitude": -105.007092
      },
      "endCoords": {
        "latitude": 39.773492,
        "longitude": -105.010099
      },
      "distanceMeters": 70133.8,
      "durationMs": 11332000,
      "drivingDurationMs": 9177004,
      "idlingDurationMs": 2154996,
      "fuelConsumedMl": 8918,
      "fuelConsumedGallons": 2.356,
      "maxSpeedMph": 31.2,
      "averageSpeedMph": 13.8,
      "safetyEvents": []
    },
    {
      "id": "trip_47373145_20250524_20575",
      "vehicleId": "47373145",
      "driverId": "20000018",
      "startMs": 1748131043000,
      "endMs": 1748133023000,
      "startAddress": "012 Kelly Plaza Suite 231",
      "endAddress": "798 Lee Manor",
      "startCoords": {
        "latitude": 39.70412,
        "longitude": -105.001332
      },
      "endCoords": {
        "latitude": 39.790004,
        "longitude": -104.972576
      },
      "distanceMeters": 8461.9,
      "durationMs": 1980000,
      "drivingDurationMs": 1599207,
      "idlingDurationMs": 380793,
      "fuelConsumedMl": 1075,
      "fuelConsumedGallons": 0.284,
      "maxSpeedMph": 28.3,
      "averageSpeedMph": 9.6,
      "safetyEvents": []
    },
    {
      "id": "trip_47373145_20250525_20604",
      "vehicleId": "47373145",
      "driverId": "20000002",
      "startMs": 1748153467000,
      "endMs": 1748156157000,
      "startAddress": "15882 Christina Islands Apt. 802",
      "endAddress": "29461 Young Court",
      "startCoords": {
        "latitude": 39.757127,
        "longitude": -104.909834
      },
      "endCoords": {
        "latitude": 39.698702,
        "longitude": -104.999334
      },
      "distanceMeters": 15698.0,
      "durationMs": 2690000,
      "drivingDurationMs": 2337531,
      "idlingDurationMs": 352469,
      "fuelConsumedMl": 1995,
      "fuelConsumedGallons": 0.527,
      "maxSpeedMph": 37.9,
      "averageSpeedMph": 13.1,
      "safetyEvents": []
    },
    {
      "id": "trip_47373145_20250525_20633",
      "vehicleId": "47373145",
      "driverId": "20000002",
      "startMs": 1748174825000,
      "endMs": 1748177045000,
      "startAddress": "86959 Michelle Locks",
      "endAddress": "289 Derrick Dale",
      "startCoords": {
        "latitude": 39.762758,
        "longitude": -104.938279
      },
      "endCoords": {
        "latitude": 39.811058,
        "longitude": -105.069718
      },
      "distanceMeters": 11916.6,
      "durationMs": 2220000,
      "drivingDurationMs": 1794965,
      "idlingDurationMs": 425035,
      "fuelConsumedMl": 1514,
      "fuelConsumedGallons": 0.4,
      "maxSpeedMph": 26.6,
      "averageSpeedMph": 12.0,
      "safetyEvents": []
    },
    {
      "id": "trip_47373145_20250525_20661",
      "vehicleId": "47373145",
      "driverId": "20000020",
      "startMs": 1748193026000,
      "endMs": 1748194886000,
      "startAddress": "6614 Mark Via",
      "endAddress": "39662 Wilson Wells Suite 482",
      "startCoords": {
        "latitude": 39.809227,
        "longitude": -104.971069
      },
      "endCoords": {
        "latitude": 39.74438,
        "longitude": -105.027071
      },
      "distanceMeters": 12527.2,
      "durationMs": 1860000,
      "drivingDurationMs": 1494335,
      "idlingDurationMs": 365665,
      "fuelConsumedMl": 1594,
      "fuelConsumedGallons": 0.421,
      "maxSpeedMph": 33.2,
      "averageSpeedMph": 15.1,
      "safetyEvents": []
    },
    {
      "id": "trip_47373145_20250525_20689",
      "vehicleId": "47373145",
      "driverId": "20000001",
      "startMs": 1748217543000,
      "endMs": 1748219917000,
      "startAddress": "3285 Carpenter Overpass",
      "endAddress": "454 Stone Station Suite 973",
      "startCoords": {
        "latitude": 39.777251,
        "longitude": -105.048246
      },
      "endCoords": {
        "latitude": 39.803047,
        "longitude": -104.981322
      },
      "distanceMeters": 17561.1,
      "durationMs": 2374000,
      "drivingDurationMs": 2036294,
      "idlingDurationMs": 337706,
      "fuelConsumedMl": 2233,
      "fuelConsumedGallons": 0.59,
      "maxSpeedMph": 37.2,
      "averageSpeedMph": 16.5,
      "safetyEvents": []
    },
    {
      "id": "trip_47373145_20250526_20719",
      "vehicleId": "47373145",
      "driverId": "20000008",
      "startMs": 1748250046000,
      "endMs": 1748251891000,
      "startAddress": "480 Palmer Isle",
      "endAddress": "6199 Cisneros Spurs",
      "startCoords": {
        "latitude": 39.773011,
        "longitude": -104.991938
      },
      "endCoords": {
        "latitude": 39.743635,
        "longitude": -104.945367
      },
      "distanceMeters": 8281.3,
      "durationMs": 1845000,
      "drivingDurationMs": 1628733,
      "idlingDurationMs": 216267,
      "fuelConsumedMl": 1052,
      "fuelConsumedGallons": 0.278,
      "maxSpeedMph": 26.6,
      "averageSpeedMph": 10.0,
      "safetyEvents": []
    },
    {
      "id": "trip_47373145_20250526_20747",
      "vehicleId": "47373145",
      "driverId": "20000010",
      "startMs": 1748262731000,
      "endMs": 1748265495000,
      "startAddress": "83152 Rivera Forest Suite 792",
      "endAddress": "0333 Harris Route Suite 588",
      "startCoords": {
        "latitude": 39.821096,
        "longitude": -104.946618
      },
      "endCoords": {
        "latitude": 39.735536,
        "longitude": -105.048036
      },
      "distanceMeters": 18653.8,
      "durationMs": 2764000,
      "drivingDurationMs": 2284950,
      "idlingDurationMs": 479050,
      "fuelConsumedMl": 2373,
      "fuelConsumedGallons": 0.627,
      "maxSpeedMph": 29.5,
      "averageSpeedMph": 15.1,
      "safetyEvents": []
    },
    {
      "id": "trip_47373145_20250526_20774",
      "vehicleId": "47373145",
      "driverId": "20000022",
      "startMs": 1748275977000,
      "endMs": 1748277957000,
      "startAddress": "48979 Todd Causeway",
      "endAddress": "36784 Hoover Manors Apt. 413",
      "startCoords": {
        "latitude": 39.810144,
        "longitude": -104.999084
      },
      "endCoords": {
        "latitude": 39.720272,
        "longitude": -105.015418
      },
      "distanceMeters": 10546.3,
      "durationMs": 1980000,
      "drivingDurationMs": 1644556,
      "idlingDurationMs": 335444,
      "fuelConsumedMl": 1340,
      "fuelConsumedGallons": 0.354,
      "maxSpeedMph": 31.0,
      "averageSpeedMph": 11.9,
      "safetyEvents": []
    },
    {
      "id": "trip_47373145_20250526_20802",
      "vehicleId": "47373145",
      "driverId": "20000009",
      "startMs": 1748290854000,
      "endMs": 1748292834000,
      "startAddress": "64800 Donald Lodge",
      "endAddress": "10727 Nguyen Path",
      "startCoords": {
        "latitude": 39.697642,
        "longitude": -104.90457
      },
      "endCoords": {
        "latitude": 39.755644,
        "longitude": -104.986093
      },
      "distanceMeters": 14198.0,
      "durationMs": 1980000,
      "drivingDurationMs": 1734952,
      "idlingDurationMs": 245048,
      "fuelConsumedMl": 1806,
      "fuelConsumedGallons": 0.477,
      "maxSpeedMph": 37.7,
      "averageSpeedMph": 16.0,
      "safetyEvents": []
    },
    {
      "id": "trip_47373145_20250527_20835",
      "vehicleId": "47373145",
      "driverId": "20000014",
      "startMs": 1748313701000,
      "endMs": 1748316161000,
      "startAddress": "91946 Alexander Land Suite 151",
      "endAddress": "195 Bautista Locks",
      "startCoords": {
        "latitude": 39.687654,
        "longitude": -105.022468
      },
      "endCoords": {
        "latitude": 39.731763,
        "longitude": -104.936804
      },
      "distanceMeters": 15787.9,
      "durationMs": 2460000,
      "drivingDurationMs": 2002117,
      "idlingDurationMs": 457883,
      "fuelConsumedMl": 2006,
      "fuelConsumedGallons": 0.53,
      "maxSpeedMph": 29.7,
      "averageSpeedMph": 14.4,
      "safetyEvents": []
    },
    {
      "id": "trip_47373145_20250527_20859",
      "vehicleId": "47373145",
      "driverId": "20000020",
      "startMs": 1748328972000,
      "endMs": 1748344218000,
      "startAddress": "640 Riley Trace",
      "endAddress": "14774 Veronica Junction",
      "startCoords": {
        "latitude": 39.802988,
        "longitude": -104.999749
      },
      "endCoords": {
        "latitude": 39.754895,
        "longitude": -105.016054
      },
      "distanceMeters": 77478.1,
      "durationMs": 15246000,
      "drivingDurationMs": 11939104,
      "idlingDurationMs": 3306896,
      "fuelConsumedMl": 9850,
      "fuelConsumedGallons": 2.602,
      "maxSpeedMph": 27.7,
      "averageSpeedMph": 11.4,
      "safetyEvents": []
    },
    {
      "id": "trip_47373145_20250527_20887",
      "vehicleId": "47373145",
      "driverId": "20000006",
      "startMs": 1748344494000,
      "endMs": 1748356031000,
      "startAddress": "149 Wood Row Suite 552",
      "endAddress": "8837 Susan Stream",
      "startCoords": {
        "latitude": 39.715895,
        "longitude": -104.986041
      },
      "endCoords": {
        "latitude": 39.781369,
        "longitude": -105.061002
      },
      "distanceMeters": 82289.8,
      "durationMs": 11537000,
      "drivingDurationMs": 10259184,
      "idlingDurationMs": 1277816,
      "fuelConsumedMl": 10463,
      "fuelConsumedGallons": 2.764,
      "maxSpeedMph": 27.8,
      "averageSpeedMph": 16.0,
      "safetyEvents": []
    },
    {
      "id": "trip_47373145_20250527_20916",
      "vehicleId": "47373145",
      "driverId": "20000016",
      "startMs": 1748356499000,
      "endMs": 1748362216000,
      "startAddress": "83612 Kimberly Light Suite 034",
      "endAddress": "92209 Beltran Light",
      "startCoords": {
        "latitude": 39.767748,
        "longitude": -104.9774
      },
      "endCoords": {
        "latitude": 39.761486,
        "longitude": -104.910886
      },
      "distanceMeters": 32846.6,
      "durationMs": 5717000,
      "drivingDurationMs": 5063744,
      "idlingDurationMs": 653256,
      "fuelConsumedMl": 4175,
      "fuelConsumedGallons": 1.103,
      "maxSpeedMph": 26.8,
      "averageSpeedMph": 12.9,
      "safetyEvents": []
    },
    {
      "id": "trip_47373145_20250527_20947",
      "vehicleId": "47373145",
      "driverId": "20000013",
      "startMs": 1748372896000,
      "endMs": 1748378474000,
      "startAddress": "18571 Meagan Creek Apt. 625",
      "endAddress": "835 Mccann Knoll Apt. 501",
      "startCoords": {
        "latitude": 39.780253,
        "longitude": -104.996962
      },
      "endCoords": {
        "latitude": 39.741897,
        "longitude": -105.02928
      },
      "distanceMeters": 29944.4,
      "durationMs": 5578000,
      "drivingDurationMs": 4927920,
      "idlingDurationMs": 650080,
      "fuelConsumedMl": 3808,
      "fuelConsumedGallons": 1.006,
      "maxSpeedMph": 39.6,
      "averageSpeedMph": 12.0,
      "safetyEvents": []
    },
    {
      "id": "trip_47373145_20250528_20977",
      "vehicleId": "47373145",
      "driverId": "20000019",
      "startMs": 1748391002000,
      "endMs": 1748397709000,
      "startAddress": "1955 Jake Field Suite 940",
      "endAddress": "216 Mark Island",
      "startCoords": {
        "latitude": 39.684475,
        "longitude": -104.939648
      },
      "endCoords": {
        "latitude": 39.716279,
        "longitude": -104.918587
      },
      "distanceMeters": 43710.1,
      "durationMs": 6707000,
      "drivingDurationMs": 5886011,
      "idlingDurationMs": 820989,
      "fuelConsumedMl": 5557,
      "fuelConsumedGallons": 1.468,
      "maxSpeedMph": 26.1,
      "averageSpeedMph": 14.6,
      "safetyEvents": []
    },
    {
      "id": "trip_47373145_20250528_21008",
      "vehicleId": "47373145",
      "driverId": "20000018",
      "startMs": 1748409223000,
      "endMs": 1748410543000,
      "startAddress": "767 Steele Spur Suite 942",
      "endAddress": "27663 Williams Fall Apt. 009",
      "startCoords": {
        "latitude": 39.810059,
        "longitude": -104.943147
      },
      "endCoords": {
        "latitude": 39.771338,
        "longitude": -105.038316
      },