{
  "vehicleId": "40426209",
  "vehicleName": "DEN-BOX-02",
  "month": "2025_05",
  "pagination": {
    "endCursor": "trip_40426209_20250531_001",
    "hasNextPage": false
  },
  "trips": [
    {
      "id": "trip_40426209_20250501_001",
      "vehicleId": "40426209",
      "driverId": "20000012",
      "startMs": 1746104460000,
      "endMs": 1746128261162,
      "startAddress": "59233 Richard Center",
      "endAddress": "7503 Brown Locks Suite 668",
      "startCoords": {
        "latitude": 39.820758,
        "longitude": -104.951711
      },
      "endCoords": {
        "latitude": 39.716842,
        "longitude": -105.063389
      },
      "distanceMeters": 180218.2,
      "durationMs": 23801162,
      "drivingDurationMs": 19353405,
      "idlingDurationMs": 4447757,
      "fuelConsumedMl": 40371,
      "fuelConsumedGallons": 10.665,
      "maxSpeedMph": 61.4,
      "averageSpeedMph": 16.9,
      "safetyEvents": []
    },
    {
      "id": "trip_40426209_20250502_001",
      "vehicleId": "40426209",
      "driverId": "20000022",
      "startMs": 1746186840000,
      "endMs": 1746191341728,
      "startAddress": "24560 Moore Lakes",
      "endAddress": "9821 Romero Forge Apt. 368",
      "startCoords": {
        "latitude": 39.790319,
        "longitude": -104.92946
      },
      "endCoords": {
        "latitude": 39.69212,
        "longitude": -105.0753
      },
      "distanceMeters": 43749.2,
      "durationMs": 4501729,
      "drivingDurationMs": 4079628,
      "idlingDurationMs": 422101,
      "fuelConsumedMl": 9800,
      "fuelConsumedGallons": 2.589,
      "maxSpeedMph": 64.7,
      "averageSpeedMph": 21.7,
      "safetyEvents": []
    },
    {
      "id": "trip_40426209_20250503_001",
      "vehicleId": "40426209",
      "driverId": "20000018",
      "startMs": 1746252060000,
      "endMs": 1746277673635,
      "startAddress": "3628 Diana Roads Suite 012",
      "endAddress": "8242 Williams Rapids",
      "startCoords": {
        "latitude": 39.795359,
        "longitude": -105.058029
      },
      "endCoords": {
        "latitude": 39.693807,
        "longitude": -105.032901
      },
      "distanceMeters": 218910.8,
      "durationMs": 25613635,
      "drivingDurationMs": 22706791,
      "idlingDurationMs": 2906844,
      "fuelConsumedMl": 49040,
      "fuelConsumedGallons": 12.955,
      "maxSpeedMph": 68.1,
      "averageSpeedMph": 19.1,
      "safetyEvents": [
        {
          "type": "speeding",
          "startMs": 1746272040000,
          "maxSpeedMph": 68.1
        }
      ]
    },
    {
      "id": "trip_40426209_20250505_001",
      "vehicleId": "40426209",
      "driverId": "20000016",
      "startMs": 1746461460000,
      "endMs": 1746478800000,
      "startAddress": "3694 Williams Glens Suite 787",
      "endAddress": "689 Derek Stream Suite 741",
      "startCoords": {
        "latitude": 39.823453,
        "longitude": -105.062569
      },
      "endCoords": {
        "latitude": 39.811646,
        "longitude": -104.909106
      },
      "distanceMeters": 180828.6,
      "durationMs": 17340000,
      "drivingDurationMs": 16725609,
      "idlingDurationMs": 614391,
      "fuelConsumedMl": 40508,
      "fuelConsumedGallons": 10.701,
      "maxSpeedMph": 54.2,
      "averageSpeedMph": 23.3,
      "safetyEvents": []
    },
    {
      "id": "trip_40426209_20250506_001",
      "vehicleId": "40426209",
      "driverId": "20000021",
      "startMs": 1746524760000,
      "endMs": 1746539432610,
      "startAddress": "7641 Robinson Heights Suite 967",
      "endAddress": "115 Leblanc Coves",
      "startCoords": {
        "latitude": 39.785028,
        "longitude": -105.073945
      },
      "endCoords": {
        "latitude": 39.787557,
        "longitude": -104.985178
      },
      "distanceMeters": 125629.7,
      "durationMs": 14672611,
      "drivingDurationMs": 13726379,
      "idlingDurationMs": 946232,
      "fuelConsumedMl": 28145,
      "fuelConsumedGallons": 7.435,
      "maxSpeedMph": 63.5,
      "averageSpeedMph": 19.2,
      "safetyEvents": []
    },
    {
      "id": "trip_40426209_20250507_001",
      "vehicleId": "40426209",
      "driverId": "20000010",
      "startMs": 1746628620000,
      "endMs": 1746638528356,
      "startAddress": "205 Leah Center",
      "endAddress": "31961 Alexander Junctions",
      "startCoords": {
        "latitude": 39.715305,
        "longitude": -104.960756
      },
      "endCoords": {
        "latitude": 39.702365,
        "longitude": -105.040118
      },
      "distanceMeters": 85105.4,
      "durationMs": 9908357,
      "drivingDurationMs": 8701684,
      "idlingDurationMs": 1206672,
      "fuelConsumedMl": 19063,
      "fuelConsumedGallons": 5.036,
      "maxSpeedMph": 28.9,
      "averageSpeedMph": 19.2,
      "safetyEvents": []
    },
    {
      "id": "trip_40426209_20250508_001",
      "vehicleId": "40426209",
      "driverId": "20000010",
      "startMs": 1746696420000,
      "endMs": 1746713007486,
      "startAddress": "59910 Jennifer Parks Suite 501",
      "endAddress": "3474 Eric Extension Suite 985",
      "startCoords": {
        "latitude": 39.759229,
        "longitude": -104.999662
      },
      "endCoords": {
        "latitude": 39.823862,
        "longitude": -104.922759
      },
      "distanceMeters": 206493.7,
      "durationMs": 16587487,
      "drivingDurationMs": 13672084,
      "idlingDurationMs": 2915402,
      "fuelConsumedMl": 46258,
      "fuelConsumedGallons": 12.22,
      "maxSpeedMph": 28.8,
      "averageSpeedMph": 27.8,
      "safetyEvents": []
    },
    {
      "id": "trip_40426209_20250509_001",
      "vehicleId": "40426209",
      "driverId": "20000021",
      "startMs": 1746784380000,
      "endMs": 1746793721066,
      "startAddress": "65988 Ian Shoals",
      "endAddress": "05598 Leblanc Wall",
      "startCoords": {
        "latitude": 39.72051,
        "longitude": -105.068734
      },
      "endCoords": {
        "latitude": 39.806256,
        "longitude": -105.071871
      },
      "distanceMeters": 130365.7,
      "durationMs": 9341066,
      "drivingDurationMs": 8590956,
      "idlingDurationMs": 750110,
      "fuelConsumedMl": 29204,
      "fuelConsumedGallons": 7.715,
      "maxSpeedMph": 31.8,
      "averageSpeedMph": 31.2,
      "safetyEvents": []
    },
    {
      "id": "trip_40426209_20250510_001",
      "vehicleId": "40426209",
      "driverId": "20000006",
      "startMs": 1746896940000,
      "endMs": 1746901071975,
      "startAddress": "918 Kimberly Fields Suite 608",
      "endAddress": "326 Heather Manor",
      "startCoords": {
        "latitude": 39.82746,
        "longitude": -105.056213
      },
      "endCoords": {
        "latitude": 39.742393,
        "longitude": -105.058429
      },
      "distanceMeters": 45464.2,
      "durationMs": 4131976,
      "drivingDurationMs": 3646581,
      "idlingDurationMs": 485395,
      "fuelConsumedMl": 10183,
      "fuelConsumedGallons": 2.69,
      "maxSpeedMph": 64.7,
      "averageSpeedMph": 24.6,
      "safetyEvents": []
    },
    {
      "id": "trip_40426209_20250512_001",
      "vehicleId": "40426209",
      "driverId": "20000002",
      "startMs": 1747046940000,
      "endMs": 1747063835588,
      "startAddress": "932 David Isle Suite 898",
      "endAddress": "7922 Brown Inlet Apt. 799",
      "startCoords": {
        "latitude": 39.749123,
        "longitude": -105.062805
      },
      "endCoords": {
        "latitude": 39.798297,
        "longitude": -104.996193
      },
      "distanceMeters": 146523.8,
      "durationMs": 16895589,
      "drivingDurationMs": 14717640,
      "idlingDurationMs": 2177948,
      "fuelConsumedMl": 32823,
      "fuelConsumedGallons": 8.671,
      "maxSpeedMph": 63.6,
      "averageSpeedMph": 19.4,
      "safetyEvents": []
    },
    {
      "id": "trip_40426209_20250513_001",
      "vehicleId": "40426209",
      "driverId": "20000014",
      "startMs": 1747126920000,
      "endMs": 1747138694512,
      "startAddress": "3155 Price Route Apt. 734",
      "endAddress": "7298 Gibson Port",
      "startCoords": {
        "latitude": 39.724453,
        "longitude": -104.917499
      },
      "endCoords": {
        "latitude": 39.815989,
        "longitude": -105.079843
      },
      "distanceMeters": 142664.2,
      "durationMs": 11774512,
      "drivingDurationMs": 10860436,
      "idlingDurationMs": 914076,
      "fuelConsumedMl": 31960,
      "fuelConsumedGallons": 8.443,
      "maxSpeedMph": 49.7,
      "averageSpeedMph": 27.1,
      "safetyEvents": []
    },
    {
      "id": "trip_40426209_20250514_001",
      "vehicleId": "40426209",
      "driverId": null,
      "startMs": 1747249020000,
      "endMs": 1747255470393,
      "startAddress": "04058 Kurt Neck Suite 138",
      "endAddress": "61776 Ashley Way Apt. 860",
      "startCoords": {
        "latitude": 39.71324,
        "longitude": -105.017903
      },
      "endCoords": {
        "latitude": 39.741453,
        "longitude": -104.952506
      },
      "distanceMeters": 60340.3,
      "durationMs": 6450393,
      "drivingDurationMs": 5308965,
      "idlingDurationMs": 1141428,
      "fuelConsumedMl": 13518,
      "fuelConsumedGallons": 3.571,
      "maxSpeedMph": 44.7,
      "averageSpeedMph": 20.9,
      "safetyEvents": []
    },
    {
      "id": "trip_40426209_20250515_001",
      "vehicleId": "40426209",
      "driverId": "20000021",
      "startMs": 1747305960000,
      "endMs": 1747309009095,
      "startAddress": "407 Long Vista Suite 596",
      "endAddress": "074 Ian Ferry Suite 740",
      "startCoords": {
        "latitude": 39.713368,
        "longitude": -104.957443
      },
      "endCoords": {
        "latitude": 39.811013,
        "longitude": -104.918806
      },
      "distanceMeters": 34806.3,
      "durationMs": 3049096,
      "drivingDurationMs": 2633531,
      "idlingDurationMs": 415564,
      "fuelConsumedMl": 7798,
      "fuelConsumedGallons": 2.06,
      "maxSpeedMph": 53.6,
      "averageSpeedMph": 25.5,
      "safetyEvents": []
    },
    {
      "id": "trip_40426209_20250516_001",
      "vehicleId": "40426209",
      "driverId": "20000021",
      "startMs": 1747402680000,
      "endMs": 1747417667810,
      "startAddress": "477 Joshua Burg Suite 411",
      "endAddress": "88001 Jose Village Suite 511",
      "startCoords": {
        "latitude": 39.81791,
        "longitude": -104.961714
      },
      "endCoords": {
        "latitude": 39.700734,
        "longitude": -105.010751
      },
      "distanceMeters": 117975.5,
      "durationMs": 14987810,
      "drivingDurationMs": 12253895,
      "idlingDurationMs": 2733915,
      "fuelConsumedMl": 26430,
      "fuelConsumedGallons": 6.982,
      "maxSpeedMph": 60.9,
      "averageSpeedMph": 17.6,
      "safetyEvents": []
    },
    {
      "id": "trip_40426209_20250519_001",
      "vehicleId": "40426209",
      "driverId": "20000005",
      "startMs": 1747662360000,
      "endMs": 1747682506865,
      "startAddress": "2206 Rodriguez Summit",
      "endAddress": "833 Flores Lake Apt. 492",
      "startCoords": {
        "latitude": 39.752738,
        "longitude": -105.028355
      },
      "endCoords": {
        "latitude": 39.771513,
        "longitude": -104.950271
      },
      "distanceMeters": 146272.6,
      "durationMs": 20146866,
      "drivingDurationMs": 17358613,
      "idlingDurationMs": 2788252,
      "fuelConsumedMl": 32767,
      "fuelConsumedGallons": 8.656,
      "maxSpeedMph": 32.3,
      "averageSpeedMph": 16.2,
      "safetyEvents": []
    },
    {
      "id": "trip_40426209_20250520_001",
      "vehicleId": "40426209",
      "driverId": "20000006",
      "startMs": 1747760820000,
      "endMs": 1747774800000,
      "startAddress": "5867 Johnson Camp Apt. 975",
      "endAddress": "451 Short Brooks Suite 712",
      "startCoords": {
        "latitude": 39.738783,
        "longitude": -104.918341
      },
      "endCoords": {
        "latitude": 39.798903,
        "longitude": -104.953963
      },
      "distanceMeters": 101674.3,
      "durationMs": 13980000,
      "drivingDurationMs": 11685987,
      "idlingDurationMs": 2294013,
      "fuelConsumedMl": 22777,
      "fuelConsumedGallons": 6.017,
      "maxSpeedMph": 30.2,
      "averageSpeedMph": 16.3,
      "safetyEvents": []
    },
    {
      "id": "trip_40426209_20250521_001",
      "vehicleId": "40426209",
      "driverId": "20000004",
      "startMs": 1747852440000,
      "endMs": 1747861200000,
      "startAddress": "7489 Anita Mills",
      "endAddress": "341 Michelle Burgs",
      "startCoords": {
        "latitude": 39.725563,
        "longitude": -104.902233
      },
      "endCoords": {
        "latitude": 39.685608,
        "longitude": -105.038613
      },
      "distanceMeters": 73822.7,
      "durationMs": 8760000,
      "drivingDurationMs": 7008000,
      "idlingDurationMs": 1752000,
      "fuelConsumedMl": 16538,
      "fuelConsumedGallons": 4.369,
      "maxSpeedMph": 52.8,
      "averageSpeedMph": 18.9,
      "safetyEvents": []
    },
    {
      "id": "trip_40426209_20250522_001",
      "vehicleId": "40426209",
      "driverId": "20000022",
      "startMs": 1747901820000,
      "endMs": 1747911098224,
      "startAddress": "1519 Tracy Avenue",
      "endAddress": "41691 Lopez Turnpike",
      "startCoords": {
        "latitude": 39.735619,
        "longitude": -104.941895
      },
      "endCoords": {
        "latitude": 39.762918,
        "longitude": -105.00132
      },
      "distanceMeters": 75941.4,
      "durationMs": 9278224,
      "drivingDurationMs": 7652864,
      "idlingDurationMs": 1625361,
      "fuelConsumedMl": 17012,
      "fuelConsumedGallons": 4.494,
      "maxSpeedMph": 64.2,
      "averageSpeedMph": 18.3,
      "safetyEvents": []
    },
    {
      "id": "trip_40426209_20250523_001",
      "vehicleId": "40426209",
      "driverId": "20000012",
      "startMs": 1748018880000,
      "endMs": 1748028665954,
      "startAddress": "94958 Noah Falls Apt. 703",
      "endAddress": "8624 Garcia Mills Apt. 056",
      "startCoords": {
        "latitude": 39.741485,
        "longitude": -104.957772
      },
      "endCoords": {
        "latitude": 39.787775,
        "longitude": -104.941717
      },
      "distanceMeters": 117055.3,
      "durationMs": 9785955,
      "drivingDurationMs": 8264858,
      "idlingDurationMs": 1521097,
      "fuelConsumedMl": 26222,
      "fuelConsumedGallons": 6.927,
      "maxSpeedMph": 28.8,
      "averageSpeedMph": 26.8,
      "safetyEvents": []
    },
    {
      "id": "trip_40426209_20250525_001",
      "vehicleId": "40426209",
      "driverId": "20000005",
      "startMs": 1748167620000,
      "endMs": 1748172410773,
      "startAddress": "6435 Patterson Underpass",
      "endAddress": "802 Heath Plain Apt. 860",
      "startCoords": {
        "latitude": 39.778696,
        "longitude": -104.996652
      },
      "endCoords": {
        "latitude": 39.716392,
        "longitude": -105.076601
      },
      "distanceMeters": 55111.6,
      "durationMs": 4790773,
      "drivingDurationMs": 4372328,
      "idlingDurationMs": 418445,
      "fuelConsumedMl": 12344,
      "fuelConsumedGallons": 3.261,
      "maxSpeedMph": 53.1,
      "averageSpeedMph": 25.7,
      "safetyEvents": []
    },
    {
      "id": "trip_40426209_20250526_001",
      "vehicleId": "40426209",
      "driverId": "20000020",
      "startMs": 1748260620000,
      "endMs": 1748274111241,
      "startAddress": "4710 Barton Corner Apt. 485",
      "endAddress": "271 Bowers Circles Suite 497",
      "startCoords": {
        "latitude": 39.698425,
        "longitude": -104.946144
      },
      "endCoords": {
        "latitude": 39.691873,
        "longitude": -105.067266
      },
      "distanceMeters": 170194.2,
      "durationMs": 13491242,
      "drivingDurationMs": 11879612,
      "idlingDurationMs": 1611629,
      "fuelConsumedMl": 38127,
      "fuelConsumedGallons": 10.072,
      "maxSpeedMph": 68.4,
      "averageSpeedMph": 28.2,
      "safetyEvents": [
        {
          "type": "speeding",
          "startMs": 1748271900000,
          "maxSpeedMph": 68.4
        }
      ]
    },
    {
      "id": "trip_40426209_20250527_001",
      "vehicleId": "40426209",
      "driverId": "20000011",
      "startMs": 1748351280000,
      "endMs": 1748367317752,
      "startAddress": "05275 Parker Locks Apt. 516",
      "endAddress": "38455 Ruth Pine",
      "startCoords": {
        "latitude": 39.807328,
        "longitude": -104.931155
      },
      "endCoords": {
        "latitude": 39.733595,
        "longitude": -104.909281
      },
      "distanceMeters": 167847.2,
      "durationMs": 16037752,
      "drivingDurationMs": 13970329,
      "idlingDurationMs": 2067424,
      "fuelConsumedMl": 37600,
      "fuelConsumedGallons": 9.933,
      "maxSpeedMph": 33.2,
      "averageSpeedMph": 23.4,
      "safetyEvents": []
    },
    {
      "id": "trip_40426209_20250528_001",
      "vehicleId": "40426209",
      "driverId": "20000001",
      "startMs": 1748454780000,
      "endMs": 1748466000000,
      "startAddress": "4107 Brown Row Apt. 245",
      "endAddress": "5319 Dylan Islands Apt. 545",
      "startCoords": {
        "latitude": 39.757617,
        "longitude": -104.972893
      },
      "endCoords": {
        "latitude": 39.790587,
        "longitude": -104.907472
      },
      "distanceMeters": 90709.4,
      "durationMs": 11220000,
      "drivingDurationMs": 8976000,
      "idlingDurationMs": 2244000,
      "fuelConsumedMl": 20320,
      "fuelConsumedGallons": 5.368,
      "maxSpeedMph": 65.6,
      "averageSpeedMph": 18.1,
      "safetyEvents": [
        {
          "type": "speeding",
          "startMs": 1748460900000,
          "maxSpeedMph": 65.6
        }
      ]
    },
    {
      "id": "trip_40426209_20250529_001",
      "vehicleId": "40426209",
      "driverId": "20000019",
      "startMs": 1748506860000,
      "endMs": 1748524063094,
      "startAddress": "0509 Dawn Inlet Apt. 084",
      "endAddress": "2856 Alan Common Apt. 223",
      "startCoords": {
        "latitude": 39.724547,
        "longitude": -105.074586
      },
      "endCoords": {
        "latitude": 39.700288,
        "longitude": -105.069744
      },
      "distanceMeters": 131199.0,
      "durationMs": 17203094,
      "drivingDurationMs": 16319446,
      "idlingDurationMs": 883648,
      "fuelConsumedMl": 29390,
      "fuelConsumedGallons": 7.764,
      "maxSpeedMph": 53.5,
      "averageSpeedMph": 17.1,
      "safetyEvents": []
    },
    {
      "id": "trip_40426209_20250530_001",
      "vehicleId": "40426209",
      "driverId": "20000005",
      "startMs": 1748587500000,
      "endMs": 1748609765327,
      "startAddress": "4688 Robert Mountain",
      "endAddress": "0343 Coleman Keys",
      "startCoords": {
        "latitude": 39.7836,
        "longitude": -104.9546
      },
      "endCoords": {
        "latitude": 39.768665,
        "longitude": -105.052451
      },
      "distanceMeters": 198582.3,
      "durationMs": 22265328,
      "drivingDurationMs": 17958992,
      "idlingDurationMs": 4306336,
      "fuelConsumedMl": 44486,
      "fuelConsumedGallons": 11.752,
      "maxSpeedMph": 46.5,
      "averageSpeedMph": 20.0,
      "safetyEvents": []
    },
    {
      "id": "trip_40426209_20250531_001",
      "vehicleId": "40426209",
      "driverId": "20000015",
      "startMs": 1748673240000,
      "endMs": 1748691724366,
      "startAddress": "89721 Davies Stream Suite 297",
      "endAddress": "14171 Ashley Canyon",
      "startCoords": {
        "latitude": 39.775199,
        "longitude": -104.951493
      },
      "endCoords": {
        "latitude": 39.770804,
        "longitude": -105.02469
      },
      "distanceMeters": 168691.1,
      "durationMs": 18484367,
      "drivingDurationMs": 14897624,
      "idlingDurationMs": 3586743,
      "fuelConsumedMl": 37790,
      "fuelConsumedGallons": 9.983,
      "maxSpeedMph": 55.1,
      "averageSpeedMph": 20.4,
      "safetyEvents": []
    }
  ]
}