{
  "vehicleId": "48291001",
  "vehicleName": "DEN-CAR-02",
  "month": "2025_03",
  "pagination": {
    "endCursor": "trip_48291001_20250331_005",
    "hasNextPage": false
  },
  "trips": [
    {
      "id": "trip_48291001_20250301_001",
      "vehicleId": "48291001",
      "driverId": "22831000",
      "startMs": 1740849540000,
      "endMs": 1740851341542,
      "startLocation": {
        "latitude": 39.813126,
        "longitude": -105.07838
      },
      "endLocation": {
        "latitude": 39.766279,
        "longitude": -105.004825
      },
      "startAddress": "220 Wells Summit Apt. 772",
      "endAddress": "07741 Jennifer Pine",
      "startCoords": {
        "latitude": 39.796174,
        "longitude": -104.986232
      },
      "endCoords": {
        "latitude": 39.792278,
        "longitude": -104.963829
      },
      "distanceMeters": 13453.0,
      "durationMs": 1801542,
      "drivingDurationMs": 1565928,
      "idlingDurationMs": 235614,
      "fuelConsumedMl": 1711,
      "fuelConsumedGallons": 0.452,
      "maxSpeedMph": 31.2,
      "averageSpeedMph": 16.7,
      "safetyEvents": [],
      "_no_driver_login": false,
      "_fuel_note": "QUIRK 5: fuelConsumedGallons is in US gallons. Multiply by 3.785 for litres. Samsara does not link fuel to specific Onfleet tasks."
    },
    {
      "id": "trip_48291001_20250301_002",
      "vehicleId": "48291001",
      "driverId": "22831000",
      "startMs": 1740846780000,
      "endMs": 1740850886381,
      "startLocation": {
        "latitude": 39.751338,
        "longitude": -105.087428
      },
      "endLocation": {
        "latitude": 39.796216,
        "longitude": -105.001035
      },
      "startAddress": "719 Jennifer Trail Apt. 941",
      "endAddress": "41148 Jason Light Suite 773",
      "startCoords": {
        "latitude": 39.755282,
        "longitude": -104.922144
      },
      "endCoords": {
        "latitude": 39.770616,
        "longitude": -105.008458
      },
      "distanceMeters": 23780.7,
      "durationMs": 4106382,
      "drivingDurationMs": 3478239,
      "idlingDurationMs": 628142,
      "fuelConsumedMl": 3025,
      "fuelConsumedGallons": 0.799,
      "maxSpeedMph": 35.2,
      "averageSpeedMph": 13.0,
      "safetyEvents": [],
      "_no_driver_login": false,
      "_fuel_note": ""
    },
    {
      "id": "trip_48291001_20250302_001",
      "vehicleId": "48291001",
      "driverId": "22831000",
      "startMs": 1740940560000,
      "endMs": 1740945007618,
      "startLocation": {
        "latitude": 39.730963,
        "longitude": -104.900323
      },
      "endLocation": {
        "latitude": 39.756342,
        "longitude": -104.927603
      },
      "startAddress": "58743 Michael Village",
      "endAddress": "8764 Jason Place",
      "startCoords": {
        "latitude": 39.817564,
        "longitude": -105.033869
      },
      "endCoords": {
        "latitude": 39.684119,
        "longitude": -104.911212
      },
      "distanceMeters": 34648.4,
      "durationMs": 4447618,
      "drivingDurationMs": 3954558,
      "idlingDurationMs": 493060,
      "fuelConsumedMl": 4406,
      "fuelConsumedGallons": 1.164,
      "maxSpeedMph": 47.9,
      "averageSpeedMph": 17.4,
      "safetyEvents": [],
      "_no_driver_login": false,
      "_fuel_note": "QUIRK 5: fuelConsumedGallons is in US gallons. Multiply by 3.785 for litres. Samsara does not link fuel to specific Onfleet tasks."
    },
    {
      "id": "trip_48291001_20250303_001",
      "vehicleId": "48291001",
      "driverId": "22831000",
      "startMs": 1741025580000,
      "endMs": 1741035600000,
      "startLocation": {
        "latitude": 39.825047,
        "longitude": -104.919173
      },
      "endLocation": {
        "latitude": 39.747598,
        "longitude": -105.043681
      },
      "startAddress": "0039 Ramirez Shoals",
      "endAddress": "88652 Marc Field",
      "startCoords": {
        "latitude": 39.707116,
        "longitude": -105.025003
      },
      "endCoords": {
        "latitude": 39.812772,
        "longitude": -105.068434
      },
      "distanceMeters": 43031.7,
      "durationMs": 10020000,
      "drivingDurationMs": 8016000,
      "idlingDurationMs": 2004000,
      "fuelConsumedMl": 5470,
      "fuelConsumedGallons": 1.445,
      "maxSpeedMph": 32.4,
      "averageSpeedMph": 9.6,
      "safetyEvents": [],
      "_no_driver_login": false,
      "_fuel_note": "QUIRK 5: fuelConsumedGallons is in US gallons. Multiply by 3.785 for litres. Samsara does not link fuel to specific Onfleet tasks."
    },
    {
      "id": "trip_48291001_20250303_002",
      "vehicleId": "48291001",
      "driverId": "22831000",
      "startMs": 1741025100000,
      "endMs": 1741032114644,
      "startLocation": {
        "latitude": 39.776221,
        "longitude": -105.013396
      },
      "endLocation": {
        "latitude": 39.79444,
        "longitude": -104.933735
      },
      "startAddress": "0115 Robert Knoll",
      "endAddress": "17886 Miranda Mission",
      "startCoords": {
        "latitude": 39.77948,
        "longitude": -104.954157
      },
      "endCoords": {
        "latitude": 39.710718,
        "longitude": -105.083031
      },
      "distanceMeters": 48175.6,
      "durationMs": 7014645,
      "drivingDurationMs": 6652727,
      "idlingDurationMs": 361917,
      "fuelConsumedMl": 6125,
      "fuelConsumedGallons": 1.618,
      "maxSpeedMph": 55.9,
      "averageSpeedMph": 15.4,
      "safetyEvents": [],
      "_no_driver_login": false,
      "_fuel_note": ""
    },
    {
      "id": "trip_48291001_20250303_003",
      "vehicleId": "48291001",
      "driverId": "22831000",
      "startMs": 1741006380000,
      "endMs": 1741010676841,
      "startLocation": {
        "latitude": 39.819711,
        "longitude": -105.056789
      },
      "endLocation": {
        "latitude": 39.770687,
        "longitude": -104.955783
      },
      "startAddress": "06084 Charles Locks",
      "endAddress": "921 Phillip Square",
      "startCoords": {
        "latitude": 39.796146,
        "longitude": -104.91899
      },
      "endCoords": {
        "latitude": 39.699524,
        "longitude": -104.988129
      },
      "distanceMeters": 19606.0,
      "durationMs": 4296842,
      "drivingDurationMs": 3450957,
      "idlingDurationMs": 845884,
      "fuelConsumedMl": 2495,
      "fuelConsumedGallons": 0.659,
      "maxSpeedMph": 30.6,
      "averageSpeedMph": 10.2,
      "safetyEvents": [],
      "_no_driver_login": false,
      "_fuel_note": ""
    },
    {
      "id": "trip_48291001_20250303_004",
      "vehicleId": "48291001",
      "driverId": "22831000",
      "startMs": 1740992580000,
      "endMs": 1740997298541,
      "startLocation": {
        "latitude": 39.786517,
        "longitude": -104.923346
      },
      "endLocation": {
        "latitude": 39.746661,
        "longitude": -105.034835
      },
      "startAddress": "49660 Victoria Valley Suite 835",
      "endAddress": "99716 Valerie Divide",
      "startCoords": {
        "latitude": 39.775187,
        "longitude": -104.986964
      },
      "endCoords": {
        "latitude": 39.713848,
        "longitude": -105.053346
      },
      "distanceMeters": 21078.6,
      "durationMs": 4718541,
      "drivingDurationMs": 3818349,
      "idlingDurationMs": 900192,
      "fuelConsumedMl": 2680,
      "fuelConsumedGallons": 0.708,
      "maxSpeedMph": 68.5,
      "averageSpeedMph": 10.0,
      "safetyEvents": [
        {
          "type": "speeding",
          "startMs": 1740993240000,
          "maxSpeedMph": 68.5
        }
      ],
      "_no_driver_login": false,
      "_fuel_note": ""
    },
    {
      "id": "trip_48291001_20250303_005",
      "vehicleId": "48291001",
      "driverId": "22831000",
      "startMs": 1741018680000,
      "endMs": 1741033524659,
      "startLocation": {
        "latitude": 39.700131,
        "longitude": -105.00063
      },
      "endLocation": {
        "latitude": 39.763215,
        "longitude": -104.906187
      },
      "startAddress": "1057 Kevin Mills Suite 520",
      "endAddress": "26415 Andrade Burg",
      "startCoords": {
        "latitude": 39.690792,
        "longitude": -104.924256
      },
      "endCoords": {
        "latitude": 39.716833,
        "longitude": -104.929267
      },
      "distanceMeters": 79697.8,
      "durationMs": 14844659,
      "drivingDurationMs": 12661943,
      "idlingDurationMs": 2182716,
      "fuelConsumedMl": 10134,
      "fuelConsumedGallons": 2.677,
      "maxSpeedMph": 61.9,
      "averageSpeedMph": 12.0,
      "safetyEvents": [],
      "_no_driver_login": false,
      "_fuel_note": ""
    },
    {
      "id": "trip_48291001_20250304_001",
      "vehicleId": "48291001",
      "driverId": "22831000",
      "startMs": 1741068900000,
      "endMs": 1741081914602,
      "startLocation": {
        "latitude": 39.790167,
        "longitude": -104.952171
      },
      "endLocation": {
        "latitude": 39.711332,
        "longitude": -104.989307
      },
      "startAddress": "23496 Simpson Ports",
      "endAddress": "66614 Robert Isle Apt. 217",
      "startCoords": {
        "latitude": 39.784157,
        "longitude": -105.075828
      },
      "endCoords": {
        "latitude": 39.706646,
        "longitude": -105.064282
      },
      "distanceMeters": 63272.2,
      "durationMs": 13014602,
      "drivingDurationMs": 11730085,
      "idlingDurationMs": 1284517,
      "fuelConsumedMl": 8044,
      "fuelConsumedGallons": 2.125,
      "maxSpeedMph": 61.9,
      "averageSpeedMph": 10.9,
      "safetyEvents": [],
      "_no_driver_login": false,
      "_fuel_note": "QUIRK 5: fuelConsumedGallons is in US gallons. Multiply by 3.785 for litres. Samsara does not link fuel to specific Onfleet tasks."
    },
    {
      "id": "trip_48291001_20250304_002",
      "vehicleId": "48291001",
      "driverId": "22831000",
      "startMs": 1741097160000,
      "endMs": 1741099085987,
      "startLocation": {
        "latitude": 39.803382,
        "longitude": -105.012463
      },
      "endLocation": {
        "latitude": 39.743073,
        "longitude": -105.011674
      },
      "startAddress": "8596 Julian Orchard",
      "endAddress": "86223 Carla Shoals Suite 032",
      "startCoords": {
        "latitude": 39.70528,
        "longitude": -105.068698
      },
      "endCoords": {
        "latitude": 39.695526,
        "longitude": -104.939615
      },
      "distanceMeters": 9754.4,
      "durationMs": 1925988,
      "drivingDurationMs": 1545172,
      "idlingDurationMs": 380816,
      "fuelConsumedMl": 1242,
      "fuelConsumedGallons": 0.328,
      "maxSpeedMph": 30.8,
      "averageSpeedMph": 11.3,
      "safetyEvents": [],
      "_no_driver_login": false,
      "_fuel_note": ""
    },
    {
      "id": "trip_48291001_20250304_003",
      "vehicleId": "48291001",
      "driverId": "22831000",
      "startMs": 1741111140000,
      "endMs": 1741120946690,
      "startLocation": {
        "latitude": 39.690446,
        "longitude": -105.032216
      },
      "endLocation": {
        "latitude": 39.795433,
        "longitude": -104.921952
      },
      "startAddress": "8329 Christine Dale",
      "endAddress": "3330 Misty Garden Apt. 540",
      "startCoords": {
        "latitude": 39.685119,
        "longitude": -104.980389
      },
      "endCoords": {
        "latitude": 39.715667,
        "longitude": -104.915591
      },
      "distanceMeters": 76845.5,
      "durationMs": 9806691,
      "drivingDurationMs": 8699779,
      "idlingDurationMs": 1106912,
      "fuelConsumedMl": 9770,
      "fuelConsumedGallons": 2.581,
      "maxSpeedMph": 62.2,
      "averageSpeedMph": 17.5,
      "safetyEvents": [],
      "_no_driver_login": false,
      "_fuel_note": ""
    },
    {
      "id": "trip_48291001_20250304_004",
      "vehicleId": "48291001",
      "driverId": "22831000",
      "startMs": 1741072800000,
      "endMs": 1741079477284,
      "startLocation": {
        "latitude": 39.741449,
        "longitude": -104.953664
      },
      "endLocation": {
        "latitude": 39.707393,
        "longitude": -104.990548
      },
      "startAddress": "2937 Ortega Village Apt. 866",
      "endAddress": "5056 Powers Shoals",
      "startCoords": {
        "latitude": 39.737742,
        "longitude": -104.933643
      },
      "endCoords": {
        "latitude": 39.762499,
        "longitude": -104.922487
      },
      "distanceMeters": 45271.8,
      "durationMs": 6677284,
      "drivingDurationMs": 6028093,
      "idlingDurationMs": 649191,
      "fuelConsumedMl": 5758,
      "fuelConsumedGallons": 1.521,
      "maxSpeedMph": 50.8,
      "averageSpeedMph": 15.2,
      "safetyEvents": [],
      "_no_driver_login": false,
      "_fuel_note": ""
    },
    {
      "id": "trip_48291001_20250305_001",
      "vehicleId": "48291001",
      "driverId": "22831000",
      "startMs": 1741187340000,
      "endMs": 1741188955730,
      "startLocation": {
        "latitude": 39.698767,
        "longitude": -104.942499
      },
      "endLocation": {
        "latitude": 39.685216,
        "longitude": -105.024427
      },
      "startAddress": "3548 Wallace Valley Suite 600",
      "endAddress": "5407 Amanda Bridge Suite 209",
      "startCoords": {
        "latitude": 39.816204,
        "longitude": -105.010096
      },
      "endCoords": {
        "latitude": 39.807862,
        "longitude": -104.918512
      },
      "distanceMeters": 11957.0,
      "durationMs": 1615730,
      "drivingDurationMs": 1357397,
      "idlingDurationMs": 258333,
      "fuelConsumedMl": 1522,
      "fuelConsumedGallons": 0.402,
      "maxSpeedMph": 66.3,
      "averageSpeedMph": 16.6,
      "safetyEvents": [
        {
          "type": "speeding",
          "startMs": 1741188600000,
          "maxSpeedMph": 66.3
        }
      ],
      "_no_driver_login": false,
      "_fuel_note": "QUIRK 5: fuelConsumedGallons is in US gallons. Multiply by 3.785 for litres. Samsara does not link fuel to specific Onfleet tasks."
    },
    {
      "id": "trip_48291001_20250305_002",
      "vehicleId": "48291001",
      "driverId": "22831000",
      "startMs": 1741194480000,
      "endMs": 1741199068995,
      "startLocation": {
        "latitude": 39.786243,
        "longitude": -104.917324
      },
      "endLocation": {
        "latitude": 39.725404,
        "longitude": -105.042052
      },
      "startAddress": "91074 Kerri Path",
      "endAddress": "514 Heather Terrace",
      "startCoords": {
        "latitude": 39.776304,
        "longitude": -104.903207
      },
      "endCoords": {
        "latitude": 39.73827,
        "longitude": -104.961134
      },
      "distanceMeters": 25160.0,
      "durationMs": 4588995,
      "drivingDurationMs": 4059088,
      "idlingDurationMs": 529908,
      "fuelConsumedMl": 3199,
      "fuelConsumedGallons": 0.845,
      "maxSpeedMph": 52.4,
      "averageSpeedMph": 12.3,
      "safetyEvents": [],
      "_no_driver_login": false,
      "_fuel_note": ""
    },
    {
      "id": "trip_48291001_20250305_003",
      "vehicleId": "48291001",
      "driverId": "22831000",
      "startMs": 1741188720000,
      "endMs": 1741199494249,
      "startLocation": {
        "latitude": 39.7177,
        "longitude": -105.054267
      },
      "endLocation": {
        "latitude": 39.739268,
        "longitude": -104.998475
      },
      "startAddress": "19849 Daniel Greens",
      "endAddress": "52194 Ashley Parkways",
      "startCoords": {
        "latitude": 39.772065,
        "longitude": -104.912436
      },
      "endCoords": {
        "latitude": 39.690249,
        "longitude": -104.974052
      },
      "distanceMeters": 69824.6,
      "durationMs": 10774249,
      "drivingDurationMs": 9173935,
      "idlingDurationMs": 1600314,
      "fuelConsumedMl": 8877,
      "fuelConsumedGallons": 2.345,
      "maxSpeedMph": 50.0,
      "averageSpeedMph": 14.5,
      "safetyEvents": [],
      "_no_driver_login": false,
      "_fuel_note": ""
    },
    {
      "id": "trip_48291001_20250305_004",
      "vehicleId": "48291001",
      "driverId": "22831000",
      "startMs": 1741154820000,
      "endMs": 1741160040523,
      "startLocation": {
        "latitude": 39.705786,
        "longitude": -105.026291
      },
      "endLocation": {
        "latitude": 39.694168,
        "longitude": -105.028453
      },
      "startAddress": "191 Harris Drive",
      "endAddress": "74807 Hebert Route Apt. 964",
      "startCoords": {
        "latitude": 39.756116,
        "longitude": -105.046555
      },
      "endCoords": {
        "latitude": 39.699173,
        "longitude": -104.993061
      },
      "distanceMeters": 25046.1,
      "durationMs": 5220524,
      "drivingDurationMs": 4367319,
      "idlingDurationMs": 853204,
      "fuelConsumedMl": 3184,
      "fuelConsumedGallons": 0.841,
      "maxSpeedMph": 29.8,
      "averageSpeedMph": 10.7,
      "safetyEvents": [],
      "_no_driver_login": false,
      "_fuel_note": ""
    },
    {
      "id": "trip_48291001_20250305_005",
      "vehicleId": "48291001",
      "driverId": "22831000",
      "startMs": 1741192080000,
      "endMs": 1741196621871,
      "startLocation": {
        "latitude": 39.815074,
        "longitude": -104.939479
      },
      "endLocation": {
        "latitude": 39.711189,
        "longitude": -104.921007
      },
      "startAddress": "2529 Michael Glen Suite 936",
      "endAddress": "2546 John Prairie",
      "startCoords": {
        "latitude": 39.6955,
        "longitude": -105.036411
      },
      "endCoords": {
        "latitude": 39.764673,
        "longitude": -105.047213
      },
      "distanceMeters": 28787.1,
      "durationMs": 4541872,
      "drivingDurationMs": 4086129,
      "idlingDurationMs": 455743,
      "fuelConsumedMl": 3660,
      "fuelConsumedGallons": 0.967,
      "maxSpeedMph": 57.6,
      "averageSpeedMph": 14.2,
      "safetyEvents": [],
      "_no_driver_login": false,
      "_fuel_note": ""
    },
    {
      "id": "trip_48291001_20250306_001",
      "vehicleId": "48291001",
      "driverId": "22831000",
      "startMs": 1741258620000,
      "endMs": 1741266330845,
      "startLocation": {
        "latitude": 39.744823,
        "longitude": -105.07263
      },
      "endLocation": {
        "latitude": 39.724572,
        "longitude": -104.917337
      },
      "startAddress": "6335 James View",
      "endAddress": "138 Robert Turnpike Suite 503",
      "startCoords": {
        "latitude": 39.783966,
        "longitude": -104.913611
      },
      "endCoords": {
        "latitude": 39.794068,
        "longitude": -105.074561
      },
      "distanceMeters": 36834.3,
      "durationMs": 7710846,
      "drivingDurationMs": 7116094,
      "idlingDurationMs": 594752,
      "fuelConsumedMl": 4683,
      "fuelConsumedGallons": 1.237,
      "maxSpeedMph": 41.8,
      "averageSpeedMph": 10.7,
      "safetyEvents": [],
      "_no_driver_login": false,
      "_fuel_note": "QUIRK 5: fuelConsumedGallons is in US gallons. Multiply by 3.785 for litres. Samsara does not link fuel to specific Onfleet tasks."
    },
    {
      "id": "trip_48291001_20250306_002",
      "vehicleId": "48291001",
      "driverId": "22831000",
      "startMs": 1741282020000,
      "endMs": 1741294800000,
      "startLocation": {
        "latitude": 39.74898,
        "longitude": -104.90581
      },
      "endLocation": {
        "latitude": 39.736403,
        "longitude": -105.022607
      },
      "startAddress": "26756 Stephanie Ramp Apt. 384",
      "endAddress": "898 Garrison Rue Apt. 362",
      "startCoords": {
        "latitude": 39.750404,
        "longitude": -105.000264
      },
      "endCoords": {
        "latitude": 39.761565,
        "longitude": -104.902251
      },
      "distanceMeters": 59124.0,
      "durationMs": 12780000,
      "drivingDurationMs": 10762707,
      "idlingDurationMs": 2017293,
      "fuelConsumedMl": 7518,
      "fuelConsumedGallons": 1.986,
      "maxSpeedMph": 70.7,
      "averageSpeedMph": 10.3,
      "safetyEvents": [
        {
          "type": "speeding",
          "startMs": 1741284840000,
          "maxSpeedMph": 70.7
        }
      ],
      "_no_driver_login": false,
      "_fuel_note": ""
    },
    {
      "id": "trip_48291001_20250306_003",
      "vehicleId": "48291001",
      "driverId": "22831000",
      "startMs": 1741274760000,
      "endMs": 1741281597276,
      "startLocation": {
        "latitude": 39.790268,
        "longitude": -104.989749
      },
      "endLocation": {
        "latitude": 39.781017,
        "longitude": -104.956604
      },
      "startAddress": "880 Cole Station Apt. 615",
      "endAddress": "3721 Velazquez Mountains Suite 607",
      "startCoords": {
        "latitude": 39.7487,
        "longitude": -104.958411
      },
      "endCoords": {
        "latitude": 39.79826,
        "longitude": -105.073378
      },
      "distanceMeters": 30381.2,
      "durationMs": 6837276,
      "drivingDurationMs": 5794645,
      "idlingDurationMs": 1042631,
      "fuelConsumedMl": 3861,
      "fuelConsumedGallons": 1.02,
      "maxSpeedMph": 56.9,
      "averageSpeedMph": 9.9,
      "safetyEvents": [],
      "_no_driver_login": false,
      "_fuel_note": ""
    },
    {
      "id": "trip_48291001_20250306_004",
      "vehicleId": "48291001",
      "driverId": "22831000",
      "startMs": 1741270560000,
      "endMs": 1741289369651,
      "startLocation": {
        "latitude": 39.807136,
        "longitude": -104.928362
      },
      "endLocation": {
        "latitude": 39.751735,
        "longitude": -105.018203
      },
      "startAddress": "08461 Ochoa Estate Apt. 249",
      "endAddress": "5680 Smith Port",
      "startCoords": {
        "latitude": 39.805987,
        "longitude": -104.961474
      },
      "endCoords": {
        "latitude": 39.73603,
        "longitude": -105.031775
      },
      "distanceMeters": 79409.6,
      "durationMs": 18809651,
      "drivingDurationMs": 15553050,
      "idlingDurationMs": 3256601,
      "fuelConsumedMl": 10096,
      "fuelConsumedGallons": 2.667,
      "maxSpeedMph": 34.9,
      "averageSpeedMph": 9.4,
      "safetyEvents": [],
      "_no_driver_login": false,
      "_fuel_note": ""
    },
    {
      "id": "trip_48291001_20250306_005",
      "vehicleId": "48291001",
      "driverId": "22831000",
      "startMs": 1741260540000,
      "endMs": 1741273825796,
      "startLocation": {
        "latitude": 39.716358,
        "longitude": -105.0405
      },
      "endLocation": {
        "latitude": 39.788507,
        "longitude": -105.024415
      },
      "startAddress": "11670 Horton Ridge Apt. 628",
      "endAddress": "8538 Brad Land Apt. 791",
      "startCoords": {
        "latitude": 39.801906,
        "longitude": -104.915947
      },
      "endCoords": {
        "latitude": 39.826742,
        "longitude": -105.085025
      },
      "distanceMeters": 83428.7,
      "durationMs": 13285796,
      "drivingDurationMs": 11190406,
      "idlingDurationMs": 2095390,
      "fuelConsumedMl": 10607,
      "fuelConsumedGallons": 2.802,
      "maxSpeedMph": 58.6,
      "averageSpeedMph": 14.0,
      "safetyEvents": [],
      "_no_driver_login": false,
      "_fuel_note": ""
    },
    {
      "id": "trip_48291001_20250306_006",
      "vehicleId": "48291001",
      "driverId": "22831000",
      "startMs": 1741284000000,
      "endMs": 1741291137091,
      "startLocation": {
        "latitude": 39.816588,
        "longitude": -105.036438
      },
      "endLocation": {
        "latitude": 39.728033,
        "longitude": -105.028094
      },
      "startAddress": "842 Kayla Port Suite 527",
      "endAddress": "507 Callahan Drive Apt. 965",
      "startCoords": {
        "latitude": 39.801175,
        "longitude": -104.931754
      },
      "endCoords": {
        "latitude": 39.712032,
        "longitude": -104.993357
      },
      "distanceMeters": 54203.9,
      "durationMs": 7137092,
      "drivingDurationMs": 6525060,
      "idlingDurationMs": 612032,
      "fuelConsumedMl": 6893,
      "fuelConsumedGallons": 1.821,
      "maxSpeedMph": 57.0,
      "averageSpeedMph": 17.0,
      "safetyEvents": [],
      "_no_driver_login": false,
      "_fuel_note": ""
    },
    {
      "id": "trip_48291001_20250307_001",
      "vehicleId": "48291001",
      "driverId": "22831000",
      "startMs": 1741338000000,
      "endMs": 1741345336241,
      "startLocation": {
        "latitude": 39.791835,
        "longitude": -105.073878
      },
      "endLocation": {
        "latitude": 39.778124,
        "longitude": -104.979362
      },
      "startAddress": "253 Beard Trail",
      "endAddress": "29986 Jackson Orchard Apt. 509",
      "startCoords": {
        "latitude": 39.780732,
        "longitude": -105.050848
      },
      "endCoords": {
        "latitude": 39.786503,
        "longitude": -104.909108
      },
      "distanceMeters": 38998.5,
      "durationMs": 7336241,
      "drivingDurationMs": 6774743,
      "idlingDurationMs": 561499,
      "fuelConsumedMl": 4959,
      "fuelConsumedGallons": 1.31,
      "maxSpeedMph": 52.3,
      "averageSpeedMph": 11.9,
      "safetyEvents": [],
      "_no_driver_login": false,
      "_fuel_note": "QUIRK 5: fuelConsumedGallons is in US gallons. Multiply by 3.785 for litres. Samsara does not link fuel to specific Onfleet tasks."
    },
    {
      "id": "trip_48291001_20250307_002",
      "vehicleId": "48291001",
      "driverId": "22831000",
      "startMs": 1741372020000,
      "endMs": 1741373306457,
      "startLocation": {
        "latitude": 39.753813,
        "longitude": -104.953357
      },
      "endLocation": {
        "latitude": 39.804188,
        "longitude": -105.065713
      },
      "startAddress": "45711 Tyler Flat Apt. 945",
      "endAddress": "609 Johnson Expressway",
      "startCoords": {
        "latitude": 39.731801,
        "longitude": -104.996026
      },
      "endCoords": {
        "latitude": 39.808907,
        "longitude": -105.006962
      },
      "distanceMeters": 5514.1,
      "durationMs": 1286457,
      "drivingDurationMs": 1082262,
      "idlingDurationMs": 204195,
      "fuelConsumedMl": 700,
      "fuelConsumedGallons": 0.185,
      "maxSpeedMph": 63.7,
      "averageSpeedMph": 9.6,
      "safetyEvents": [],
      "_no_driver_login": false,
      "_fuel_note": ""
    },
    {
      "id": "trip_48291001_20250307_003",
      "vehicleId": "48291001",
      "driverId": "22831000",
      "startMs": 1741330560000,
      "endMs": 1741337011580,
      "startLocation": {
        "latitude": 39.820564,
        "longitude": -105.012602
      },
      "endLocation": {
        "latitude": 39.706989,
        "longitude": -104.923873
      },
      "startAddress": "42308 Hughes Court Apt. 091",
      "endAddress": "331 Anthony Branch",
      "startCoords": {
        "latitude": 39.751257,
        "longitude": -104.976884
      },
      "endCoords": {
        "latitude": 39.703224,
        "longitude": -105.068947
      },
      "distanceMeters": 34780.7,
      "durationMs": 6451581,
      "drivingDurationMs": 6023785,
      "idlingDurationMs": 427796,
      "fuelConsumedMl": 4421,
      "fuelConsumedGallons": 1.168,
      "maxSpeedMph": 29.9,
      "averageSpeedMph": 12.1,
      "safetyEvents": [],
      "_no_driver_login": false,
      "_fuel_note": ""
    },
    {
      "id": "trip_48291001_20250307_004",
      "vehicleId": "48291001",
      "driverId": "22831000",
      "startMs": 1741358280000,
      "endMs": 1741374671852,
      "startLocation": {
        "latitude": 39.749735,
        "longitude": -104.927865
      },
      "endLocation": {
        "latitude": 39.754855,
        "longitude": -104.950004
      },
      "startAddress": "46514 Patrick Circle",
      "endAddress": "2602 Montgomery Turnpike",
      "startCoords": {
        "latitude": 39.789262,
        "longitude": -105.048245
      },
      "endCoords": {
        "latitude": 39.77119,
        "longitude": -104.975971
      },
      "distanceMeters": 74158.3,
      "durationMs": 16391853,
      "drivingDurationMs": 13269173,
      "idlingDurationMs": 3122679,
      "fuelConsumedMl": 9429,
      "fuelConsumedGallons": 2.491,
      "maxSpeedMph": 43.3,
      "averageSpeedMph": 10.1,
      "safetyEvents": [],
      "_no_driver_login": false,
      "_fuel_note": ""
    },
    {
      "id": "trip_48291001_20250307_005",
      "vehicleId": "48291001",
      "driverId": "22831000",
      "startMs": 1741358940000,
      "endMs": 1741370562500,
      "startLocation": {
        "latitude": 39.703159,
        "longitude": -105.063048
      },
      "endLocation": {
        "latitude": 39.734307,
        "longitude": -105.075466
      },
      "startAddress": "96999 April Station Suite 308",
      "endAddress": "47772 Eddie Path Apt. 849",
      "startCoords": {
        "latitude": 39.707114,
        "longitude": -104.910513
      },
      "endCoords": {
        "latitude": 39.74937,
        "longitude": -105.069858
      },
      "distanceMeters": 65732.5,
      "durationMs": 11622501,
      "drivingDurationMs": 10173051,
      "idlingDurationMs": 1449450,
      "fuelConsumedMl": 8358,
      "fuelConsumedGallons": 2.208,
      "maxSpeedMph": 29.9,
      "averageSpeedMph": 12.7,
      "safetyEvents": [],
      "_no_driver_login": false,
      "_fuel_note": ""
    },
    {
      "id": "trip_48291001_20250307_006",
      "vehicleId": "48291001",
      "driverId": "22831000",
      "startMs": 1741370040000,
      "endMs": 1741371908466,
      "startLocation": {
        "latitude": 39.702774,
        "longitude": -104.979257
      },
      "endLocation": {
        "latitude": 39.727259,
        "longitude": -105.074297
      },
      "startAddress": "46997 Jones Course Suite 885",
      "endAddress": "3771 Potts Mountain",
      "startCoords": {
        "latitude": 39.821909,
        "longitude": -104.98103
      },
      "endCoords": {
        "latitude": 39.750303,
        "longitude": -105.017712
      },
      "distanceMeters": 12412.4,
      "durationMs": 1868467,
      "drivingDurationMs": 1611737,
      "idlingDurationMs": 256730,
      "fuelConsumedMl": 1579,
      "fuelConsumedGallons": 0.417,
      "maxSpeedMph": 48.0,
      "averageSpeedMph": 14.9,
      "safetyEvents": [],
      "_no_driver_login": false,
      "_fuel_note": ""
    },
    {
      "id": "trip_48291001_20250308_001",
      "vehicleId": "48291001",
      "driverId": "22831000",
      "startMs": 1741421940000,
      "endMs": 1741439281550,
      "startLocation": {
        "latitude": 39.769166,
        "longitude": -104.964826
      },
      "endLocation": {
        "latitude": 39.688272,
        "longitude": -105.067763
      },
      "startAddress": "5940 Barnett Walks Apt. 810",
      "endAddress": "03587 Caldwell Village",
      "startCoords": {
        "latitude": 39.77186,
        "longitude": -104.992386
      },
      "endCoords": {
        "latitude": 39.814682,
        "longitude": -105.035672
      },
      "distanceMeters": 79604.3,
      "durationMs": 17341550,
      "drivingDurationMs": 14641378,
      "idlingDurationMs": 2700173,
      "fuelConsumedMl": 10122,
      "fuelConsumedGallons": 2.674,
      "maxSpeedMph": 32.6,
      "averageSpeedMph": 10.3,
      "safetyEvents": [],
      "_no_driver_login": false,
      "_fuel_note": "QUIRK 5: fuelConsumedGallons is in US gallons. Multiply by 3.785 for litres. Samsara does not link fuel to specific Onfleet tasks."
    },
    {
      "id": "trip_48291001_20250308_002",
      "vehicleId": "48291001",
      "driverId": "22831000",
      "startMs": 1741432740000,
      "endMs": 1741439395380,
      "startLocation": {
        "latitude": 39.8116,
        "longitude": -105.039165
      },
      "endLocation": {
        "latitude": 39.740747,
        "longitude": -104.930413
      },
      "startAddress": "29681 Jarvis Center",
      "endAddress": "8187 Mark Radial Apt. 267",
      "startCoords": {
        "latitude": 39.736591,
        "longitude": -105.014291
      },
      "endCoords": {
        "latitude": 39.813649,
        "longitude": -105.030446
      },
      "distanceMeters": 38146.3,
      "durationMs": 6655380,
      "drivingDurationMs": 6190964,
      "idlingDurationMs": 464416,
      "fuelConsumedMl": 4849,
      "fuelConsumedGallons": 1.281,
      "maxSpeedMph": 44.4,
      "averageSpeedMph": 12.8,
      "safetyEvents": [],
      "_no_driver_login": false,
      "_fuel_note": ""
    },
    {
      "id": "trip_48291001_20250308_003",
      "vehicleId": "48291001",
      "driverId": null,
      "startMs": 1741445940000,
      "endMs": 1741461460264,
      "startLocation": {
        "latitude": 39.813332,
        "longitude": -105.041043
      },
      "endLocation": {
        "latitude": 39.799133,
        "longitude": -105.064756
      },
      "startAddress": "817 Davis Landing Suite 298",
      "endAddress": "1138 Kelly Alley",
      "startCoords": {
        "latitude": 39.712745,
        "longitude": -105.009169
      },
      "endCoords": {
        "latitude": 39.68836,
        "longitude": -105.016181
      },
      "distanceMeters": 81141.1,
      "durationMs": 15520265,
      "drivingDurationMs": 14021264,
      "idlingDurationMs": 1499001,
      "fuelConsumedMl": 10315,
      "fuelConsumedGallons": 2.725,
      "maxSpeedMph": 44.5,
      "averageSpeedMph": 11.7,
      "safetyEvents": [],
      "_no_driver_login": true,
      "_fuel_note": ""
    },
    {
      "id": "trip_48291001_20250308_004",
      "vehicleId": "48291001",
      "driverId": "22831000",
      "startMs": 1741423080000,
      "endMs": 1741430582361,
      "startLocation": {
        "latitude": 39.704048,
        "longitude": -105.0819
      },
      "endLocation": {
        "latitude": 39.715388,
        "longitude": -105.075566
      },
      "startAddress": "6520 Young Haven Apt. 290",
      "endAddress": "30287 Lee Key",
      "startCoords": {
        "latitude": 39.827698,
        "longitude": -105.03752
      },
      "endCoords": {
        "latitude": 39.708149,
        "longitude": -105.069776
      },
      "distanceMeters": 45216.1,
      "durationMs": 7502362,
      "drivingDurationMs": 7105481,
      "idlingDurationMs": 396881,
      "fuelConsumedMl": 5750,
      "fuelConsumedGallons": 1.519,
      "maxSpeedMph": 44.3,
      "averageSpeedMph": 13.5,
      "safetyEvents": [],
      "_no_driver_login": false,
      "_fuel_note": ""
    },
    {
      "id": "trip_48291001_20250309_001",
      "vehicleId": "48291001",
      "driverId": "22831000",
      "startMs": 1741540620000,
      "endMs": 1741553108335,
      "startLocation": {
        "latitude": 39.702847,
        "longitude": -105.0389
      },
      "endLocation": {
        "latitude": 39.764616,
        "longitude": -105.050349
      },
      "startAddress": "53993 Keith Plains Suite 200",
      "endAddress": "327 Kenneth Highway Suite 895",
      "startCoords": {
        "latitude": 39.820441,
        "longitude": -104.965478
      },
      "endCoords": {
        "latitude": 39.728823,
        "longitude": -105.011114
      },
      "distanceMeters": 75617.4,
      "durationMs": 12488336,
      "drivingDurationMs": 10859867,
      "idlingDurationMs": 1628468,
      "fuelConsumedMl": 9615,
      "fuelConsumedGallons": 2.54,
      "maxSpeedMph": 69.4,
      "averageSpeedMph": 13.5,
      "safetyEvents": [
        {
          "type": "speeding",
          "startMs": 1741549080000,
          "maxSpeedMph": 69.4
        }
      ],
      "_no_driver_login": false,
      "_fuel_note": "QUIRK 5: fuelConsumedGallons is in US gallons. Multiply by 3.785 for litres. Samsara does not link fuel to specific Onfleet tasks."
    },
    {
      "id": "trip_48291001_20250309_002",
      "vehicleId": "48291001",
      "driverId": "22831000",
      "startMs": 1741546500000,
      "endMs": 1741551177533,
      "startLocation": {
        "latitude": 39.694303,
        "longitude": -104.947277
      },
      "endLocation": {
        "latitude": 39.826043,
        "longitude": -105.043834
      },
      "startAddress": "5268 Adam Plaza Apt. 589",
      "endAddress": "2395 Richards Locks Apt. 295",
      "startCoords": {
        "latitude": 39.763333,
        "longitude": -104.991974
      },
      "endCoords": {
        "latitude": 39.778391,
        "longitude": -104.920723
      },
      "distanceMeters": 28067.8,
      "durationMs": 4677533,
      "drivingDurationMs": 3752666,
      "idlingDurationMs": 924867,
      "fuelConsumedMl": 3570,
      "fuelConsumedGallons": 0.943,
      "maxSpeedMph": 39.8,
      "averageSpeedMph": 13.4,
      "safetyEvents": [],
      "_no_driver_login": false,
      "_fuel_note": ""
    },
    {
      "id": "trip_48291001_20250309_003",
      "vehicleId": "48291001",
      "driverId": "22831000",
      "startMs": 1741520100000,
      "endMs": 1741529567508,
      "startLocation": {
        "latitude": 39.722734,
        "longitude": -104.958378
      },
      "endLocation": {
        "latitude": 39.798809,
        "longitude": -104.93948
      },
      "startAddress": "58017 Evan Stravenue Suite 404",
      "endAddress": "65142 Amber Isle Suite 868",
      "startCoords": {
        "latitude": 39.711434,
        "longitude": -105.072967
      },
      "endCoords": {
        "latitude": 39.770556,
        "longitude": -104.909123
      },
      "distanceMeters": 59622.5,
      "durationMs": 9467508,
      "drivingDurationMs": 8276886,
      "idlingDurationMs": 1190622,
      "fuelConsumedMl": 7582,
      "fuelConsumedGallons": 2.003,
      "maxSpeedMph": 40.4,
      "averageSpeedMph": 14.1,
      "safetyEvents": [],
      "_no_driver_login": false,
      "_fuel_note": ""
    },
    {
      "id": "trip_48291001_20250310_001",
      "vehicleId": "48291001",
      "driverId": "22831000",
      "startMs": 1741623000000,
      "endMs": 1741633681179,
      "startLocation": {
        "latitude": 39.726671,
        "longitude": -104.965664
      },
      "endLocation": {
        "latitude": 39.691679,
        "longitude": -105.034588
      },
      "startAddress": "265 Michael Street",
      "endAddress": "22448 Barnett Run",
      "startCoords": {
        "latitude": 39.726814,
        "longitude": -104.948904
      },
      "endCoords": {
        "latitude": 39.724144,
        "longitude": -105.084268
      },
      "distanceMeters": 59526.1,
      "durationMs": 10681179,
      "drivingDurationMs": 9447596,
      "idlingDurationMs": 1233583,
      "fuelConsumedMl": 7567,
      "fuelConsumedGallons": 1.999,
      "maxSpeedMph": 70.9,
      "averageSpeedMph": 12.5,
      "safetyEvents": [
        {
          "type": "speeding",
          "startMs": 1741629000000,
          "maxSpeedMph": 70.9
        }
      ],
      "_no_driver_login": false,
      "_fuel_note": "QUIRK 5: fuelConsumedGallons is in US gallons. Multiply by 3.785 for litres. Samsara does not link fuel to specific Onfleet tasks."
    },
    {
      "id": "trip_48291001_20250310_002",
      "vehicleId": "48291001",
      "driverId": "22831000",
      "startMs": 1741588740000,
      "endMs": 1741592390935,
      "startLocation": {
        "latitude": 39.736373,
        "longitude": -105.0412
      },
      "endLocation": {
        "latitude": 39.793394,
        "longitude": -104.950898
      },
      "startAddress": "69857 Janet Valleys Suite 586",
      "endAddress": "53299 Hall Expressway",
      "startCoords": {
        "latitude": 39.716572,
        "longitude": -105.077851
      },
      "endCoords": {
        "latitude": 39.684727,
        "longitude": -104.904293
      },
      "distanceMeters": 16036.3,
      "durationMs": 3650936,
      "drivingDurationMs": 3051720,
      "idlingDurationMs": 599216,
      "fuelConsumedMl": 2040,
      "fuelConsumedGallons": 0.539,
      "maxSpeedMph": 67.6,
      "averageSpeedMph": 9.8,
      "safetyEvents": [
        {
          "type": "speeding",
          "startMs": 1741591140000,
          "maxSpeedMph": 67.6
        }
      ],
      "_no_driver_login": false,
      "_fuel_note": ""
    },
    {
      "id": "trip_48291001_20250311_001",
      "vehicleId": "48291001",
      "driverId": "22831000",
      "startMs": 1741688160000,
      "endMs": 1741702186997,
      "startLocation": {
        "latitude": 39.786445,
        "longitude": -104.982515
      },
      "endLocation": {
        "latitude": 39.795671,
        "longitude": -105.047002
      },
      "startAddress": "56308 Irwin Avenue",
      "endAddress": "337 Margaret Terrace Suite 288",
      "startCoords": {
        "latitude": 39.729303,
        "longitude": -104.95501
      },
      "endCoords": {
        "latitude": 39.824804,
        "longitude": -104.926331
      },
      "distanceMeters": 83406.7,
      "durationMs": 14026998,
      "drivingDurationMs": 11847398,
      "idlingDurationMs": 2179600,
      "fuelConsumedMl": 10603,
      "fuelConsumedGallons": 2.801,
      "maxSpeedMph": 66.9,
      "averageSpeedMph": 13.3,
      "safetyEvents": [
        {
          "type": "speeding",
          "startMs": 1741699260000,
          "maxSpeedMph": 66.9
        }
      ],
      "_no_driver_login": false,
      "_fuel_note": "QUIRK 5: fuelConsumedGallons is in US gallons. Multiply by 3.785 for litres. Samsara does not link fuel to specific Onfleet tasks."
    },
    {
      "id": "trip_48291001_20250311_002",
      "vehicleId": "48291001",
      "driverId": null,
      "startMs": 1741681080000,
      "endMs": 1741683166519,
      "startLocation": {
        "latitude": 39.708668,
        "longitude": -105.023177
      },
      "endLocation": {
        "latitude": 39.775134,
        "longitude": -104.995515
      },
      "startAddress": "345 Lamb Meadow Apt. 883",
      "endAddress": "61390 Lauren View Apt. 927",
      "startCoords": {
        "latitude": 39.777401,
        "longitude": -104.997396
      },
      "endCoords": {
        "latitude": 39.756605,
        "longitude": -105.003909
      },
      "distanceMeters": 15231.1,
      "durationMs": 2086519,
      "drivingDurationMs": 1789822,
      "idlingDurationMs": 296697,
      "fuelConsumedMl": 1938,
      "fuelConsumedGallons": 0.512,
      "maxSpeedMph": 34.1,
      "averageSpeedMph": 16.3,
      "safetyEvents": [],
      "_no_driver_login": true,
      "_fuel_note": ""
    },
    {
      "id": "trip_48291001_20250311_003",
      "vehicleId": "48291001",
      "driverId": "22831000",
      "startMs": 1741696200000,
      "endMs": 1741705894695,
      "startLocation": {
        "latitude": 39.744923,
        "longitude": -105.085628
      },
      "endLocation": {
        "latitude": 39.694027,
        "longitude": -105.001584
      },
      "startAddress": "9470 Wells Garden Apt. 087",
      "endAddress": "52921 Dickson Shore",
      "startCoords": {
        "latitude": 39.811762,
        "longitude": -104.966571
      },
      "endCoords": {
        "latitude": 39.784197,
        "longitude": -104.901596
      },
      "distanceMeters": 53641.9,
      "durationMs": 9694695,
      "drivingDurationMs": 7910192,
      "idlingDurationMs": 1784503,
      "fuelConsumedMl": 6821,
      "fuelConsumedGallons": 1.802,
      "maxSpeedMph": 39.9,
      "averageSpeedMph": 12.4,
      "safetyEvents": [],
      "_no_driver_login": false,
      "_fuel_note": ""
    },
    {
      "id": "trip_48291001_20250311_004",
      "vehicleId": "48291001",
      "driverId": "22831000",
      "startMs": 1741690140000,
      "endMs": 1741697302059,
      "startLocation": {
        "latitude": 39.720303,
        "longitude": -104.952863
      },
      "endLocation": {
        "latitude": 39.744493,
        "longitude": -105.087255
      },
      "startAddress": "4576 Castillo River Apt. 591",
      "endAddress": "01274 Katherine Ferry",
      "startCoords": {
        "latitude": 39.775336,
        "longitude": -104.991283
      },
      "endCoords": {
        "latitude": 39.805979,
        "longitude": -104.91017
      },
      "distanceMeters": 57431.4,
      "durationMs": 7162059,
      "drivingDurationMs": 6561047,
      "idlingDurationMs": 601012,
      "fuelConsumedMl": 7302,
      "fuelConsumedGallons": 1.929,
      "maxSpeedMph": 29.4,
      "averageSpeedMph": 17.9,
      "safetyEvents": [],
      "_no_driver_login": false,
      "_fuel_note": ""
    },
    {
      "id": "trip_48291001_20250311_005",
      "vehicleId": "48291001",
      "driverId": "22831000",
      "startMs": 1741680660000,
      "endMs": 1741693824137,
      "startLocation": {
        "latitude": 39.782561,
        "longitude": -105.014971
      },
      "endLocation": {
        "latitude": 39.810211,
        "longitude": -104.973385
      },
      "startAddress": "8884 Jeremy Coves Apt. 920",
      "endAddress": "39082 Adams Route Apt. 610",
      "startCoords": {
        "latitude": 39.716657,
        "longitude": -105.028418
      },
      "endCoords": {
        "latitude": 39.751103,
        "longitude": -104.950067
      },
      "distanceMeters": 72476.3,
      "durationMs": 13164138,
      "drivingDurationMs": 12291873,
      "idlingDurationMs": 872265,
      "fuelConsumedMl": 9214,
      "fuelConsumedGallons": 2.434,
      "maxSpeedMph": 51.8,
      "averageSpeedMph": 12.3,
      "safetyEvents": [],
      "_no_driver_login": false,
      "_fuel_note": ""
    },
    {
      "id": "trip_48291001_20250312_001",
      "vehicleId": "48291001",
      "driverId": "22831000",
      "startMs": 1741782900000,
      "endMs": 1741791886071,
      "startLocation": {
        "latitude": 39.809769,
        "longitude": -104.925413
      },
      "endLocation": {
        "latitude": 39.825552,
        "longitude": -104.928608
      },
      "startAddress": "1978 Thomas Cove",
      "endAddress": "7861 Manning Brooks",
      "startCoords": {
        "latitude": 39.796117,
        "longitude": -105.046347
      },
      "endCoords": {
        "latitude": 39.738413,
        "longitude": -104.920008
      },
      "distanceMeters": 53486.1,
      "durationMs": 8986072,
      "drivingDurationMs": 8283354,
      "idlingDurationMs": 702718,
      "fuelConsumedMl": 6799,
      "fuelConsumedGallons": 1.796,
      "maxSpeedMph": 56.6,
      "averageSpeedMph": 13.3,
      "safetyEvents": [],
      "_no_driver_login": false,
      "_fuel_note": "QUIRK 5: fuelConsumedGallons is in US gallons. Multiply by 3.785 for litres. Samsara does not link fuel to specific Onfleet tasks."
    },
    {
      "id": "trip_48291001_20250312_002",
      "vehicleId": "48291001",
      "driverId": "22831000",
      "startMs": 1741775700000,
      "endMs": 1741781427593,
      "startLocation": {
        "latitude": 39.798815,
        "longitude": -104.923686
      },
      "endLocation": {
        "latitude": 39.687981,
        "longitude": -104.942913
      },
      "startAddress": "1354 Patel Club Apt. 134",
      "endAddress": "414 Amber Ports Suite 013",
      "startCoords": {
        "latitude": 39.771493,
        "longitude": -105.069116
      },
      "endCoords": {
        "latitude": 39.816511,
        "longitude": -104.982724
      },
      "distanceMeters": 28976.4,
      "durationMs": 5727594,
      "drivingDurationMs": 4630999,
      "idlingDurationMs": 1096594,
      "fuelConsumedMl": 3683,
      "fuelConsumedGallons": 0.973,
      "maxSpeedMph": 70.9,
      "averageSpeedMph": 11.3,
      "safetyEvents": [
        {
          "type": "speeding",
          "startMs": 1741778460000,
          "maxSpeedMph": 70.9
        }
      ],
      "_no_driver_login": false,
      "_fuel_note": ""
    },
    {
      "id": "trip_48291001_20250312_003",
      "vehicleId": "48291001",
      "driverId": "22831000",
      "startMs": 1741759320000,
      "endMs": 1741766532147,
      "startLocation": {
        "latitude": 39.687648,
        "longitude": -105.010748
      },
      "endLocation": {
        "latitude": 39.733313,
        "longitude": -104.987844
      },
      "startAddress": "0356 Morgan Via",
      "endAddress": "75328 Janice Glens Apt. 881",
      "startCoords": {
        "latitude": 39.705327,
        "longitude": -104.949586
      },
      "endCoords": {
        "latitude": 39.775537,
        "longitude": -104.925233
      },
      "distanceMeters": 42958.8,
      "durationMs": 7212148,
      "drivingDurationMs": 6819485,
      "idlingDurationMs": 392663,
      "fuelConsumedMl": 5462,
      "fuelConsumedGallons": 1.443,
      "maxSpeedMph": 68.9,
      "averageSpeedMph": 13.3,
      "safetyEvents": [
        {
          "type": "speeding",
          "startMs": 1741763700000,
          "maxSpeedMph": 68.9
        }
      ],
      "_no_driver_login": false,
      "_fuel_note": ""
    },
    {
      "id": "trip_48291001_20250313_001",
      "vehicleId": "48291001",
      "driverId": "22831000",
      "startMs": 1741870920000,
      "endMs": 1741879065065,
      "startLocation": {
        "latitude": 39.687286,
        "longitude": -105.039021
      },
      "endLocation": {
        "latitude": 39.715838,
        "longitude": -104.990738
      },
      "startAddress": "136 Thompson Unions Suite 691",
      "endAddress": "76554 James Crest",
      "startCoords": {
        "latitude": 39.773839,
        "longitude": -105.037171
      },
      "endCoords": {
        "latitude": 39.744664,
        "longitude": -104.983855
      },
      "distanceMeters": 55928.1,
      "durationMs": 8145065,
      "drivingDurationMs": 7945713,
      "idlingDurationMs": 199353,
      "fuelConsumedMl": 7109,
      "fuelConsumedGallons": 1.878,
      "maxSpeedMph": 65.3,
      "averageSpeedMph": 15.4,
      "safetyEvents": [
        {
          "type": "speeding",
          "startMs": 1741878900000,
          "maxSpeedMph": 65.3
        }
      ],
      "_no_driver_login": false,
      "_fuel_note": "QUIRK 5: fuelConsumedGallons is in US gallons. Multiply by 3.785 for litres. Samsara does not link fuel to specific Onfleet tasks."
    },
    {
      "id": "trip_48291001_20250313_002",
      "vehicleId": "48291001",
      "driverId": "22831000",
      "startMs": 1741874160000,
      "endMs": 1741875048095,
      "startLocation": {
        "latitude": 39.801673,
        "longitude": -104.983701
      },
      "endLocation": {
        "latitude": 39.735664,
        "longitude": -104.904012
      },
      "startAddress": "320 Michelle Springs Suite 619",
      "endAddress": "45943 Williams Stream",
      "startCoords": {
        "latitude": 39.814486,
        "longitude": -105.062835
      },
      "endCoords": {
        "latitude": 39.720159,
        "longitude": -104.913705
      },
      "distanceMeters": 6241.5,
      "durationMs": 888095,
      "drivingDurationMs": 708471,
      "idlingDurationMs": 179624,
      "fuelConsumedMl": 795,
      "fuelConsumedGallons": 0.21,
      "maxSpeedMph": 45.1,
      "averageSpeedMph": 15.7,
      "safetyEvents": [],
      "_no_driver_login": false,
      "_fuel_note": ""
    },
    {
      "id": "trip_48291001_20250313_003",
      "vehicleId": "48291001",
      "driverId": "22831000",
      "startMs": 1741884480000,
      "endMs": 1741890395799,
      "startLocation": {
        "latitude": 39.824598,
        "longitude": -105.049225
      },
      "endLocation": {
        "latitude": 39.767444,
        "longitude": -105.07726
      },
      "startAddress": "99366 Jesse Overpass Suite 514",
      "endAddress": "5914 Smith Knolls Apt. 085",
      "startCoords": {
        "latitude": 39.817392,
        "longitude": -104.986229
      },
      "endCoords": {
        "latitude": 39.820435,
        "longitude": -105.014361
      },
      "distanceMeters": 28273.2,
      "durationMs": 5915800,
      "drivingDurationMs": 5087651,
      "idlingDurationMs": 828149,
      "fuelConsumedMl": 3596,
      "fuelConsumedGallons": 0.95,
      "maxSpeedMph": 67.5,
      "averageSpeedMph": 10.7,
      "safetyEvents": [
        {
          "type": "speeding",
          "startMs": 1741887420000,
          "maxSpeedMph": 67.5
        }
      ],
      "_no_driver_login": false,
      "_fuel_note": ""
    },
    {
      "id": "trip_48291001_20250314_001",
      "vehicleId": "48291001",
      "driverId": "22831000",
      "startMs": 1741968840000,
      "endMs": 1741971135265,
      "startLocation": {
        "latitude": 39.757591,
        "longitude": -104.994232
      },
      "endLocation": {
        "latitude": 39.754721,
        "longitude": -105.050244
      },
      "startAddress": "566 Ashley Rest",
      "endAddress": "268 Fowler Ferry",
      "startCoords": {
        "latitude": 39.736882,
        "longitude": -105.068829
      },
      "endCoords": {
        "latitude": 39.785871,
        "longitude": -104.942094
      },
      "distanceMeters": 15613.0,
      "durationMs": 2295266,
      "drivingDurationMs": 1987873,
      "idlingDurationMs": 307393,
      "fuelConsumedMl": 1984,
      "fuelConsumedGallons": 0.524,
      "maxSpeedMph": 71.3,
      "averageSpeedMph": 15.2,
      "safetyEvents": [
        {
          "type": "speeding",
          "startMs": 1741970580000,
          "maxSpeedMph": 71.3
        }
      ],
      "_no_driver_login": false,
      "_fuel_note": "QUIRK 5: fuelConsumedGallons is in US gallons. Multiply by 3.785 for litres. Samsara does not link fuel to specific Onfleet tasks."
    },
    {
      "id": "trip_48291001_20250314_002",
      "vehicleId": "48291001",
      "driverId": "22831000",
      "startMs": 1741941360000,
      "endMs": 1741942777566,
      "startLocation": {
        "latitude": 39.748145,
        "longitude": -105.087043
      },
      "endLocation": {
        "latitude": 39.755035,
        "longitude": -105.062937
      },
      "startAddress": "75049 Daniel Turnpike",
      "endAddress": "6775 Daniel Spur",
      "startCoords": {
        "latitude": 39.728062,
        "longitude": -104.933017
      },
      "endCoords": {
        "latitude": 39.816709,
        "longitude": -104.945856
      },
      "distanceMeters": 9942.9,
      "durationMs": 1417566,
      "drivingDurationMs": 1136027,
      "idlingDurationMs": 281540,
      "fuelConsumedMl": 1264,
      "fuelConsumedGallons": 0.334,
      "maxSpeedMph": 50.3,
      "averageSpeedMph": 15.7,
      "safetyEvents": [],
      "_no_driver_login": false,
      "_fuel_note": ""
    },
    {
      "id": "trip_48291001_20250314_003",
      "vehicleId": "48291001",
      "driverId": "22831000",
      "startMs": 1741945380000,
      "endMs": 1741963534063,
      "startLocation": {
        "latitude": 39.713745,
        "longitude": -104.93143
      },
      "endLocation": {
        "latitude": 39.722958,
        "longitude": -105.024017
      },
      "startAddress": "4913 Montes Corners Suite 732",
      "endAddress": "62185 John Route",
      "startCoords": {
        "latitude": 39.753513,
        "longitude": -104.947575
      },
      "endCoords": {
        "latitude": 39.79469,
        "longitude": -105.065622
      },
      "distanceMeters": 83961.6,
      "durationMs": 18154063,
      "drivingDurationMs": 16615914,
      "idlingDurationMs": 1538150,
      "fuelConsumedMl": 10675,
      "fuelConsumedGallons": 2.82,
      "maxSpeedMph": 40.6,
      "averageSpeedMph": 10.3,
      "safetyEvents": [],
      "_no_driver_login": false,
      "_fuel_note": ""
    },
    {
      "id": "trip_48291001_20250314_004",
      "vehicleId": "48291001",
      "driverId": "22831000",
      "startMs": 1741946640000,
      "endMs": 1741957068428,
      "startLocation": {
        "latitude": 39.82641,
        "longitude": -104.920204
      },
      "endLocation": {
        "latitude": 39.701242,
        "longitude": -105.029439
      },
      "startAddress": "997 Craig Circle Suite 029",
      "endAddress": "16457 Kristen Tunnel Suite 176",
      "startCoords": {
        "latitude": 39.821888,
        "longitude": -104.952951
      },
      "endCoords": {
        "latitude": 39.708989,
        "longitude": -104.909816
      },
      "distanceMeters": 65764.5,
      "durationMs": 10428429,
      "drivingDurationMs": 8667848,
      "idlingDurationMs": 1760581,
      "fuelConsumedMl": 8362,
      "fuelConsumedGallons": 2.209,
      "maxSpeedMph": 34.4,
      "averageSpeedMph": 14.1,
      "safetyEvents": [],
      "_no_driver_login": false,
      "_fuel_note": ""
    },
    {
      "id": "trip_48291001_20250314_005",
      "vehicleId": "48291001",
      "driverId": "22831000",
      "startMs": 1741941540000,
      "endMs": 1741944979566,
      "startLocation": {
        "latitude": 39.72005,
        "longitude": -105.010635
      },
      "endLocation": {
        "latitude": 39.772153,
        "longitude": -105.02801
      },
      "startAddress": "2445 Davenport Mountains",
      "endAddress": "79240 Danielle Islands",
      "startCoords": {
        "latitude": 39.75934,
        "longitude": -104.936757
      },
      "endCoords": {
        "latitude": 39.823694,
        "longitude": -105.016468
      },
      "distanceMeters": 22596.2,
      "durationMs": 3439566,
      "drivingDurationMs": 2765138,
      "idlingDurationMs": 674429,
      "fuelConsumedMl": 2873,
      "fuelConsumedGallons": 0.759,
      "maxSpeedMph": 57.8,
      "averageSpeedMph": 14.7,
      "safetyEvents": [],
      "_no_driver_login": false,
      "_fuel_note": ""
    },
    {
      "id": "trip_48291001_20250315_001",
      "vehicleId": "48291001",
      "driverId": "22831000",
      "startMs": 1742051940000,
      "endMs": 1742056196867,
      "startLocation": {
        "latitude": 39.718437,
        "longitude": -104.909571
      },
      "endLocation": {
        "latitude": 39.68953,
        "longitude": -104.939531
      },
      "startAddress": "019 Stewart Well",
      "endAddress": "27307 Miranda Rest Apt. 531",
      "startCoords": {
        "latitude": 39.805429,
        "longitude": -104.914061
      },
      "endCoords": {
        "latitude": 39.761207,
        "longitude": -105.001476
      },
      "distanceMeters": 29278.3,
      "durationMs": 4256868,
      "drivingDurationMs": 4012049,
      "idlingDurationMs": 244819,
      "fuelConsumedMl": 3721,
      "fuelConsumedGallons": 0.983,
      "maxSpeedMph": 31.1,
      "averageSpeedMph": 15.4,
      "safetyEvents": [],
      "_no_driver_login": false,
      "_fuel_note": "QUIRK 5: fuelConsumedGallons is in US gallons. Multiply by 3.785 for litres. Samsara does not link fuel to specific Onfleet tasks."
    },
    {
      "id": "trip_48291001_20250315_002",
      "vehicleId": "48291001",
      "driverId": "22831000",
      "startMs": 1742050080000,
      "endMs": 1742063679063,
      "startLocation": {
        "latitude": 39.75332,
        "longitude": -105.082694
      },
      "endLocation": {
        "latitude": 39.708283,
        "longitude": -105.01541
      },
      "startAddress": "7869 Mario Island",
      "endAddress": "520 Nelson Crest Apt. 141",
      "startCoords": {
        "latitude": 39.819696,
        "longitude": -104.902397
      },
      "endCoords": {
        "latitude": 39.731835,
        "longitude": -105.06753
      },
      "distanceMeters": 80890.4,
      "durationMs": 13599064,
      "drivingDurationMs": 10947349,
      "idlingDurationMs": 2651715,
      "fuelConsumedMl": 10285,
      "fuelConsumedGallons": 2.717,
      "maxSpeedMph": 28.3,
      "averageSpeedMph": 13.3,
      "safetyEvents": [],
      "_no_driver_login": false,
      "_fuel_note": ""
    },
    {
      "id": "trip_48291001_20250315_003",
      "vehicleId": "48291001",
      "driverId": "22831000",
      "startMs": 1742054340000,
      "endMs": 1742064287177,
      "startLocation": {
        "latitude": 39.711304,
        "longitude": -104.932672
      },
      "endLocation": {
        "latitude": 39.698432,
        "longitude": -105.020712
      },
      "startAddress": "4526 Robert Villages",
      "endAddress": "26693 Le Locks Apt. 493",
      "startCoords": {
        "latitude": 39.822128,
        "longitude": -104.991402
      },
      "endCoords": {
        "latitude": 39.822967,
        "longitude": -105.030479
      },
      "distanceMeters": 41188.9,
      "durationMs": 9947177,
      "drivingDurationMs": 8192901,
      "idlingDurationMs": 1754276,
      "fuelConsumedMl": 5235,
      "fuelConsumedGallons": 1.383,
      "maxSpeedMph": 51.4,
      "averageSpeedMph": 9.3,
      "safetyEvents": [],
      "_no_driver_login": false,
      "_fuel_note": ""
    },
    {
      "id": "trip_48291001_20250316_001",
      "vehicleId": "48291001",
      "driverId": "22831000",
      "startMs": 1742132340000,
      "endMs": 1742144806425,
      "startLocation": {
        "latitude": 39.770477,
        "longitude": -104.981742
      },
      "endLocation": {
        "latitude": 39.822459,
        "longitude": -104.980547
      },
      "startAddress": "25087 Chavez Haven Suite 888",
      "endAddress": "192 James Glen Suite 807",
      "startCoords": {
        "latitude": 39.684041,
        "longitude": -105.066319
      },
      "endCoords": {
        "latitude": 39.688219,
        "longitude": -105.055989
      },
      "distanceMeters": 55863.7,
      "durationMs": 12466425,
      "drivingDurationMs": 9974248,
      "idlingDurationMs": 2492178,
      "fuelConsumedMl": 7101,
      "fuelConsumedGallons": 1.876,
      "maxSpeedMph": 65.0,
      "averageSpeedMph": 10.0,
      "safetyEvents": [],
      "_no_driver_login": false,
      "_fuel_note": "QUIRK 5: fuelConsumedGallons is in US gallons. Multiply by 3.785 for litres. Samsara does not link fuel to specific Onfleet tasks."
    },
    {
      "id": "trip_48291001_20250316_002",
      "vehicleId": "48291001",
      "driverId": null,
      "startMs": 1742150340000,
      "endMs": 1742155085327,
      "startLocation": {
        "latitude": 39.808373,
        "longitude": -104.985515
      },
      "endLocation": {
        "latitude": 39.719533,
        "longitude": -104.974557
      },
      "startAddress": "843 Farmer Tunnel Suite 461",
      "endAddress": "639 Nicole Dam Suite 692",
      "startCoords": {
        "latitude": 39.710886,
        "longitude": -105.042721
      },
      "endCoords": {
        "latitude": 39.732951,
        "longitude": -105.028547
      },
      "distanceMeters": 22312.6,
      "durationMs": 4745328,
      "drivingDurationMs": 3898402,
      "idlingDurationMs": 846926,
      "fuelConsumedMl": 2835,
      "fuelConsumedGallons": 0.749,
      "maxSpeedMph": 58.3,
      "averageSpeedMph": 10.5,
      "safetyEvents": [],
      "_no_driver_login": true,
      "_fuel_note": ""
    },
    {
      "id": "trip_48291001_20250316_003",
      "vehicleId": "48291001",
      "driverId": "22831000",
      "startMs": 1742130840000,
      "endMs": 1742139500635,
      "startLocation": {
        "latitude": 39.780973,
        "longitude": -105.056933
      },
      "endLocation": {
        "latitude": 39.815337,
        "longitude": -104.901069
      },
      "startAddress": "622 Archer Spurs Apt. 697",
      "endAddress": "812 Bridget Ford",
      "startCoords": {
        "latitude": 39.73495,
        "longitude": -105.015753
      },
      "endCoords": {
        "latitude": 39.783231,
        "longitude": -105.071396
      },
      "distanceMeters": 56080.2,
      "durationMs": 8660636,
      "drivingDurationMs": 7465304,
      "idlingDurationMs": 1195332,
      "fuelConsumedMl": 7132,
      "fuelConsumedGallons": 1.884,
      "maxSpeedMph": 53.4,
      "averageSpeedMph": 14.5,
      "safetyEvents": [],
      "_no_driver_login": false,
      "_fuel_note": ""
    },
    {
      "id": "trip_48291001_20250316_004",
      "vehicleId": "48291001",
      "driverId": null,
      "startMs": 1742139840000,
      "endMs": 1742141461234,
      "startLocation": {
        "latitude": 39.765182,
        "longitude": -104.911824
      },
      "endLocation": {
        "latitude": 39.729796,
        "longitude": -104.919988
      },
      "startAddress": "233 Reid Station",
      "endAddress": "31342 Wong Pines",
      "startCoords": {
        "latitude": 39.703049,
        "longitude": -104.951382
      },
      "endCoords": {
        "latitude": 39.739714,
        "longitude": -105.069868
      },
      "distanceMeters": 11426.0,
      "durationMs": 1621235,
      "drivingDurationMs": 1368445,
      "idlingDurationMs": 252789,
      "fuelConsumedMl": 1454,
      "fuelConsumedGallons": 0.384,
      "maxSpeedMph": 36.6,
      "averageSpeedMph": 15.8,
      "safetyEvents": [],
      "_no_driver_login": true,
      "_fuel_note": ""
    },
    {
      "id": "trip_48291001_20250317_001",
      "vehicleId": "48291001",
      "driverId": "22831000",
      "startMs": 1742207400000,
      "endMs": 1742216379204,
      "startLocation": {
        "latitude": 39.709101,
        "longitude": -104.990799
      },
      "endLocation": {
        "latitude": 39.702229,
        "longitude": -105.031954
      },
      "startAddress": "54425 Stephen Hill Suite 261",
      "endAddress": "782 John Lock",
      "startCoords": {
        "latitude": 39.714384,
        "longitude": -104.962651
      },
      "endCoords": {
        "latitude": 39.739165,
        "longitude": -105.06749
      },
      "distanceMeters": 74918.4,
      "durationMs": 8979205,
      "drivingDurationMs": 8757683,
      "idlingDurationMs": 221522,
      "fuelConsumedMl": 9524,
      "fuelConsumedGallons": 2.516,
      "maxSpeedMph": 56.9,
      "averageSpeedMph": 18.7,
      "safetyEvents": [],
      "_no_driver_login": false,
      "_fuel_note": "QUIRK 5: fuelConsumedGallons is in US gallons. Multiply by 3.785 for litres. Samsara does not link fuel to specific Onfleet tasks."
    },
    {
      "id": "trip_48291001_20250317_002",
      "vehicleId": "48291001",
      "driverId": "22831000",
      "startMs": 1742195580000,
      "endMs": 1742201220110,
      "startLocation": {
        "latitude": 39.792579,
        "longitude": -105.056502
      },
      "endLocation": {
        "latitude": 39.769215,
        "longitude": -105.084853
      },
      "startAddress": "6266 Shane Radial",
      "endAddress": "754 Alicia Isle Apt. 243",
      "startCoords": {
        "latitude": 39.776991,
        "longitude": -104.991754
      },
      "endCoords": {
        "latitude": 39.808194,
        "longitude": -104.96693
      },
      "distanceMeters": 32247.2,
      "durationMs": 5640110,
      "drivingDurationMs": 4814880,
      "idlingDurationMs": 825230,
      "fuelConsumedMl": 4100,
      "fuelConsumedGallons": 1.083,
      "maxSpeedMph": 32.2,
      "averageSpeedMph": 12.8,
      "safetyEvents": [],
      "_no_driver_login": false,
      "_fuel_note": ""
    },
    {
      "id": "trip_48291001_20250317_003",
      "vehicleId": "48291001",
      "driverId": "22831000",
      "startMs": 1742210760000,
      "endMs": 1742226521637,
      "startLocation": {
        "latitude": 39.808066,
        "longitude": -104.976467
      },
      "endLocation": {
        "latitude": 39.826869,
        "longitude": -105.078
      },
      "startAddress": "04902 Mcdaniel Ramp",
      "endAddress": "27791 Villa Inlet",
      "startCoords": {
        "latitude": 39.73895,
        "longitude": -104.97646
      },
      "endCoords": {
        "latitude": 39.798426,
        "longitude": -104.991239
      },
      "distanceMeters": 66216.4,
      "durationMs": 15761637,
      "drivingDurationMs": 12925483,
      "idlingDurationMs": 2836154,
      "fuelConsumedMl": 8419,
      "fuelConsumedGallons": 2.224,
      "maxSpeedMph": 43.1,
      "averageSpeedMph": 9.4,
      "safetyEvents": [],
      "_no_driver_login": false,
      "_fuel_note": ""
    },
    {
      "id": "trip_48291001_20250317_004",
      "vehicleId": "48291001",
      "driverId": "22831000",
      "startMs": 1742213940000,
      "endMs": 1742230419205,
      "startLocation": {
        "latitude": 39.741299,
        "longitude": -104.913243
      },
      "endLocation": {
        "latitude": 39.798078,
        "longitude": -105.050671
      },
      "startAddress": "4495 Jeffrey Knoll",
      "endAddress": "5230 Juarez Radial",
      "startCoords": {
        "latitude": 39.695336,
        "longitude": -105.066793
      },
      "endCoords": {
        "latitude": 39.739259,
        "longitude": -105.049531
      },
      "distanceMeters": 77509.6,
      "durationMs": 16479205,
      "drivingDurationMs": 14324081,
      "idlingDurationMs": 2155124,
      "fuelConsumedMl": 9853,
      "fuelConsumedGallons": 2.603,
      "maxSpeedMph": 62.5,
      "averageSpeedMph": 10.5,
      "safetyEvents": [],
      "_no_driver_login": false,
      "_fuel_note": ""
    },
    {
      "id": "trip_48291001_20250318_001",
      "vehicleId": "48291001",
      "driverId": "22831000",
      "startMs": 1742286600000,
      "endMs": 1742300865965,
      "startLocation": {
        "latitude": 39.703417,
        "longitude": -104.992416
      },
      "endLocation": {
        "latitude": 39.759057,
        "longitude": -105.083163
      },
      "startAddress": "29466 Campos Isle",
      "endAddress": "86298 Paula Highway",
      "startCoords": {
        "latitude": 39.792756,
        "longitude": -104.937449
      },
      "endCoords": {
        "latitude": 39.789543,
        "longitude": -105.01524
      },
      "distanceMeters": 70612.6,
      "durationMs": 14265966,
      "drivingDurationMs": 12119799,
      "idlingDurationMs": 2146167,
      "fuelConsumedMl": 8979,
      "fuelConsumedGallons": 2.372,
      "maxSpeedMph": 66.1,
      "averageSpeedMph": 11.1,
      "safetyEvents": [
        {
          "type": "speeding",
          "startMs": 1742291760000,
          "maxSpeedMph": 66.1
        }
      ],
      "_no_driver_login": false,
      "_fuel_note": "QUIRK 5: fuelConsumedGallons is in US gallons. Multiply by 3.785 for litres. Samsara does not link fuel to specific Onfleet tasks."
    },
    {
      "id": "trip_48291001_20250318_002",
      "vehicleId": "48291001",
      "driverId": "22831000",
      "startMs": 1742315400000,
      "endMs": 1742328511038,
      "startLocation": {
        "latitude": 39.727518,
        "longitude": -105.039938
      },
      "endLocation": {
        "latitude": 39.804752,
        "longitude": -105.079514
      },
      "startAddress": "4981 Hunt Square",
      "endAddress": "805 Thomas Turnpike Apt. 304",
      "startCoords": {
        "latitude": 39.725238,
        "longitude": -105.016589
      },
      "endCoords": {
        "latitude": 39.708523,
        "longitude": -105.070934
      },
      "distanceMeters": 83299.7,
      "durationMs": 13111039,
      "drivingDurationMs": 10884740,
      "idlingDurationMs": 2226298,
      "fuelConsumedMl": 10592,
      "fuelConsumedGallons": 2.798,
      "maxSpeedMph": 34.5,
      "averageSpeedMph": 14.2,
      "safetyEvents": [],
      "_no_driver_login": false,
      "_fuel_note": ""
    },
    {
      "id": "trip_48291001_20250318_003",
      "vehicleId": "48291001",
      "driverId": "22831000",
      "startMs": 1742297220000,
      "endMs": 1742298865355,
      "startLocation": {
        "latitude": 39.807116,
        "longitude": -105.085217
      },
      "endLocation": {
        "latitude": 39.826056,
        "longitude": -105.051104
      },
      "startAddress": "6108 Tara Meadows",
      "endAddress": "71894 Boone Plaza",
      "startCoords": {
        "latitude": 39.758237,
        "longitude": -104.955502
      },
      "endCoords": {
        "latitude": 39.770953,
        "longitude": -105.048605
      },
      "distanceMeters": 7216.6,
      "durationMs": 1645355,
      "drivingDurationMs": 1402658,
      "idlingDurationMs": 242697,
      "fuelConsumedMl": 916,
      "fuelConsumedGallons": 0.242,
      "maxSpeedMph": 61.4,
      "averageSpeedMph": 9.8,
      "safetyEvents": [],
      "_no_driver_login": false,
      "_fuel_note": ""
    },
    {
      "id": "trip_48291001_20250318_004",
      "vehicleId": "48291001",
      "driverId": "22831000",
      "startMs": 1742312400000,
      "endMs": 1742331547437,
      "startLocation": {
        "latitude": 39.808428,
        "longitude": -105.081564
      },
      "endLocation": {
        "latitude": 39.722757,
        "longitude": -104.971981
      },
      "startAddress": "294 Cole Crescent Suite 103",
      "endAddress": "06622 Taylor Burg Suite 445",
      "startCoords": {
        "latitude": 39.759024,
        "longitude": -105.036494
      },
      "endCoords": {
        "latitude": 39.804804,
        "longitude": -105.075542
      },
      "distanceMeters": 83075.9,
      "durationMs": 19147438,
      "drivingDurationMs": 15570848,
      "idlingDurationMs": 3576590,
      "fuelConsumedMl": 10561,
      "fuelConsumedGallons": 2.79,
      "maxSpeedMph": 45.6,
      "averageSpeedMph": 9.7,
      "safetyEvents": [],
      "_no_driver_login": false,
      "_fuel_note": ""
    },
    {
      "id": "trip_48291001_20250318_005",
      "vehicleId": "48291001",
      "driverId": "22831000",
      "startMs": 1742306940000,
      "endMs": 1742311749452,
      "startLocation": {
        "latitude": 39.700259,
        "longitude": -104.905259
      },
      "endLocation": {
        "latitude": 39.727126,
        "longitude": -104.955594
      },
      "startAddress": "845 Tonya Lakes",
      "endAddress": "7887 Garrison Path Suite 609",
      "startCoords": {
        "latitude": 39.712794,
        "longitude": -105.041517
      },
      "endCoords": {
        "latitude": 39.756252,
        "longitude": -104.973515
      },
      "distanceMeters": 30344.3,
      "durationMs": 4809452,
      "drivingDurationMs": 4215020,
      "idlingDurationMs": 594433,
      "fuelConsumedMl": 3857,
      "fuelConsumedGallons": 1.019,
      "maxSpeedMph": 28.4,
      "averageSpeedMph": 14.1,
      "safetyEvents": [],
      "_no_driver_login": false,
      "_fuel_note": ""
    },
    {
      "id": "trip_48291001_20250318_006",
      "vehicleId": "48291001",
      "driverId": "22831000",
      "startMs": 1742289600000,
      "endMs": 1742302979370,
      "startLocation": {
        "latitude": 39.698891,
        "longitude": -105.041998
      },
      "endLocation": {
        "latitude": 39.689555,
        "longitude": -104.930747
      },
      "startAddress": "3973 Debra Station",
      "endAddress": "951 Daniel Canyon Suite 789",
      "startCoords": {
        "latitude": 39.801165,
        "longitude": -104.995556
      },
      "endCoords": {
        "latitude": 39.746551,
        "longitude": -104.982415
      },
      "distanceMeters": 81100.8,
      "durationMs": 13379370,
      "drivingDurationMs": 11985218,
      "idlingDurationMs": 1394152,
      "fuelConsumedMl": 10311,
      "fuelConsumedGallons": 2.724,
      "maxSpeedMph": 47.8,
      "averageSpeedMph": 13.6,
      "safetyEvents": [],
      "_no_driver_login": false,
      "_fuel_note": ""
    },
    {
      "id": "trip_48291001_20250319_001",
      "vehicleId": "48291001",
      "driverId": "22831000",
      "startMs": 1742382060000,
      "endMs": 1742389336997,
      "startLocation": {
        "latitude": 39.706033,
        "longitude": -104.959093
      },
      "endLocation": {
        "latitude": 39.729395,
        "longitude": -104.951323
      },
      "startAddress": "675 Garcia Curve Suite 087",
      "endAddress": "09289 Anthony Plains",
      "startCoords": {
        "latitude": 39.767311,
        "longitude": -104.923409
      },
      "endCoords": {
        "latitude": 39.808097,
        "longitude": -104.972679
      },
      "distanceMeters": 53032.5,
      "durationMs": 7276997,
      "drivingDurationMs": 6547610,
      "idlingDurationMs": 729387,
      "fuelConsumedMl": 6742,
      "fuelConsumedGallons": 1.781,
      "maxSpeedMph": 63.5,
      "averageSpeedMph": 16.3,
      "safetyEvents": [],
      "_no_driver_login": false,
      "_fuel_note": "QUIRK 5: fuelConsumedGallons is in US gallons. Multiply by 3.785 for litres. Samsara does not link fuel to specific Onfleet tasks."
    },
    {
      "id": "trip_48291001_20250319_002",
      "vehicleId": "48291001",
      "driverId": "22831000",
      "startMs": 1742384940000,
      "endMs": 1742393531214,
      "startLocation": {
        "latitude": 39.729506,
        "longitude": -104.959765
      },
      "endLocation": {
        "latitude": 39.789962,
        "longitude": -104.9682
      },
      "startAddress": "1627 James Drives Suite 612",
      "endAddress": "5567 Christian Hill Suite 203",
      "startCoords": {
        "latitude": 39.691253,
        "longitude": -104.990566
      },
      "endCoords": {
        "latitude": 39.716083,
        "longitude": -105.047487
      },
      "distanceMeters": 50595.8,
      "durationMs": 8591214,
      "drivingDurationMs": 7104341,
      "idlingDurationMs": 1486873,
      "fuelConsumedMl": 6431,
      "fuelConsumedGallons": 1.699,
      "maxSpeedMph": 36.9,
      "averageSpeedMph": 13.2,
      "safetyEvents": [],
      "_no_driver_login": false,
      "_fuel_note": ""
    },
    {
      "id": "trip_48291001_20250319_003",
      "vehicleId": "48291001",
      "driverId": "22831000",
      "startMs": 1742398080000,
      "endMs": 1742400153516,
      "startLocation": {
        "latitude": 39.768307,
        "longitude": -104.976234
      },
      "endLocation": {
        "latitude": 39.811951,
        "longitude": -104.966901
      },
      "startAddress": "76853 Nancy Orchard Suite 660",
      "endAddress": "571 Lonnie Unions Apt. 564",
      "startCoords": {
        "latitude": 39.684255,
        "longitude": -104.970873
      },
      "endCoords": {
        "latitude": 39.722489,
        "longitude": -105.053256
      },
      "distanceMeters": 14520.2,
      "durationMs": 2073516,
      "drivingDurationMs": 1660980,
      "idlingDurationMs": 412536,
      "fuelConsumedMl": 1847,
      "fuelConsumedGallons": 0.488,
      "maxSpeedMph": 57.7,
      "averageSpeedMph": 15.7,
      "safetyEvents": [],
      "_no_driver_login": false,
      "_fuel_note": ""
    },
    {
      "id": "trip_48291001_20250319_004",
      "vehicleId": "48291001",
      "driverId": "22831000",
      "startMs": 1742384460000,
      "endMs": 1742386416941,
      "startLocation": {
        "latitude": 39.697362,
        "longitude": -104.984089
      },
      "endLocation": {
        "latitude": 39.687388,
        "longitude": -105.021357
      },
      "startAddress": "181 Cole Pike",
      "endAddress": "49511 William Hollow Apt. 486",
      "startCoords": {
        "latitude": 39.713071,
        "longitude": -105.044609
      },
      "endCoords": {
        "latitude": 39.763626,
        "longitude": -105.004254
      },
      "distanceMeters": 9476.9,
      "durationMs": 1956941,
      "drivingDurationMs": 1617831,
      "idlingDurationMs": 339110,
      "fuelConsumedMl": 1204,
      "fuelConsumedGallons": 0.318,
      "maxSpeedMph": 61.7,
      "averageSpeedMph": 10.8,
      "safetyEvents": [],
      "_no_driver_login": false,
      "_fuel_note": ""
    },
    {
      "id": "trip_48291001_20250320_001",
      "vehicleId": "48291001",
      "driverId": "22831000",
      "startMs": 1742489460000,
      "endMs": 1742498133696,
      "startLocation": {
        "latitude": 39.800134,
        "longitude": -104.948508
      },
      "endLocation": {
        "latitude": 39.721893,
        "longitude": -105.028717
      },
      "startAddress": "711 Tony Corner",
      "endAddress": "4622 Alexander Ford",
      "startCoords": {
        "latitude": 39.80456,
        "longitude": -104.987443
      },
      "endCoords": {
        "latitude": 39.736364,
        "longitude": -105.066684
      },
      "distanceMeters": 61016.9,
      "durationMs": 8673696,
      "drivingDurationMs": 7489914,
      "idlingDurationMs": 1183782,
      "fuelConsumedMl": 7756,
      "fuelConsumedGallons": 2.049,
      "maxSpeedMph": 44.1,
      "averageSpeedMph": 15.7,
      "safetyEvents": [],
      "_no_driver_login": false,
      "_fuel_note": "QUIRK 5: fuelConsumedGallons is in US gallons. Multiply by 3.785 for litres. Samsara does not link fuel to specific Onfleet tasks."
    },
    {
      "id": "trip_48291001_20250320_002",
      "vehicleId": "48291001",
      "driverId": "22831000",
      "startMs": 1742458080000,
      "endMs": 1742471215077,
      "startLocation": {
        "latitude": 39.822935,
        "longitude": -105.066167
      },
      "endLocation": {
        "latitude": 39.801171,
        "longitude": -104.935238
      },
      "startAddress": "3767 Jennifer Knoll",
      "endAddress": "67495 Kelly Expressway Suite 084",
      "startCoords": {
        "latitude": 39.742028,
        "longitude": -104.929427
      },
      "endCoords": {
        "latitude": 39.758074,
        "longitude": -104.939048
      },
      "distanceMeters": 83001.7,
      "durationMs": 13135077,
      "drivingDurationMs": 11053392,
      "idlingDurationMs": 2081685,
      "fuelConsumedMl": 10554,
      "fuelConsumedGallons": 2.788,
      "maxSpeedMph": 33.1,
      "averageSpeedMph": 14.1,
      "safetyEvents": [],
      "_no_driver_login": false,
      "_fuel_note": ""
    },
    {
      "id": "trip_48291001_20250320_003",
      "vehicleId": "48291001",
      "driverId": "22831000",
      "startMs": 1742458320000,
      "endMs": 1742464973923,
      "startLocation": {
        "latitude": 39.821423,
        "longitude": -104.979447
      },
      "endLocation": {
        "latitude": 39.826111,
        "longitude": -104.943483
      },
      "startAddress": "7106 Gordon Mountains Apt. 703",
      "endAddress": "58523 Meagan Crescent Apt. 343",
      "startCoords": {
        "latitude": 39.806154,
        "longitude": -104.927762
      },
      "endCoords": {
        "latitude": 39.696727,
        "longitude": -105.036555
      },
      "distanceMeters": 46733.9,
      "durationMs": 6653923,
      "drivingDurationMs": 5464562,
      "idlingDurationMs": 1189362,
      "fuelConsumedMl": 5943,
      "fuelConsumedGallons": 1.57,
      "maxSpeedMph": 28.6,
      "averageSpeedMph": 15.7,
      "safetyEvents": [],
      "_no_driver_login": false,
      "_fuel_note": ""
    },
    {
      "id": "trip_48291001_20250321_001",
      "vehicleId": "48291001",
      "driverId": "22831000",
      "startMs": 1742541420000,
      "endMs": 1742548554912,
      "startLocation": {
        "latitude": 39.823377,
        "longitude": -105.051357
      },
      "endLocation": {
        "latitude": 39.785323,
        "longitude": -104.998017
      },
      "startAddress": "0490 Francis Parkways Apt. 652",
      "endAddress": "7573 Jack Estate",
      "startCoords": {
        "latitude": 39.725945,
        "longitude": -104.945524
      },
      "endCoords": {
        "latitude": 39.777453,
        "longitude": -104.975533
      },
      "distanceMeters": 42094.9,
      "durationMs": 7134912,
      "drivingDurationMs": 6160300,
      "idlingDurationMs": 974613,
      "fuelConsumedMl": 5353,
      "fuelConsumedGallons": 1.414,
      "maxSpeedMph": 36.1,
      "averageSpeedMph": 13.2,
      "safetyEvents": [],
      "_no_driver_login": false,
      "_fuel_note": "QUIRK 5: fuelConsumedGallons is in US gallons. Multiply by 3.785 for litres. Samsara does not link fuel to specific Onfleet tasks."
    },
    {
      "id": "trip_48291001_20250321_002",
      "vehicleId": "48291001",
      "driverId": "22831000",
      "startMs": 1742578740000,
      "endMs": 1742587184411,
      "startLocation": {
        "latitude": 39.789893,
        "longitude": -105.048964
      },
      "endLocation": {
        "latitude": 39.802524,
        "longitude": -104.980776
      },
      "startAddress": "249 Watson Expressway",
      "endAddress": "107 Jose Lights Apt. 611",
      "startCoords": {
        "latitude": 39.767198,
        "longitude": -104.950186
      },
      "endCoords": {
        "latitude": 39.688464,
        "longitude": -104.933161
      },
      "distanceMeters": 66631.1,
      "durationMs": 8444411,
      "drivingDurationMs": 8036778,
      "idlingDurationMs": 407633,
      "fuelConsumedMl": 8472,
      "fuelConsumedGallons": 2.238,
      "maxSpeedMph": 34.8,
      "averageSpeedMph": 17.7,
      "safetyEvents": [],
      "_no_driver_login": false,
      "_fuel_note": ""
    },
    {
      "id": "trip_48291001_20250321_003",
      "vehicleId": "48291001",
      "driverId": "22831000",
      "startMs": 1742578860000,
      "endMs": 1742589049340,
      "startLocation": {
        "latitude": 39.783691,
        "longitude": -104.941789
      },
      "endLocation": {
        "latitude": 39.815834,
        "longitude": -105.027753
      },
      "startAddress": "1635 Manuel Center",
      "endAddress": "179 Taylor Camp",
      "startCoords": {
        "latitude": 39.801931,
        "longitude": -104.979127
      },
      "endCoords": {
        "latitude": 39.79904,
        "longitude": -104.997597
      },
      "distanceMeters": 59583.6,
      "durationMs": 10189340,
      "drivingDurationMs": 8590478,
      "idlingDurationMs": 1598863,
      "fuelConsumedMl": 7575,
      "fuelConsumedGallons": 2.001,
      "maxSpeedMph": 62.3,
      "averageSpeedMph": 13.1,
      "safetyEvents": [],
      "_no_driver_login": false,
      "_fuel_note": ""
    },
    {
      "id": "trip_48291001_20250321_004",
      "vehicleId": "48291001",
      "driverId": "22831000",
      "startMs": 1742541840000,
      "endMs": 1742546840147,
      "startLocation": {
        "latitude": 39.706436,
        "longitude": -104.96847
      },
      "endLocation": {
        "latitude": 39.815039,
        "longitude": -104.974579
      },
      "startAddress": "1130 Amy Fall",
      "endAddress": "5226 Michael Orchard Apt. 882",
      "startCoords": {
        "latitude": 39.694026,
        "longitude": -104.983552
      },
      "endCoords": {
        "latitude": 39.743298,
        "longitude": -105.002865
      },
      "distanceMeters": 21921.6,
      "durationMs": 5000148,
      "drivingDurationMs": 4029206,
      "idlingDurationMs": 970942,
      "fuelConsumedMl": 2786,
      "fuelConsumedGallons": 0.736,
      "maxSpeedMph": 33.1,
      "averageSpeedMph": 9.8,
      "safetyEvents": [],
      "_no_driver_login": false,
      "_fuel_note": ""
    },
    {
      "id": "trip_48291001_20250321_005",
      "vehicleId": "48291001",
      "driverId": "22831000",
      "startMs": 1742538000000,
      "endMs": 1742545289117,
      "startLocation": {
        "latitude": 39.78285,
        "longitude": -104.904005
      },
      "endLocation": {
        "latitude": 39.784831,
        "longitude": -105.077624
      },
      "startAddress": "990 Vasquez Ridges",
      "endAddress": "081 Steven Plains Apt. 063",
      "startCoords": {
        "latitude": 39.8063,
        "longitude": -104.98496
      },
      "endCoords": {
        "latitude": 39.774933,
        "longitude": -105.008222
      },
      "distanceMeters": 54413.1,
      "durationMs": 7289117,
      "drivingDurationMs": 6463977,
      "idlingDurationMs": 825141,
      "fuelConsumedMl": 6920,
      "fuelConsumedGallons": 1.828,
      "maxSpeedMph": 62.6,
      "averageSpeedMph": 16.7,
      "safetyEvents": [],
      "_no_driver_login": false,
      "_fuel_note": ""
    },
    {
      "id": "trip_48291001_20250322_001",
      "vehicleId": "48291001",
      "driverId": "22831000",
      "startMs": 1742653440000,
      "endMs": 1742660129929,
      "startLocation": {
        "latitude": 39.792916,
        "longitude": -105.044631
      },
      "endLocation": {
        "latitude": 39.804749,
        "longitude": -104.982008
      },
      "startAddress": "2249 Kennedy Ports",
      "endAddress": "7406 Carlson Row",
      "startCoords": {
        "latitude": 39.774375,
        "longitude": -104.921869
      },
      "endCoords": {
        "latitude": 39.715685,
        "longitude": -105.064251
      },
      "distanceMeters": 38567.5,
      "durationMs": 6689930,
      "drivingDurationMs": 5705978,
      "idlingDurationMs": 983952,
      "fuelConsumedMl": 4902,
      "fuelConsumedGallons": 1.295,
      "maxSpeedMph": 62.2,
      "averageSpeedMph": 12.9,
      "safetyEvents": [],
      "_no_driver_login": false,
      "_fuel_note": "QUIRK 5: fuelConsumedGallons is in US gallons. Multiply by 3.785 for litres. Samsara does not link fuel to specific Onfleet tasks."
    },
    {
      "id": "trip_48291001_20250322_002",
      "vehicleId": "48291001",
      "driverId": "22831000",
      "startMs": 1742661000000,
      "endMs": 1742669029878,
      "startLocation": {
        "latitude": 39.804864,
        "longitude": -105.032504
      },
      "endLocation": {
        "latitude": 39.788363,
        "longitude": -104.973054
      },
      "startAddress": "3947 Hodge Skyway Apt. 610",
      "endAddress": "59423 Hicks Locks",
      "startCoords": {
        "latitude": 39.725781,
        "longitude": -105.035887
      },
      "endCoords": {
        "latitude": 39.709605,
        "longitude": -105.00379
      },
      "distanceMeters": 57483.2,
      "durationMs": 8029879,
      "drivingDurationMs": 7093498,
      "idlingDurationMs": 936381,
      "fuelConsumedMl": 7310,
      "fuelConsumedGallons": 1.931,
      "maxSpeedMph": 55.6,
      "averageSpeedMph": 16.0,
      "safetyEvents": [],
      "_no_driver_login": false,
      "_fuel_note": ""
    },
    {
      "id": "trip_48291001_20250323_001",
      "vehicleId": "48291001",
      "driverId": "22831000",
      "startMs": 1742755680000,
      "endMs": 1742759946627,
      "startLocation": {
        "latitude": 39.71343,
        "longitude": -105.057943
      },
      "endLocation": {
        "latitude": 39.704123,
        "longitude": -104.941661
      },
      "startAddress": "851 Jennifer Extensions",
      "endAddress": "316 Justin Port",
      "startCoords": {
        "latitude": 39.756653,
        "longitude": -104.978179
      },
      "endCoords": {
        "latitude": 39.748055,
        "longitude": -105.07145
      },
      "distanceMeters": 24248.4,
      "durationMs": 4266628,
      "drivingDurationMs": 3727331,
      "idlingDurationMs": 539297,
      "fuelConsumedMl": 3081,
      "fuelConsumedGallons": 0.814,
      "maxSpeedMph": 30.7,
      "averageSpeedMph": 12.7,
      "safetyEvents": [],
      "_no_driver_login": false,
      "_fuel_note": "QUIRK 5: fuelConsumedGallons is in US gallons. Multiply by 3.785 for litres. Samsara does not link fuel to specific Onfleet tasks."
    },
    {
      "id": "trip_48291001_20250323_002",
      "vehicleId": "48291001",
      "driverId": "22831000",
      "startMs": 1742723700000,
      "endMs": 1742733511965,
      "startLocation": {
        "latitude": 39.795122,
        "longitude": -104.899929
      },
      "endLocation": {
        "latitude": 39.791716,
        "longitude": -104.922504
      },
      "startAddress": "345 Cruz Rest Suite 563",
      "endAddress": "07326 Erickson Summit Apt. 245",
      "startCoords": {
        "latitude": 39.729151,
        "longitude": -104.983133
      },
      "endCoords": {
        "latitude": 39.808115,
        "longitude": -104.971036
      },
      "distanceMeters": 52694.5,
      "durationMs": 9811966,
      "drivingDurationMs": 8045213,
      "idlingDurationMs": 1766752,
      "fuelConsumedMl": 6700,
      "fuelConsumedGallons": 1.77,
      "maxSpeedMph": 47.6,
      "averageSpeedMph": 12.0,
      "safetyEvents": [],
      "_no_driver_login": false,
      "_fuel_note": ""
    },
    {
      "id": "trip_48291001_20250323_003",
      "vehicleId": "48291001",
      "driverId": "22831000",
      "startMs": 1742752560000,
      "endMs": 1742758503696,
      "startLocation": {
        "latitude": 39.714458,
        "longitude": -104.917191
      },
      "endLocation": {
        "latitude": 39.769697,
        "longitude": -105.065925
      },
      "startAddress": "6605 Rodriguez Locks Apt. 065",
      "endAddress": "314 Davis Divide",
      "startCoords": {
        "latitude": 39.809348,
        "longitude": -104.972047
      },
      "endCoords": {
        "latitude": 39.760441,
        "longitude": -104.906618
      },
      "distanceMeters": 25002.8,
      "durationMs": 5943697,
      "drivingDurationMs": 4827206,
      "idlingDurationMs": 1116491,
      "fuelConsumedMl": 3180,
      "fuelConsumedGallons": 0.84,
      "maxSpeedMph": 45.4,
      "averageSpeedMph": 9.4,
      "safetyEvents": [],
      "_no_driver_login": false,
      "_fuel_note": ""
    },
    {
      "id": "trip_48291001_20250323_004",
      "vehicleId": "48291001",
      "driverId": "22831000",
      "startMs": 1742720760000,
      "endMs": 1742732315008,
      "startLocation": {
        "latitude": 39.685149,
        "longitude": -104.921185
      },
      "endLocation": {
        "latitude": 39.776272,
        "longitude": -104.904082
      },
      "startAddress": "0634 Michael Fields Suite 312",
      "endAddress": "457 Cody Light",
      "startCoords": {
        "latitude": 39.770416,
        "longitude": -104.985628
      },
      "endCoords": {
        "latitude": 39.720828,
        "longitude": -105.002633
      },
      "distanceMeters": 70795.1,
      "durationMs": 11555009,
      "drivingDurationMs": 10354263,
      "idlingDurationMs": 1200746,
      "fuelConsumedMl": 9002,
      "fuelConsumedGallons": 2.378,
      "maxSpeedMph": 63.8,
      "averageSpeedMph": 13.7,
      "safetyEvents": [],
      "_no_driver_login": false,
      "_fuel_note": ""
    },
    {
      "id": "trip_48291001_20250324_001",
      "vehicleId": "48291001",
      "driverId": "22831000",
      "startMs": 1742819100000,
      "endMs": 1742826865117,
      "startLocation": {
        "latitude": 39.725381,
        "longitude": -105.040001
      },
      "endLocation": {
        "latitude": 39.791029,
        "longitude": -105.003194
      },
      "startAddress": "5398 Alexander Brooks",
      "endAddress": "4556 Johnston Mount",
      "startCoords": {
        "latitude": 39.689313,
        "longitude": -105.047065
      },
      "endCoords": {
        "latitude": 39.825325,
        "longitude": -104.928719
      },
      "distanceMeters": 59662.6,
      "durationMs": 7765118,
      "drivingDurationMs": 7199131,
      "idlingDurationMs": 565987,
      "fuelConsumedMl": 7586,
      "fuelConsumedGallons": 2.004,
      "maxSpeedMph": 31.7,
      "averageSpeedMph": 17.2,
      "safetyEvents": [],
      "_no_driver_login": false,
      "_fuel_note": "QUIRK 5: fuelConsumedGallons is in US gallons. Multiply by 3.785 for litres. Samsara does not link fuel to specific Onfleet tasks."
    },
    {
      "id": "trip_48291001_20250324_002",
      "vehicleId": "48291001",
      "driverId": "22831000",
      "startMs": 1742828640000,
      "endMs": 1742839737722,
      "startLocation": {
        "latitude": 39.758887,
        "longitude": -105.066417
      },
      "endLocation": {
        "latitude": 39.728389,
        "longitude": -105.048425
      },
      "startAddress": "8471 Lee Cape Apt. 841",
      "endAddress": "1112 Richards Plains Suite 079",
      "startCoords": {
        "latitude": 39.813916,
        "longitude": -104.947085
      },
      "endCoords": {
        "latitude": 39.787926,
        "longitude": -105.054693
      },
      "distanceMeters": 69436.3,
      "durationMs": 11097723,
      "drivingDurationMs": 9688190,
      "idlingDurationMs": 1409532,
      "fuelConsumedMl": 8828,
      "fuelConsumedGallons": 2.332,
      "maxSpeedMph": 60.3,
      "averageSpeedMph": 14.0,
      "safetyEvents": [],
      "_no_driver_login": false,
      "_fuel_note": ""
    },
    {
      "id": "trip_48291001_20250324_003",
      "vehicleId": "48291001",
      "driverId": "22831000",
      "startMs": 1742836560000,
      "endMs": 1742850000000,
      "startLocation": {
        "latitude": 39.750403,
        "longitude": -104.912159
      },
      "endLocation": {
        "latitude": 39.768533,
        "longitude": -105.043028
      },
      "startAddress": "280 Garcia Mill Suite 742",
      "endAddress": "60494 Murphy Trail",
      "startCoords": {
        "latitude": 39.724726,
        "longitude": -104.943643
      },
      "endCoords": {
        "latitude": 39.733188,
        "longitude": -104.919265
      },
      "distanceMeters": 76434.7,
      "durationMs": 13440000,
      "drivingDurationMs": 13075288,
      "idlingDurationMs": 364712,
      "fuelConsumedMl": 9717,
      "fuelConsumedGallons": 2.567,
      "maxSpeedMph": 29.1,
      "averageSpeedMph": 12.7,
      "safetyEvents": [],
      "_no_driver_login": false,
      "_fuel_note": ""
    },
    {
      "id": "trip_48291001_20250324_004",
      "vehicleId": "48291001",
      "driverId": "22831000",
      "startMs": 1742825340000,
      "endMs": 1742827629171,
      "startLocation": {
        "latitude": 39.705509,
        "longitude": -104.962059
      },
      "endLocation": {
        "latitude": 39.731086,
        "longitude": -104.906879
      },
      "startAddress": "33005 James Via",
      "endAddress": "28571 Laurie Cliff",
      "startCoords": {
        "latitude": 39.717335,
        "longitude": -105.029384
      },
      "endCoords": {
        "latitude": 39.69437,
        "longitude": -105.007476
      },
      "distanceMeters": 15791.6,
      "durationMs": 2289171,
      "drivingDurationMs": 1928960,
      "idlingDurationMs": 360211,
      "fuelConsumedMl": 2006,
      "fuelConsumedGallons": 0.53,
      "maxSpeedMph": 38.5,
      "averageSpeedMph": 15.4,
      "safetyEvents": [],
      "_no_driver_login": false,
      "_fuel_note": ""
    },
    {
      "id": "trip_48291001_20250324_005",
      "vehicleId": "48291001",
      "driverId": "22831000",
      "startMs": 1742816760000,
      "endMs": 1742823009860,
      "startLocation": {
        "latitude": 39.819946,
        "longitude": -105.07562
      },
      "endLocation": {
        "latitude": 39.687705,
        "longitude": -105.002948
      },
      "startAddress": "160 Dean Valley Apt. 343",
      "endAddress": "65727 Mary Flat",
      "startCoords": {
        "latitude": 39.753209,
        "longitude": -104.955414
      },
      "endCoords": {
        "latitude": 39.686652,
        "longitude": -105.038633
      },
      "distanceMeters": 51882.5,
      "durationMs": 6249861,
      "drivingDurationMs": 5949793,
      "idlingDurationMs": 300068,
      "fuelConsumedMl": 6598,
      "fuelConsumedGallons": 1.743,
      "maxSpeedMph": 33.0,
      "averageSpeedMph": 18.6,
      "safetyEvents": [],
      "_no_driver_login": false,
      "_fuel_note": ""
    },
    {
      "id": "trip_48291001_20250324_006",
      "vehicleId": "48291001",
      "driverId": "22831000",
      "startMs": 1742829720000,
      "endMs": 1742832609094,
      "startLocation": {
        "latitude": 39.744731,
        "longitude": -105.02794
      },
      "endLocation": {
        "latitude": 39.714531,
        "longitude": -105.08708
      },
      "startAddress": "0806 Jones Loop",
      "endAddress": "718 Watson Mill Apt. 502",
      "startCoords": {
        "latitude": 39.730329,
        "longitude": -105.037157
      },
      "endCoords": {
        "latitude": 39.807574,
        "longitude": -105.072684
      },
      "distanceMeters": 13768.1,
      "durationMs": 2889094,
      "drivingDurationMs": 2533073,
      "idlingDurationMs": 356021,
      "fuelConsumedMl": 1749,
      "fuelConsumedGallons": 0.462,
      "maxSpeedMph": 50.3,
      "averageSpeedMph": 10.7,
      "safetyEvents": [],
      "_no_driver_login": false,
      "_fuel_note": ""
    },
    {
      "id": "trip_48291001_20250325_001",
      "vehicleId": "48291001",
      "driverId": "22831000",
      "startMs": 1742902980000,
      "endMs": 1742909945786,
      "startLocation": {
        "latitude": 39.7908,
        "longitude": -105.038949
      },
      "endLocation": {
        "latitude": 39.791468,
        "longitude": -105.024363
      },
      "startAddress": "001 Matthew Gateway",
      "endAddress": "59674 Cassandra Stravenue Suite 107",
      "startCoords": {
        "latitude": 39.711676,
        "longitude": -104.91422
      },