{
  "vehicleId": "48291027",
  "vehicleName": "SAL-MOT-01",
  "month": "2025_02",
  "pagination": {
    "endCursor": "trip_48291027_20250228_016",
    "hasNextPage": false
  },
  "trips": [
    {
      "id": "trip_48291027_20250201_001",
      "vehicleId": "48291027",
      "driverId": "22831026",
      "startMs": 1738398000000,
      "endMs": 1738400250268,
      "startLocation": {
        "latitude": 40.687677,
        "longitude": -111.877756
      },
      "endLocation": {
        "latitude": 40.796902,
        "longitude": -111.83513
      },
      "startAddress": "3227 Holland Shoal",
      "endAddress": "48478 Melanie Bridge",
      "startCoords": {
        "latitude": 40.792767,
        "longitude": -111.948396
      },
      "endCoords": {
        "latitude": 40.72086,
        "longitude": -111.816586
      },
      "distanceMeters": 18882.7,
      "durationMs": 2250269,
      "drivingDurationMs": 1875865,
      "idlingDurationMs": 374404,
      "fuelConsumedMl": 856,
      "fuelConsumedGallons": 0.226,
      "maxSpeedMph": 45.2,
      "averageSpeedMph": 18.8,
      "safetyEvents": [],
      "_no_driver_login": false,
      "_fuel_note": "QUIRK 5: fuelConsumedGallons is in US gallons. Multiply by 3.785 for litres. Samsara does not link fuel to specific Onfleet tasks."
    },
    {
      "id": "trip_48291027_20250201_002",
      "vehicleId": "48291027",
      "driverId": "22831026",
      "startMs": 1738399620000,
      "endMs": 1738403487248,
      "startLocation": {
        "latitude": 40.708634,
        "longitude": -111.859177
      },
      "endLocation": {
        "latitude": 40.71181,
        "longitude": -111.80779
      },
      "startAddress": "2457 Gregory Locks Suite 728",
      "endAddress": "2009 Caleb Harbors",
      "startCoords": {
        "latitude": 40.789624,
        "longitude": -111.934919
      },
      "endCoords": {
        "latitude": 40.719634,
        "longitude": -111.923505
      },
      "distanceMeters": 22501.6,
      "durationMs": 3867248,
      "drivingDurationMs": 3657930,
      "idlingDurationMs": 209319,
      "fuelConsumedMl": 1018,
      "fuelConsumedGallons": 0.269,
      "maxSpeedMph": 59.8,
      "averageSpeedMph": 13.0,
      "safetyEvents": [],
      "_no_driver_login": false,
      "_fuel_note": ""
    },
    {
      "id": "trip_48291027_20250201_003",
      "vehicleId": "48291027",
      "driverId": "22831026",
      "startMs": 1738399440000,
      "endMs": 1738401020906,
      "startLocation": {
        "latitude": 40.720354,
        "longitude": -111.775564
      },
      "endLocation": {
        "latitude": 40.688725,
        "longitude": -111.855627
      },
      "startAddress": "8079 Walter Greens Apt. 553",
      "endAddress": "16847 Kyle Knoll Suite 245",
      "startCoords": {
        "latitude": 40.720881,
        "longitude": -111.89288
      },
      "endCoords": {
        "latitude": 40.691887,
        "longitude": -111.879355
      },
      "distanceMeters": 8475.0,
      "durationMs": 1580907,
      "drivingDurationMs": 1285644,
      "idlingDurationMs": 295263,
      "fuelConsumedMl": 382,
      "fuelConsumedGallons": 0.101,
      "maxSpeedMph": 36.0,
      "averageSpeedMph": 12.0,
      "safetyEvents": [],
      "_no_driver_login": false,
      "_fuel_note": ""
    },
    {
      "id": "trip_48291027_20250201_004",
      "vehicleId": "48291027",
      "driverId": "22831026",
      "startMs": 1738408260000,
      "endMs": 1738409478400,
      "startLocation": {
        "latitude": 40.744057,
        "longitude": -111.927285
      },
      "endLocation": {
        "latitude": 40.730103,
        "longitude": -111.874731
      },
      "startAddress": "1964 Gonzalez Island Suite 394",
      "endAddress": "6109 Church Turnpike",
      "startCoords": {
        "latitude": 40.703375,
        "longitude": -111.939934
      },
      "endCoords": {
        "latitude": 40.690527,
        "longitude": -111.841876
      },
      "distanceMeters": 7550.9,
      "durationMs": 1218400,
      "drivingDurationMs": 985175,
      "idlingDurationMs": 233225,
      "fuelConsumedMl": 341,
      "fuelConsumedGallons": 0.09,
      "maxSpeedMph": 64.7,
      "averageSpeedMph": 13.9,
      "safetyEvents": [],
      "_no_driver_login": false,
      "_fuel_note": ""
    },
    {
      "id": "trip_48291027_20250201_005",
      "vehicleId": "48291027",
      "driverId": "22831026",
      "startMs": 1738405140000,
      "endMs": 1738406212028,
      "startLocation": {
        "latitude": 40.687897,
        "longitude": -111.868466
      },
      "endLocation": {
        "latitude": 40.785629,
        "longitude": -111.812897
      },
      "startAddress": "305 Brianna Corners",
      "endAddress": "1759 Melissa Overpass",
      "startCoords": {
        "latitude": 40.74729,
        "longitude": -111.901642
      },
      "endCoords": {
        "latitude": 40.754564,
        "longitude": -111.895937
      },
      "distanceMeters": 6953.8,
      "durationMs": 1072028,
      "drivingDurationMs": 866711,
      "idlingDurationMs": 205317,
      "fuelConsumedMl": 314,
      "fuelConsumedGallons": 0.083,
      "maxSpeedMph": 70.6,
      "averageSpeedMph": 14.5,
      "safetyEvents": [
        {
          "type": "speeding",
          "startMs": 1738405320000,
          "maxSpeedMph": 70.6
        }
      ],
      "_no_driver_login": false,
      "_fuel_note": ""
    },
    {
      "id": "trip_48291027_20250201_006",
      "vehicleId": "48291027",
      "driverId": "22831026",
      "startMs": 1738406460000,
      "endMs": 1738407361194,
      "startLocation": {
        "latitude": 40.709465,
        "longitude": -111.92617
      },
      "endLocation": {
        "latitude": 40.775793,
        "longitude": -111.779886
      },
      "startAddress": "147 Kelly Estate",
      "endAddress": "6594 Jeffrey Dale",
      "startCoords": {
        "latitude": 40.782777,
        "longitude": -111.780978
      },
      "endCoords": {
        "latitude": 40.795562,
        "longitude": -111.781899
      },
      "distanceMeters": 5091.1,
      "durationMs": 901195,
      "drivingDurationMs": 721000,
      "idlingDurationMs": 180195,
      "fuelConsumedMl": 231,
      "fuelConsumedGallons": 0.061,
      "maxSpeedMph": 40.1,
      "averageSpeedMph": 12.6,
      "safetyEvents": [],
      "_no_driver_login": false,
      "_fuel_note": ""
    },
    {
      "id": "trip_48291027_20250203_001",
      "vehicleId": "48291027",
      "driverId": "22831026",
      "startMs": 1738585140000,
      "endMs": 1738587069742,
      "startLocation": {
        "latitude": 40.797335,
        "longitude": -111.948443
      },
      "endLocation": {
        "latitude": 40.66386,
        "longitude": -111.780686
      },
      "startAddress": "29342 Wendy Forge",
      "endAddress": "1976 Hall Shores Suite 035",
      "startCoords": {
        "latitude": 40.766012,
        "longitude": -111.843053
      },
      "endCoords": {
        "latitude": 40.776494,
        "longitude": -111.80832
      },
      "distanceMeters": 12214.2,
      "durationMs": 1929743,
      "drivingDurationMs": 1588580,
      "idlingDurationMs": 341162,
      "fuelConsumedMl": 553,
      "fuelConsumedGallons": 0.146,
      "maxSpeedMph": 45.4,
      "averageSpeedMph": 14.2,
      "safetyEvents": [],
      "_no_driver_login": false,
      "_fuel_note": "QUIRK 5: fuelConsumedGallons is in US gallons. Multiply by 3.785 for litres. Samsara does not link fuel to specific Onfleet tasks."
    },
    {
      "id": "trip_48291027_20250203_002",
      "vehicleId": "48291027",
      "driverId": "22831026",
      "startMs": 1738578540000,
      "endMs": 1738579897998,
      "startLocation": {
        "latitude": 40.731807,
        "longitude": -111.955397
      },
      "endLocation": {
        "latitude": 40.669763,
        "longitude": -111.824258
      },
      "startAddress": "5354 Preston Mission",
      "endAddress": "04497 Knapp Rue Apt. 255",
      "startCoords": {
        "latitude": 40.798737,
        "longitude": -111.830941
      },
      "endCoords": {
        "latitude": 40.748895,
        "longitude": -111.902383
      },
      "distanceMeters": 7205.3,
      "durationMs": 1357999,
      "drivingDurationMs": 1152069,
      "idlingDurationMs": 205930,
      "fuelConsumedMl": 326,
      "fuelConsumedGallons": 0.086,
      "maxSpeedMph": 32.5,
      "averageSpeedMph": 11.9,
      "safetyEvents": [],
      "_no_driver_login": false,
      "_fuel_note": ""
    },
    {
      "id": "trip_48291027_20250203_003",
      "vehicleId": "48291027",
      "driverId": "22831026",
      "startMs": 1738578420000,
      "endMs": 1738581777132,
      "startLocation": {
        "latitude": 40.666015,
        "longitude": -111.907582
      },
      "endLocation": {
        "latitude": 40.776163,
        "longitude": -111.960693
      },
      "startAddress": "29089 Cruz Station Apt. 125",
      "endAddress": "0554 Ford Locks",
      "startCoords": {
        "latitude": 40.789818,
        "longitude": -111.783089
      },
      "endCoords": {
        "latitude": 40.782564,
        "longitude": -111.820758
      },
      "distanceMeters": 19683.1,
      "durationMs": 3357132,
      "drivingDurationMs": 3146491,
      "idlingDurationMs": 210641,
      "fuelConsumedMl": 890,
      "fuelConsumedGallons": 0.235,
      "maxSpeedMph": 32.4,
      "averageSpeedMph": 13.1,
      "safetyEvents": [],
      "_no_driver_login": false,
      "_fuel_note": ""
    },
    {
      "id": "trip_48291027_20250203_004",
      "vehicleId": "48291027",
      "driverId": "22831026",
      "startMs": 1738589460000,
      "endMs": 1738592379929,
      "startLocation": {
        "latitude": 40.694765,
        "longitude": -111.918962
      },
      "endLocation": {
        "latitude": 40.691247,
        "longitude": -111.839993
      },
      "startAddress": "8867 Hicks Ramp Suite 934",
      "endAddress": "97824 Kevin Field",
      "startCoords": {
        "latitude": 40.7879,
        "longitude": -111.885905
      },
      "endCoords": {
        "latitude": 40.759436,
        "longitude": -111.818704
      },
      "distanceMeters": 19196.4,
      "durationMs": 2919930,
      "drivingDurationMs": 2425030,
      "idlingDurationMs": 494900,
      "fuelConsumedMl": 867,
      "fuelConsumedGallons": 0.229,
      "maxSpeedMph": 42.4,
      "averageSpeedMph": 14.7,
      "safetyEvents": [],
      "_no_driver_login": false,
      "_fuel_note": ""
    },
    {
      "id": "trip_48291027_20250203_005",
      "vehicleId": "48291027",
      "driverId": "22831026",
      "startMs": 1738576200000,
      "endMs": 1738578590966,
      "startLocation": {
        "latitude": 40.781155,
        "longitude": -111.833213
      },
      "endLocation": {
        "latitude": 40.666488,
        "longitude": -111.788309
      },
      "startAddress": "350 Gary Plain Apt. 964",
      "endAddress": "636 Aguirre Mill",
      "startCoords": {
        "latitude": 40.69883,
        "longitude": -111.899381
      },
      "endCoords": {
        "latitude": 40.755598,
        "longitude": -111.777186
      },
      "distanceMeters": 14489.2,
      "durationMs": 2390967,
      "drivingDurationMs": 2031797,
      "idlingDurationMs": 359170,
      "fuelConsumedMl": 655,
      "fuelConsumedGallons": 0.173,
      "maxSpeedMph": 68.8,
      "averageSpeedMph": 13.6,
      "safetyEvents": [
        {
          "type": "speeding",
          "startMs": 1738576320000,
          "maxSpeedMph": 68.8
        }
      ],
      "_no_driver_login": false,
      "_fuel_note": ""
    },
    {
      "id": "trip_48291027_20250203_006",
      "vehicleId": "48291027",
      "driverId": "22831026",
      "startMs": 1738602600000,
      "endMs": 1738604366720,
      "startLocation": {
        "latitude": 40.737576,
        "longitude": -111.910745
      },
      "endLocation": {
        "latitude": 40.67353,
        "longitude": -111.808474
      },
      "startAddress": "354 Andre Brook Apt. 049",
      "endAddress": "41280 Huffman Shoal",
      "startCoords": {
        "latitude": 40.761889,
        "longitude": -111.78507
      },
      "endCoords": {
        "latitude": 40.709952,
        "longitude": -111.816358
      },
      "distanceMeters": 10414.1,
      "durationMs": 1766721,
      "drivingDurationMs": 1532271,
      "idlingDurationMs": 234450,
      "fuelConsumedMl": 469,
      "fuelConsumedGallons": 0.124,
      "maxSpeedMph": 32.9,
      "averageSpeedMph": 13.2,
      "safetyEvents": [],
      "_no_driver_login": false,
      "_fuel_note": ""
    },
    {
      "id": "trip_48291027_20250203_007",
      "vehicleId": "48291027",
      "driverId": "22831026",
      "startMs": 1738578480000,
      "endMs": 1738579251457,
      "startLocation": {
        "latitude": 40.799317,
        "longitude": -111.927255
      },
      "endLocation": {
        "latitude": 40.796971,
        "longitude": -111.93225
      },
      "startAddress": "8316 Berry Union Apt. 230",
      "endAddress": "2658 Jessica Shoal Apt. 642",
      "startCoords": {
        "latitude": 40.702894,
        "longitude": -111.803807
      },
      "endCoords": {
        "latitude": 40.768805,
        "longitude": -111.794485
      },
      "distanceMeters": 5958.6,
      "durationMs": 771458,
      "drivingDurationMs": 607626,
      "idlingDurationMs": 163831,
      "fuelConsumedMl": 269,
      "fuelConsumedGallons": 0.071,
      "maxSpeedMph": 28.4,
      "averageSpeedMph": 17.3,
      "safetyEvents": [],
      "_no_driver_login": false,
      "_fuel_note": ""
    },
    {
      "id": "trip_48291027_20250203_008",
      "vehicleId": "48291027",
      "driverId": "22831026",
      "startMs": 1738572960000,
      "endMs": 1738576903932,
      "startLocation": {
        "latitude": 40.683123,
        "longitude": -111.793439
      },
      "endLocation": {
        "latitude": 40.686405,
        "longitude": -111.935784
      },
      "startAddress": "3362 Curtis Ridge",
      "endAddress": "69883 Martinez Burg Suite 868",
      "startCoords": {
        "latitude": 40.793182,
        "longitude": -111.880205
      },
      "endCoords": {
        "latitude": 40.789149,
        "longitude": -111.876312
      },
      "distanceMeters": 22718.8,
      "durationMs": 3943933,
      "drivingDurationMs": 3166027,
      "idlingDurationMs": 777906,
      "fuelConsumedMl": 1026,
      "fuelConsumedGallons": 0.271,
      "maxSpeedMph": 32.0,
      "averageSpeedMph": 12.9,
      "safetyEvents": [],
      "_no_driver_login": false,
      "_fuel_note": ""
    },
    {
      "id": "trip_48291027_20250203_009",
      "vehicleId": "48291027",
      "driverId": "22831026",
      "startMs": 1738598160000,
      "endMs": 1738599781983,
      "startLocation": {
        "latitude": 40.736233,
        "longitude": -111.911771
      },
      "endLocation": {
        "latitude": 40.679998,
        "longitude": -111.786577
      },
      "startAddress": "03214 Emily Roads Suite 519",
      "endAddress": "16726 Stacy Drive",
      "startCoords": {
        "latitude": 40.660427,
        "longitude": -111.854131
      },
      "endCoords": {
        "latitude": 40.725372,
        "longitude": -111.849216
      },
      "distanceMeters": 12972.9,
      "durationMs": 1621983,
      "drivingDurationMs": 1302096,
      "idlingDurationMs": 319888,
      "fuelConsumedMl": 587,
      "fuelConsumedGallons": 0.155,
      "maxSpeedMph": 65.9,
      "averageSpeedMph": 17.9,
      "safetyEvents": [
        {
          "type": "speeding",
          "startMs": 1738599540000,
          "maxSpeedMph": 65.9
        }
      ],
      "_no_driver_login": false,
      "_fuel_note": ""
    },
    {
      "id": "trip_48291027_20250203_010",
      "vehicleId": "48291027",
      "driverId": "22831026",
      "startMs": 1738592220000,
      "endMs": 1738594248192,
      "startLocation": {
        "latitude": 40.687763,
        "longitude": -111.896691
      },
      "endLocation": {
        "latitude": 40.672023,
        "longitude": -111.794029
      },
      "startAddress": "32507 Veronica Oval Apt. 809",
      "endAddress": "9979 Christina Trafficway Apt. 802",
      "startCoords": {
        "latitude": 40.759914,
        "longitude": -111.8056
      },
      "endCoords": {
        "latitude": 40.657415,
        "longitude": -111.782899
      },
      "distanceMeters": 17411.8,
      "durationMs": 2028192,
      "drivingDurationMs": 1766395,
      "idlingDurationMs": 261798,
      "fuelConsumedMl": 787,
      "fuelConsumedGallons": 0.208,
      "maxSpeedMph": 35.1,
      "averageSpeedMph": 19.2,
      "safetyEvents": [],
      "_no_driver_login": false,
      "_fuel_note": ""
    },
    {
      "id": "trip_48291027_20250203_011",
      "vehicleId": "48291027",
      "driverId": "22831026",
      "startMs": 1738600380000,
      "endMs": 1738603832951,
      "startLocation": {
        "latitude": 40.681757,
        "longitude": -111.877874
      },
      "endLocation": {
        "latitude": 40.717936,
        "longitude": -111.776422
      },
      "startAddress": "2623 Sanders Estate Suite 558",
      "endAddress": "4244 Richard Parkways",
      "startCoords": {
        "latitude": 40.730596,
        "longitude": -111.815607
      },
      "endCoords": {
        "latitude": 40.738075,
        "longitude": -111.809681
      },
      "distanceMeters": 20552.2,
      "durationMs": 3452952,
      "drivingDurationMs": 2977547,
      "idlingDurationMs": 475404,
      "fuelConsumedMl": 931,
      "fuelConsumedGallons": 0.246,
      "maxSpeedMph": 43.7,
      "averageSpeedMph": 13.3,
      "safetyEvents": [],
      "_no_driver_login": false,
      "_fuel_note": ""
    },
    {
      "id": "trip_48291027_20250203_012",
      "vehicleId": "48291027",
      "driverId": "22831026",
      "startMs": 1738584120000,
      "endMs": 1738585838021,
      "startLocation": {
        "latitude": 40.78045,
        "longitude": -111.867802
      },
      "endLocation": {
        "latitude": 40.676941,
        "longitude": -111.812366
      },
      "startAddress": "44783 Richard Extension Suite 991",
      "endAddress": "3014 Angela Vista Suite 364",
      "startCoords": {
        "latitude": 40.777963,
        "longitude": -111.881303
      },
      "endCoords": {
        "latitude": 40.706139,
        "longitude": -111.779866
      },
      "distanceMeters": 9845.7,
      "durationMs": 1718021,
      "drivingDurationMs": 1511275,
      "idlingDurationMs": 206746,
      "fuelConsumedMl": 447,
      "fuelConsumedGallons": 0.118,
      "maxSpeedMph": 47.9,
      "averageSpeedMph": 12.8,
      "safetyEvents": [],
      "_no_driver_login": false,
      "_fuel_note": ""
    },
    {
      "id": "trip_48291027_20250203_013",
      "vehicleId": "48291027",
      "driverId": "22831026",
      "startMs": 1738583040000,
      "endMs": 1738586055259,
      "startLocation": {
        "latitude": 40.706701,
        "longitude": -111.901306
      },
      "endLocation": {
        "latitude": 40.725407,
        "longitude": -111.859263
      },
      "startAddress": "4390 Vasquez Road Suite 592",
      "endAddress": "336 Doyle Common",
      "startCoords": {
        "latitude": 40.672785,
        "longitude": -111.86175
      },
      "endCoords": {
        "latitude": 40.791845,
        "longitude": -111.849464
      },
      "distanceMeters": 19816.9,
      "durationMs": 3015259,
      "drivingDurationMs": 2798035,
      "idlingDurationMs": 217225,
      "fuelConsumedMl": 897,
      "fuelConsumedGallons": 0.237,
      "maxSpeedMph": 55.4,
      "averageSpeedMph": 14.7,
      "safetyEvents": [],
      "_no_driver_login": false,
      "_fuel_note": ""
    },
    {
      "id": "trip_48291027_20250203_014",
      "vehicleId": "48291027",
      "driverId": "22831026",
      "startMs": 1738571220000,
      "endMs": 1738572795344,
      "startLocation": {
        "latitude": 40.667958,
        "longitude": -111.89695
      },
      "endLocation": {
        "latitude": 40.670694,
        "longitude": -111.888174
      },
      "startAddress": "370 Adam Branch",
      "endAddress": "061 Gregory Ridge",
      "startCoords": {
        "latitude": 40.77258,
        "longitude": -111.837252
      },
      "endCoords": {
        "latitude": 40.736636,
        "longitude": -111.88495
      },
      "distanceMeters": 13653.1,
      "durationMs": 1575344,
      "drivingDurationMs": 1314542,
      "idlingDurationMs": 260803,
      "fuelConsumedMl": 617,
      "fuelConsumedGallons": 0.163,
      "maxSpeedMph": 62.2,
      "averageSpeedMph": 19.4,
      "safetyEvents": [],
      "_no_driver_login": false,
      "_fuel_note": ""
    },
    {
      "id": "trip_48291027_20250203_015",
      "vehicleId": "48291027",
      "driverId": "22831026",
      "startMs": 1738595220000,
      "endMs": 1738597608248,
      "startLocation": {
        "latitude": 40.659806,
        "longitude": -111.938859
      },
      "endLocation": {
        "latitude": 40.69165,
        "longitude": -111.904767
      },
      "startAddress": "69781 Romero Haven Suite 208",
      "endAddress": "2223 Michael Lane",
      "startCoords": {
        "latitude": 40.73097,
        "longitude": -111.92666
      },
      "endCoords": {
        "latitude": 40.662403,
        "longitude": -111.881348
      },
      "distanceMeters": 19613.1,
      "durationMs": 2388248,
      "drivingDurationMs": 1943070,
      "idlingDurationMs": 445179,
      "fuelConsumedMl": 886,
      "fuelConsumedGallons": 0.234,
      "maxSpeedMph": 36.6,
      "averageSpeedMph": 18.4,
      "safetyEvents": [],
      "_no_driver_login": false,
      "_fuel_note": ""
    },
    {
      "id": "trip_48291027_20250203_016",
      "vehicleId": "48291027",
      "driverId": "22831026",
      "startMs": 1738609140000,
      "endMs": 1738612013414,
      "startLocation": {
        "latitude": 40.794282,
        "longitude": -111.958801
      },
      "endLocation": {
        "latitude": 40.780873,
        "longitude": -111.858515
      },
      "startAddress": "2328 David Field Apt. 844",
      "endAddress": "9425 David Lane Suite 971",
      "startCoords": {
        "latitude": 40.66339,
        "longitude": -111.916451
      },
      "endCoords": {
        "latitude": 40.705829,
        "longitude": -111.907087
      },
      "distanceMeters": 19674.3,
      "durationMs": 2873415,
      "drivingDurationMs": 2343310,
      "idlingDurationMs": 530105,
      "fuelConsumedMl": 890,
      "fuelConsumedGallons": 0.235,
      "maxSpeedMph": 60.6,
      "averageSpeedMph": 15.3,
      "safetyEvents": [],
      "_no_driver_login": false,
      "_fuel_note": ""
    },
    {
      "id": "trip_48291027_20250203_017",
      "vehicleId": "48291027",
      "driverId": "22831026",
      "startMs": 1738580220000,
      "endMs": 1738580888638,
      "startLocation": {
        "latitude": 40.767856,
        "longitude": -111.83399
      },
      "endLocation": {
        "latitude": 40.662679,
        "longitude": -111.872406
      },
      "startAddress": "714 Darrell Roads",
      "endAddress": "152 Holly Rapids",
      "startCoords": {
        "latitude": 40.665453,
        "longitude": -111.905486
      },
      "endCoords": {
        "latitude": 40.769728,
        "longitude": -111.81969
      },
      "distanceMeters": 3502.4,
      "durationMs": 668638,
      "drivingDurationMs": 532299,
      "idlingDurationMs": 136340,
      "fuelConsumedMl": 159,
      "fuelConsumedGallons": 0.042,
      "maxSpeedMph": 66.6,
      "averageSpeedMph": 11.7,
      "safetyEvents": [
        {
          "type": "speeding",
          "startMs": 1738580340000,
          "maxSpeedMph": 66.6
        }
      ],
      "_no_driver_login": false,
      "_fuel_note": ""
    },
    {
      "id": "trip_48291027_20250204_001",
      "vehicleId": "48291027",
      "driverId": "22831026",
      "startMs": 1738663440000,
      "endMs": 1738664746432,
      "startLocation": {
        "latitude": 40.673242,
        "longitude": -111.953236
      },
      "endLocation": {
        "latitude": 40.663853,
        "longitude": -111.937495
      },
      "startAddress": "512 Christopher Mall Apt. 393",
      "endAddress": "863 Frye Pass Apt. 269",
      "startCoords": {
        "latitude": 40.75171,
        "longitude": -111.796444
      },
      "endCoords": {
        "latitude": 40.725745,
        "longitude": -111.824961
      },
      "distanceMeters": 7031.6,
      "durationMs": 1306433,
      "drivingDurationMs": 1096539,
      "idlingDurationMs": 209893,
      "fuelConsumedMl": 318,
      "fuelConsumedGallons": 0.084,
      "maxSpeedMph": 70.3,
      "averageSpeedMph": 12.0,
      "safetyEvents": [
        {
          "type": "speeding",
          "startMs": 1738663800000,
          "maxSpeedMph": 70.3
        }
      ],
      "_no_driver_login": false,
      "_fuel_note": "QUIRK 5: fuelConsumedGallons is in US gallons. Multiply by 3.785 for litres. Samsara does not link fuel to specific Onfleet tasks."
    },
    {
      "id": "trip_48291027_20250204_002",
      "vehicleId": "48291027",
      "driverId": "22831026",
      "startMs": 1738651080000,
      "endMs": 1738651511880,
      "startLocation": {
        "latitude": 40.673254,
        "longitude": -111.845619
      },
      "endLocation": {
        "latitude": 40.775499,
        "longitude": -111.94797
      },
      "startAddress": "4107 Watson Camp",
      "endAddress": "19048 Angela Square Suite 044",
      "startCoords": {
        "latitude": 40.666447,
        "longitude": -111.893213
      },
      "endCoords": {
        "latitude": 40.739071,
        "longitude": -111.872639
      },
      "distanceMeters": 3405.8,
      "durationMs": 431881,
      "drivingDurationMs": 331351,
      "idlingDurationMs": 100530,
      "fuelConsumedMl": 155,
      "fuelConsumedGallons": 0.041,
      "maxSpeedMph": 44.9,
      "averageSpeedMph": 17.6,
      "safetyEvents": [],
      "_no_driver_login": false,
      "_fuel_note": ""
    },
    {
      "id": "trip_48291027_20250204_003",
      "vehicleId": "48291027",
      "driverId": "22831026",
      "startMs": 1738691940000,
      "endMs": 1738694250504,
      "startLocation": {
        "latitude": 40.674902,
        "longitude": -111.776946
      },
      "endLocation": {
        "latitude": 40.774197,
        "longitude": -111.911005
      },
      "startAddress": "70851 Diaz Lodge",
      "endAddress": "3000 Kathy Courts",
      "startCoords": {
        "latitude": 40.749813,
        "longitude": -111.874206
      },
      "endCoords": {
        "latitude": 40.696673,
        "longitude": -111.87705
      },
      "distanceMeters": 12837.2,
      "durationMs": 2310505,
      "drivingDurationMs": 1997791,
      "idlingDurationMs": 312714,
      "fuelConsumedMl": 579,
      "fuelConsumedGallons": 0.153,
      "maxSpeedMph": 46.4,
      "averageSpeedMph": 12.4,
      "safetyEvents": [],
      "_no_driver_login": false,
      "_fuel_note": ""
    },
    {
      "id": "trip_48291027_20250204_004",
      "vehicleId": "48291027",
      "driverId": "22831026",
      "startMs": 1738666920000,
      "endMs": 1738667848669,
      "startLocation": {
        "latitude": 40.735796,
        "longitude": -111.890964
      },
      "endLocation": {
        "latitude": 40.762383,
        "longitude": -111.91714
      },
      "startAddress": "522 Phillips Stravenue Suite 255",
      "endAddress": "3865 Richard Forge",
      "startCoords": {
        "latitude": 40.782486,
        "longitude": -111.94914
      },
      "endCoords": {
        "latitude": 40.714032,
        "longitude": -111.944461
      },
      "distanceMeters": 5881.6,
      "durationMs": 928669,
      "drivingDurationMs": 743188,
      "idlingDurationMs": 185481,
      "fuelConsumedMl": 265,
      "fuelConsumedGallons": 0.07,
      "maxSpeedMph": 43.8,
      "averageSpeedMph": 14.2,
      "safetyEvents": [],
      "_no_driver_login": false,
      "_fuel_note": ""
    },
    {
      "id": "trip_48291027_20250204_005",
      "vehicleId": "48291027",
      "driverId": "22831026",
      "startMs": 1738662840000,
      "endMs": 1738664599145,
      "startLocation": {
        "latitude": 40.770593,
        "longitude": -111.805128
      },
      "endLocation": {
        "latitude": 40.783905,
        "longitude": -111.777486
      },
      "startAddress": "6766 Jenkins Valleys Apt. 594",
      "endAddress": "931 Hughes Causeway Suite 646",
      "startCoords": {
        "latitude": 40.740462,
        "longitude": -111.894795
      },
      "endCoords": {
        "latitude": 40.742515,
        "longitude": -111.921056
      },
      "distanceMeters": 12411.8,
      "durationMs": 1759146,
      "drivingDurationMs": 1431851,
      "idlingDurationMs": 327295,
      "fuelConsumedMl": 560,
      "fuelConsumedGallons": 0.148,
      "maxSpeedMph": 62.4,
      "averageSpeedMph": 15.8,
      "safetyEvents": [],
      "_no_driver_login": false,
      "_fuel_note": ""
    },
    {
      "id": "trip_48291027_20250204_006",
      "vehicleId": "48291027",
      "driverId": "22831026",
      "startMs": 1738679220000,
      "endMs": 1738681819039,
      "startLocation": {
        "latitude": 40.743251,
        "longitude": -111.888561
      },
      "endLocation": {
        "latitude": 40.738026,
        "longitude": -111.949023
      },
      "startAddress": "96177 Patrick Camp Suite 412",
      "endAddress": "42497 Cunningham Haven",
      "startCoords": {
        "latitude": 40.742192,
        "longitude": -111.841172
      },
      "endCoords": {
        "latitude": 40.687553,
        "longitude": -111.860215
      },
      "distanceMeters": 17162.9,
      "durationMs": 2599040,
      "drivingDurationMs": 2168931,
      "idlingDurationMs": 430109,
      "fuelConsumedMl": 776,
      "fuelConsumedGallons": 0.205,
      "maxSpeedMph": 33.3,
      "averageSpeedMph": 14.8,
      "safetyEvents": [],
      "_no_driver_login": false,
      "_fuel_note": ""
    },
    {
      "id": "trip_48291027_20250204_007",
      "vehicleId": "48291027",
      "driverId": "22831026",
      "startMs": 1738678440000,
      "endMs": 1738679565163,
      "startLocation": {
        "latitude": 40.715065,
        "longitude": -111.862003
      },
      "endLocation": {
        "latitude": 40.730523,
        "longitude": -111.890419
      },
      "startAddress": "198 Williams Route",
      "endAddress": "02108 Kristopher Spurs",
      "startCoords": {
        "latitude": 40.679801,
        "longitude": -111.917391
      },
      "endCoords": {
        "latitude": 40.674548,
        "longitude": -111.959311
      },
      "distanceMeters": 8302.4,
      "durationMs": 1125163,
      "drivingDurationMs": 913274,
      "idlingDurationMs": 211889,
      "fuelConsumedMl": 375,
      "fuelConsumedGallons": 0.099,
      "maxSpeedMph": 44.4,
      "averageSpeedMph": 16.5,
      "safetyEvents": [],
      "_no_driver_login": false,
      "_fuel_note": ""
    },
    {
      "id": "trip_48291027_20250204_008",
      "vehicleId": "48291027",
      "driverId": "22831026",
      "startMs": 1738693980000,
      "endMs": 1738695836572,
      "startLocation": {
        "latitude": 40.700738,
        "longitude": -111.915973
      },
      "endLocation": {
        "latitude": 40.702053,
        "longitude": -111.79359
      },
      "startAddress": "898 Christopher Crossing Apt. 774",
      "endAddress": "00520 Carol Drive Suite 558",
      "startCoords": {
        "latitude": 40.798812,
        "longitude": -111.864962
      },
      "endCoords": {
        "latitude": 40.725543,
        "longitude": -111.854444
      },
      "distanceMeters": 12488.2,
      "durationMs": 1856572,
      "drivingDurationMs": 1519261,
      "idlingDurationMs": 337312,
      "fuelConsumedMl": 564,
      "fuelConsumedGallons": 0.149,
      "maxSpeedMph": 35.6,
      "averageSpeedMph": 15.0,
      "safetyEvents": [],
      "_no_driver_login": false,
      "_fuel_note": ""
    },
    {
      "id": "trip_48291027_20250204_009",
      "vehicleId": "48291027",
      "driverId": "22831026",
      "startMs": 1738650300000,
      "endMs": 1738651060331,
      "startLocation": {
        "latitude": 40.76505,
        "longitude": -111.88863
      },
      "endLocation": {
        "latitude": 40.689632,
        "longitude": -111.858192
      },
      "startAddress": "66921 Wright Stravenue",
      "endAddress": "82671 Allen Knolls",
      "startCoords": {
        "latitude": 40.766511,
        "longitude": -111.922917
      },
      "endCoords": {
        "latitude": 40.75845,
        "longitude": -111.931744
      },
      "distanceMeters": 5041.4,
      "durationMs": 760331,
      "drivingDurationMs": 581882,
      "idlingDurationMs": 178449,
      "fuelConsumedMl": 227,
      "fuelConsumedGallons": 0.06,
      "maxSpeedMph": 42.8,
      "averageSpeedMph": 14.8,
      "safetyEvents": [],
      "_no_driver_login": false,
      "_fuel_note": ""
    },
    {
      "id": "trip_48291027_20250204_010",
      "vehicleId": "48291027",
      "driverId": "22831026",
      "startMs": 1738665900000,
      "endMs": 1738667727314,
      "startLocation": {
        "latitude": 40.775456,
        "longitude": -111.943226
      },
      "endLocation": {
        "latitude": 40.761397,
        "longitude": -111.843799
      },
      "startAddress": "13962 Flores Shores Apt. 441",
      "endAddress": "42882 Howell Parkways Apt. 053",
      "startCoords": {
        "latitude": 40.785081,
        "longitude": -111.80179
      },
      "endCoords": {
        "latitude": 40.787158,
        "longitude": -111.961665
      },
      "distanceMeters": 11249.8,
      "durationMs": 1827314,
      "drivingDurationMs": 1537573,
      "idlingDurationMs": 289741,
      "fuelConsumedMl": 507,
      "fuelConsumedGallons": 0.134,
      "maxSpeedMph": 61.8,
      "averageSpeedMph": 13.8,
      "safetyEvents": [],
      "_no_driver_login": false,
      "_fuel_note": ""
    },
    {
      "id": "trip_48291027_20250204_011",
      "vehicleId": "48291027",
      "driverId": "22831026",
      "startMs": 1738686060000,
      "endMs": 1738690145855,
      "startLocation": {
        "latitude": 40.744821,
        "longitude": -111.900062
      },
      "endLocation": {
        "latitude": 40.659037,
        "longitude": -111.847636
      },
      "startAddress": "29341 Bailey Vista Suite 051",
      "endAddress": "239 Catherine Plaza",
      "startCoords": {
        "latitude": 40.684387,
        "longitude": -111.83987
      },
      "endCoords": {
        "latitude": 40.663305,
        "longitude": -111.819698
      },
      "distanceMeters": 23796.1,
      "durationMs": 4085856,
      "drivingDurationMs": 3481565,
      "idlingDurationMs": 604291,
      "fuelConsumedMl": 1075,
      "fuelConsumedGallons": 0.284,
      "maxSpeedMph": 70.2,
      "averageSpeedMph": 13.0,
      "safetyEvents": [
        {
          "type": "speeding",
          "startMs": 1738687380000,
          "maxSpeedMph": 70.2
        }
      ],
      "_no_driver_login": false,
      "_fuel_note": ""
    },
    {
      "id": "trip_48291027_20250205_001",
      "vehicleId": "48291027",
      "driverId": null,
      "startMs": 1738746120000,
      "endMs": 1738750178573,
      "startLocation": {
        "latitude": 40.68575,
        "longitude": -111.804423
      },
      "endLocation": {
        "latitude": 40.73302,
        "longitude": -111.790267
      },
      "startAddress": "19789 Kemp Parkway",
      "endAddress": "212 Mitchell Run Suite 379",
      "startCoords": {
        "latitude": 40.78866,
        "longitude": -111.927969
      },
      "endCoords": {
        "latitude": 40.738599,
        "longitude": -111.893706
      },
      "distanceMeters": 22582.5,
      "durationMs": 4058573,
      "drivingDurationMs": 3376714,
      "idlingDurationMs": 681860,
      "fuelConsumedMl": 1022,
      "fuelConsumedGallons": 0.27,
      "maxSpeedMph": 32.6,
      "averageSpeedMph": 12.4,
      "safetyEvents": [],
      "_no_driver_login": true,
      "_fuel_note": "QUIRK 5: fuelConsumedGallons is in US gallons. Multiply by 3.785 for litres. Samsara does not link fuel to specific Onfleet tasks."
    },
    {
      "id": "trip_48291027_20250205_002",
      "vehicleId": "48291027",
      "driverId": "22831026",
      "startMs": 1738755840000,
      "endMs": 1738757525591,
      "startLocation": {
        "latitude": 40.775287,
        "longitude": -111.789752
      },
      "endLocation": {
        "latitude": 40.683538,
        "longitude": -111.88244
      },
      "startAddress": "059 Martinez Plain",
      "endAddress": "937 Jacqueline Manor",
      "startCoords": {
        "latitude": 40.729229,
        "longitude": -111.800694
      },
      "endCoords": {
        "latitude": 40.745861,
        "longitude": -111.839781
      },
      "distanceMeters": 10983.9,
      "durationMs": 1685591,
      "drivingDurationMs": 1420228,
      "idlingDurationMs": 265363,
      "fuelConsumedMl": 496,
      "fuelConsumedGallons": 0.131,
      "maxSpeedMph": 53.5,
      "averageSpeedMph": 14.6,
      "safetyEvents": [],
      "_no_driver_login": false,
      "_fuel_note": ""
    },
    {
      "id": "trip_48291027_20250205_003",
      "vehicleId": "48291027",
      "driverId": "22831026",
      "startMs": 1738754820000,
      "endMs": 1738756758942,
      "startLocation": {
        "latitude": 40.747874,
        "longitude": -111.840346
      },
      "endLocation": {
        "latitude": 40.692836,
        "longitude": -111.87966
      },
      "startAddress": "387 Robert Mountains Suite 891",
      "endAddress": "67553 Robin Spurs Suite 983",
      "startCoords": {
        "latitude": 40.765035,
        "longitude": -111.797269
      },
      "endCoords": {
        "latitude": 40.763367,
        "longitude": -111.784036
      },
      "distanceMeters": 15433.5,
      "durationMs": 1938942,
      "drivingDurationMs": 1634120,
      "idlingDurationMs": 304822,
      "fuelConsumedMl": 697,
      "fuelConsumedGallons": 0.184,
      "maxSpeedMph": 40.5,
      "averageSpeedMph": 17.8,
      "safetyEvents": [],
      "_no_driver_login": false,
      "_fuel_note": ""
    },
    {
      "id": "trip_48291027_20250205_004",
      "vehicleId": "48291027",
      "driverId": "22831026",
      "startMs": 1738763340000,
      "endMs": 1738765903708,
      "startLocation": {
        "latitude": 40.778878,
        "longitude": -111.91615
      },
      "endLocation": {
        "latitude": 40.793424,
        "longitude": -111.919638
      },
      "startAddress": "056 Smith Via",
      "endAddress": "727 Espinoza Squares",
      "startCoords": {
        "latitude": 40.686504,
        "longitude": -111.860895
      },
      "endCoords": {
        "latitude": 40.759314,
        "longitude": -111.911614
      },
      "distanceMeters": 21334.5,
      "durationMs": 2563708,
      "drivingDurationMs": 2067265,
      "idlingDurationMs": 496443,
      "fuelConsumedMl": 965,
      "fuelConsumedGallons": 0.255,
      "maxSpeedMph": 29.1,
      "averageSpeedMph": 18.6,
      "safetyEvents": [],
      "_no_driver_login": false,
      "_fuel_note": ""
    },
    {
      "id": "trip_48291027_20250205_005",
      "vehicleId": "48291027",
      "driverId": "22831026",
      "startMs": 1738767600000,
      "endMs": 1738769137417,
      "startLocation": {
        "latitude": 40.761369,
        "longitude": -111.789472
      },
      "endLocation": {
        "latitude": 40.728421,
        "longitude": -111.889789
      },
      "startAddress": "92976 Paul Island",
      "endAddress": "3450 Alexandra Ferry Suite 796",
      "startCoords": {
        "latitude": 40.686791,
        "longitude": -111.945056
      },
      "endCoords": {
        "latitude": 40.676433,
        "longitude": -111.960986
      },
      "distanceMeters": 12288.3,
      "durationMs": 1537418,
      "drivingDurationMs": 1274861,
      "idlingDurationMs": 262557,
      "fuelConsumedMl": 556,
      "fuelConsumedGallons": 0.147,
      "maxSpeedMph": 63.9,
      "averageSpeedMph": 17.9,
      "safetyEvents": [],
      "_no_driver_login": false,
      "_fuel_note": ""
    },
    {
      "id": "trip_48291027_20250205_006",
      "vehicleId": "48291027",
      "driverId": "22831026",
      "startMs": 1738752900000,
      "endMs": 1738755107140,
      "startLocation": {
        "latitude": 40.683732,
        "longitude": -111.949933
      },
      "endLocation": {
        "latitude": 40.673383,
        "longitude": -111.804046
      },
      "startAddress": "60781 Veronica Expressway Suite 757",
      "endAddress": "214 Sloan Canyon Suite 509",
      "startCoords": {
        "latitude": 40.788216,
        "longitude": -111.851903
      },
      "endCoords": {
        "latitude": 40.740726,
        "longitude": -111.875227
      },
      "distanceMeters": 19017.0,
      "durationMs": 2207140,
      "drivingDurationMs": 1977148,
      "idlingDurationMs": 229992,
      "fuelConsumedMl": 859,
      "fuelConsumedGallons": 0.227,
      "maxSpeedMph": 46.6,
      "averageSpeedMph": 19.3,
      "safetyEvents": [],
      "_no_driver_login": false,
      "_fuel_note": ""
    },
    {
      "id": "trip_48291027_20250205_007",
      "vehicleId": "48291027",
      "driverId": "22831026",
      "startMs": 1738748220000,
      "endMs": 1738750820533,
      "startLocation": {
        "latitude": 40.783701,
        "longitude": -111.831597
      },
      "endLocation": {
        "latitude": 40.734638,
        "longitude": -111.786102
      },
      "startAddress": "466 Jill Spur Suite 865",
      "endAddress": "638 Walter Forks",
      "startCoords": {
        "latitude": 40.735168,
        "longitude": -111.805241
      },
      "endCoords": {
        "latitude": 40.658547,
        "longitude": -111.831397
      },
      "distanceMeters": 17344.6,
      "durationMs": 2600534,
      "drivingDurationMs": 2210746,
      "idlingDurationMs": 389788,
      "fuelConsumedMl": 784,
      "fuelConsumedGallons": 0.207,
      "maxSpeedMph": 69.1,
      "averageSpeedMph": 14.9,
      "safetyEvents": [
        {
          "type": "speeding",
          "startMs": 1738749840000,
          "maxSpeedMph": 69.1
        }
      ],
      "_no_driver_login": false,
      "_fuel_note": ""
    },
    {
      "id": "trip_48291027_20250205_008",
      "vehicleId": "48291027",
      "driverId": "22831026",
      "startMs": 1738743660000,
      "endMs": 1738745415709,
      "startLocation": {
        "latitude": 40.68214,
        "longitude": -111.788273
      },
      "endLocation": {
        "latitude": 40.780176,
        "longitude": -111.908632
      },
      "startAddress": "38603 Franklin Rue",
      "endAddress": "3766 Paul Walks Suite 722",
      "startCoords": {
        "latitude": 40.70759,
        "longitude": -111.848477
      },
      "endCoords": {
        "latitude": 40.74986,
        "longitude": -111.884471
      },
      "distanceMeters": 15273.1,
      "durationMs": 1755710,
      "drivingDurationMs": 1496593,
      "idlingDurationMs": 259117,
      "fuelConsumedMl": 693,
      "fuelConsumedGallons": 0.183,
      "maxSpeedMph": 67.7,
      "averageSpeedMph": 19.5,
      "safetyEvents": [
        {
          "type": "speeding",
          "startMs": 1738744680000,
          "maxSpeedMph": 67.7
        }
      ],
      "_no_driver_login": false,
      "_fuel_note": ""
    },
    {
      "id": "trip_48291027_20250205_009",
      "vehicleId": "48291027",
      "driverId": "22831026",
      "startMs": 1738756560000,
      "endMs": 1738759309805,
      "startLocation": {
        "latitude": 40.783917,
        "longitude": -111.915041
      },
      "endLocation": {
        "latitude": 40.668397,
        "longitude": -111.830461
      },
      "startAddress": "0488 Grant Plaza Suite 624",
      "endAddress": "13404 Baker Keys",
      "startCoords": {
        "latitude": 40.692031,
        "longitude": -111.916862
      },
      "endCoords": {
        "latitude": 40.734116,
        "longitude": -111.814292
      },
      "distanceMeters": 24255.0,
      "durationMs": 2749805,
      "drivingDurationMs": 2301507,
      "idlingDurationMs": 448298,
      "fuelConsumedMl": 1098,
      "fuelConsumedGallons": 0.29,
      "maxSpeedMph": 37.4,
      "averageSpeedMph": 19.7,
      "safetyEvents": [],
      "_no_driver_login": false,
      "_fuel_note": ""
    },
    {
      "id": "trip_48291027_20250205_010",
      "vehicleId": "48291027",
      "driverId": "22831026",
      "startMs": 1738772340000,
      "endMs": 1738774394616,
      "startLocation": {
        "latitude": 40.691213,
        "longitude": -111.780699
      },
      "endLocation": {
        "latitude": 40.780161,
        "longitude": -111.858024
      },
      "startAddress": "7140 Kristina Viaduct Suite 372",
      "endAddress": "811 Barry Prairie",
      "startCoords": {
        "latitude": 40.679612,
        "longitude": -111.800285
      },
      "endCoords": {
        "latitude": 40.751321,
        "longitude": -111.794426
      },
      "distanceMeters": 10740.5,
      "durationMs": 2054616,
      "drivingDurationMs": 1722167,
      "idlingDurationMs": 332449,
      "fuelConsumedMl": 485,
      "fuelConsumedGallons": 0.128,
      "maxSpeedMph": 59.7,
      "averageSpeedMph": 11.7,
      "safetyEvents": [],
      "_no_driver_login": false,
      "_fuel_note": ""
    },
    {
      "id": "trip_48291027_20250205_011",
      "vehicleId": "48291027",
      "driverId": null,
      "startMs": 1738754520000,
      "endMs": 1738757052348,
      "startLocation": {
        "latitude": 40.673354,
        "longitude": -111.813689
      },
      "endLocation": {
        "latitude": 40.716211,
        "longitude": -111.917084
      },
      "startAddress": "0241 Ford Forge",
      "endAddress": "90826 Kimberly Plain Apt. 549",
      "startCoords": {
        "latitude": 40.676849,
        "longitude": -111.904637
      },
      "endCoords": {
        "latitude": 40.794639,
        "longitude": -111.88646
      },
      "distanceMeters": 17875.7,
      "durationMs": 2532348,
      "drivingDurationMs": 2219722,
      "idlingDurationMs": 312626,
      "fuelConsumedMl": 810,
      "fuelConsumedGallons": 0.214,
      "maxSpeedMph": 70.8,
      "averageSpeedMph": 15.8,
      "safetyEvents": [
        {
          "type": "speeding",
          "startMs": 1738755600000,
          "maxSpeedMph": 70.8
        }
      ],
      "_no_driver_login": true,
      "_fuel_note": ""
    },
    {
      "id": "trip_48291027_20250205_012",
      "vehicleId": "48291027",
      "driverId": "22831026",
      "startMs": 1738751880000,
      "endMs": 1738754175750,
      "startLocation": {
        "latitude": 40.70533,
        "longitude": -111.93045
      },
      "endLocation": {
        "latitude": 40.679353,
        "longitude": -111.904876
      },
      "startAddress": "62592 Joseph Plain",
      "endAddress": "04332 Avery Forest",
      "startCoords": {
        "latitude": 40.797502,
        "longitude": -111.836816
      },
      "endCoords": {
        "latitude": 40.667142,
        "longitude": -111.906877
      },
      "distanceMeters": 15815.8,
      "durationMs": 2295751,
      "drivingDurationMs": 1867471,
      "idlingDurationMs": 428279,
      "fuelConsumedMl": 715,
      "fuelConsumedGallons": 0.189,
      "maxSpeedMph": 54.1,
      "averageSpeedMph": 15.4,
      "safetyEvents": [],
      "_no_driver_login": false,
      "_fuel_note": ""
    },
    {
      "id": "trip_48291027_20250205_013",
      "vehicleId": "48291027",
      "driverId": "22831026",
      "startMs": 1738742640000,
      "endMs": 1738743621524,
      "startLocation": {
        "latitude": 40.760622,
        "longitude": -111.872487
      },
      "endLocation": {
        "latitude": 40.722213,
        "longitude": -111.952839
      },
      "startAddress": "968 Briggs Mountain",
      "endAddress": "548 Ashley Stravenue",
      "startCoords": {
        "latitude": 40.736118,
        "longitude": -111.957949
      },
      "endCoords": {
        "latitude": 40.709976,
        "longitude": -111.780977
      },
      "distanceMeters": 8383.3,
      "durationMs": 981525,
      "drivingDurationMs": 795239,
      "idlingDurationMs": 186286,
      "fuelConsumedMl": 379,
      "fuelConsumedGallons": 0.1,
      "maxSpeedMph": 46.3,
      "averageSpeedMph": 19.1,
      "safetyEvents": [],
      "_no_driver_login": false,
      "_fuel_note": ""
    },
    {
      "id": "trip_48291027_20250205_014",
      "vehicleId": "48291027",
      "driverId": "22831026",
      "startMs": 1738764120000,
      "endMs": 1738765260609,
      "startLocation": {
        "latitude": 40.68686,
        "longitude": -111.900775
      },
      "endLocation": {
        "latitude": 40.741297,
        "longitude": -111.864004
      },
      "startAddress": "6280 Elizabeth Trace",
      "endAddress": "51532 Ramirez Walk Suite 725",
      "startCoords": {
        "latitude": 40.75321,
        "longitude": -111.934946
      },
      "endCoords": {
        "latitude": 40.780948,
        "longitude": -111.858373
      },
      "distanceMeters": 7990.0,
      "durationMs": 1140609,
      "drivingDurationMs": 940796,
      "idlingDurationMs": 199813,
      "fuelConsumedMl": 360,
      "fuelConsumedGallons": 0.095,
      "maxSpeedMph": 34.7,
      "averageSpeedMph": 15.7,
      "safetyEvents": [],
      "_no_driver_login": false,
      "_fuel_note": ""
    },
    {
      "id": "trip_48291027_20250206_001",
      "vehicleId": "48291027",
      "driverId": "22831026",
      "startMs": 1738835700000,
      "endMs": 1738839560285,
      "startLocation": {
        "latitude": 40.657709,
        "longitude": -111.842263
      },
      "endLocation": {
        "latitude": 40.788504,
        "longitude": -111.93264
      },
      "startAddress": "2556 Schmidt Extension",
      "endAddress": "45888 Brittany Prairie",
      "startCoords": {
        "latitude": 40.688693,
        "longitude": -111.918261
      },
      "endCoords": {
        "latitude": 40.752546,
        "longitude": -111.952902
      },
      "distanceMeters": 23242.0,
      "durationMs": 3860285,
      "drivingDurationMs": 3221748,
      "idlingDurationMs": 638537,
      "fuelConsumedMl": 1052,
      "fuelConsumedGallons": 0.278,
      "maxSpeedMph": 44.0,
      "averageSpeedMph": 13.5,
      "safetyEvents": [],
      "_no_driver_login": false,
      "_fuel_note": "QUIRK 5: fuelConsumedGallons is in US gallons. Multiply by 3.785 for litres. Samsara does not link fuel to specific Onfleet tasks."
    },
    {
      "id": "trip_48291027_20250206_002",
      "vehicleId": "48291027",
      "driverId": "22831026",
      "startMs": 1738865040000,
      "endMs": 1738866802998,
      "startLocation": {
        "latitude": 40.784413,
        "longitude": -111.862613
      },
      "endLocation": {
        "latitude": 40.745941,
        "longitude": -111.935133
      },
      "startAddress": "6262 Smith Rest",
      "endAddress": "7024 Smith Harbor Suite 299",
      "startCoords": {
        "latitude": 40.730087,
        "longitude": -111.800187
      },
      "endCoords": {
        "latitude": 40.674833,
        "longitude": -111.954616
      },
      "distanceMeters": 15856.2,
      "durationMs": 1762998,
      "drivingDurationMs": 1548952,
      "idlingDurationMs": 214046,
      "fuelConsumedMl": 715,
      "fuelConsumedGallons": 0.189,
      "maxSpeedMph": 60.6,
      "averageSpeedMph": 20.1,
      "safetyEvents": [],
      "_no_driver_login": false,
      "_fuel_note": ""
    },
    {
      "id": "trip_48291027_20250206_003",
      "vehicleId": "48291027",
      "driverId": "22831026",
      "startMs": 1738840860000,
      "endMs": 1738841334774,
      "startLocation": {
        "latitude": 40.757428,
        "longitude": -111.892792
      },
      "endLocation": {
        "latitude": 40.744357,
        "longitude": -111.803462
      },
      "startAddress": "2374 Brian Extensions Suite 690",
      "endAddress": "0093 King Squares Suite 751",
      "startCoords": {
        "latitude": 40.710638,
        "longitude": -111.883656
      },
      "endCoords": {
        "latitude": 40.687163,
        "longitude": -111.934064
      },
      "distanceMeters": 2557.1,
      "durationMs": 474775,
      "drivingDurationMs": 332981,
      "idlingDurationMs": 141793,
      "fuelConsumedMl": 117,
      "fuelConsumedGallons": 0.031,
      "maxSpeedMph": 32.0,
      "averageSpeedMph": 12.0,
      "safetyEvents": [],
      "_no_driver_login": false,
      "_fuel_note": ""
    },
    {
      "id": "trip_48291027_20250206_004",
      "vehicleId": "48291027",
      "driverId": "22831026",
      "startMs": 1738846200000,
      "endMs": 1738848274593,
      "startLocation": {
        "latitude": 40.669868,
        "longitude": -111.916814
      },
      "endLocation": {
        "latitude": 40.658582,
        "longitude": -111.931969
      },
      "startAddress": "910 Kramer Garden",
      "endAddress": "500 Hanson Mission",
      "startCoords": {
        "latitude": 40.666189,
        "longitude": -111.917699
      },
      "endCoords": {
        "latitude": 40.795141,
        "longitude": -111.799879
      },
      "distanceMeters": 14129.0,
      "durationMs": 2074593,
      "drivingDurationMs": 1667609,
      "idlingDurationMs": 406984,
      "fuelConsumedMl": 640,
      "fuelConsumedGallons": 0.169,
      "maxSpeedMph": 52.7,
      "averageSpeedMph": 15.2,
      "safetyEvents": [],
      "_no_driver_login": false,
      "_fuel_note": ""
    },
    {
      "id": "trip_48291027_20250206_005",
      "vehicleId": "48291027",
      "driverId": "22831026",
      "startMs": 1738843680000,
      "endMs": 1738846609892,
      "startLocation": {
        "latitude": 40.778747,
        "longitude": -111.821127
      },
      "endLocation": {
        "latitude": 40.692727,
        "longitude": -111.961031
      },
      "startAddress": "01788 Harrison Brooks",
      "endAddress": "933 Raymond Neck Suite 415",
      "startCoords": {
        "latitude": 40.681578,
        "longitude": -111.79631
      },
      "endCoords": {
        "latitude": 40.658756,
        "longitude": -111.915337
      },
      "distanceMeters": 18847.7,
      "durationMs": 2929892,
      "drivingDurationMs": 2618826,
      "idlingDurationMs": 311066,
      "fuelConsumedMl": 852,
      "fuelConsumedGallons": 0.225,
      "maxSpeedMph": 37.7,
      "averageSpeedMph": 14.4,
      "safetyEvents": [],
      "_no_driver_login": false,
      "_fuel_note": ""
    },
    {
      "id": "trip_48291027_20250206_006",
      "vehicleId": "48291027",
      "driverId": null,
      "startMs": 1738824000000,
      "endMs": 1738827415741,
      "startLocation": {
        "latitude": 40.782902,
        "longitude": -111.874391
      },
      "endLocation": {
        "latitude": 40.759406,
        "longitude": -111.923357
      },
      "startAddress": "93066 Fox Islands Suite 709",
      "endAddress": "162 Davidson Shoals",
      "startCoords": {
        "latitude": 40.776418,
        "longitude": -111.855444
      },
      "endCoords": {
        "latitude": 40.709876,
        "longitude": -111.872552
      },
      "distanceMeters": 24547.9,
      "durationMs": 3415741,
      "drivingDurationMs": 3016458,
      "idlingDurationMs": 399283,
      "fuelConsumedMl": 1109,
      "fuelConsumedGallons": 0.293,
      "maxSpeedMph": 54.9,
      "averageSpeedMph": 16.1,
      "safetyEvents": [],
      "_no_driver_login": true,
      "_fuel_note": ""
    },
    {
      "id": "trip_48291027_20250206_007",
      "vehicleId": "48291027",
      "driverId": "22831026",
      "startMs": 1738863660000,
      "endMs": 1738865482766,
      "startLocation": {
        "latitude": 40.681309,
        "longitude": -111.8325
      },
      "endLocation": {
        "latitude": 40.675762,
        "longitude": -111.797634
      },
      "startAddress": "734 Gibson Skyway",
      "endAddress": "66084 Morris Street",
      "startCoords": {
        "latitude": 40.798267,
        "longitude": -111.941235
      },
      "endCoords": {
        "latitude": 40.736006,
        "longitude": -111.815611
      },
      "distanceMeters": 14878.9,
      "durationMs": 1822766,
      "drivingDurationMs": 1586250,
      "idlingDurationMs": 236516,
      "fuelConsumedMl": 674,
      "fuelConsumedGallons": 0.178,
      "maxSpeedMph": 65.5,
      "averageSpeedMph": 18.3,
      "safetyEvents": [
        {
          "type": "speeding",
          "startMs": 1738864320000,
          "maxSpeedMph": 65.5
        }
      ],
      "_no_driver_login": false,
      "_fuel_note": ""
    },
    {
      "id": "trip_48291027_20250206_008",
      "vehicleId": "48291027",
      "driverId": "22831026",
      "startMs": 1738861680000,
      "endMs": 1738863374127,
      "startLocation": {
        "latitude": 40.712711,
        "longitude": -111.849081
      },
      "endLocation": {
        "latitude": 40.792739,
        "longitude": -111.828524
      },
      "startAddress": "20546 Johnson Plain Suite 068",
      "endAddress": "857 Faulkner Turnpike",
      "startCoords": {
        "latitude": 40.719352,
        "longitude": -111.82802
      },
      "endCoords": {
        "latitude": 40.701587,
        "longitude": -111.900035
      },
      "distanceMeters": 10062.2,
      "durationMs": 1694127,
      "drivingDurationMs": 1485449,
      "idlingDurationMs": 208679,
      "fuelConsumedMl": 454,
      "fuelConsumedGallons": 0.12,
      "maxSpeedMph": 40.2,
      "averageSpeedMph": 13.3,
      "safetyEvents": [],
      "_no_driver_login": false,
      "_fuel_note": ""
    },
    {
      "id": "trip_48291027_20250206_009",
      "vehicleId": "48291027",
      "driverId": "22831026",
      "startMs": 1738824480000,
      "endMs": 1738826820034,
      "startLocation": {
        "latitude": 40.689598,
        "longitude": -111.881136
      },
      "endLocation": {
        "latitude": 40.755477,
        "longitude": -111.822806
      },
      "startAddress": "403 Jessica Mall Apt. 966",
      "endAddress": "363 Jennifer Orchard",
      "startCoords": {
        "latitude": 40.66866,
        "longitude": -111.927475
      },
      "endCoords": {
        "latitude": 40.659396,
        "longitude": -111.793696
      },
      "distanceMeters": 21228.8,
      "durationMs": 2340034,
      "drivingDurationMs": 2118549,
      "idlingDurationMs": 221486,
      "fuelConsumedMl": 961,
      "fuelConsumedGallons": 0.254,
      "maxSpeedMph": 28.2,
      "averageSpeedMph": 20.3,
      "safetyEvents": [],
      "_no_driver_login": false,
      "_fuel_note": ""
    },
    {
      "id": "trip_48291027_20250206_010",
      "vehicleId": "48291027",
      "driverId": "22831026",
      "startMs": 1738863240000,
      "endMs": 1738864412844,
      "startLocation": {
        "latitude": 40.721146,
        "longitude": -111.838004
      },
      "endLocation": {
        "latitude": 40.738719,
        "longitude": -111.875488
      },
      "startAddress": "50712 Erica Light Suite 732",
      "endAddress": "45901 Kayla Rapids Apt. 476",
      "startCoords": {
        "latitude": 40.800135,
        "longitude": -111.833563
      },
      "endCoords": {
        "latitude": 40.756012,
        "longitude": -111.869935
      },
      "distanceMeters": 7408.5,
      "durationMs": 1172844,
      "drivingDurationMs": 962637,
      "idlingDurationMs": 210208,
      "fuelConsumedMl": 337,
      "fuelConsumedGallons": 0.089,
      "maxSpeedMph": 42.0,
      "averageSpeedMph": 14.1,
      "safetyEvents": [],
      "_no_driver_login": false,
      "_fuel_note": ""
    },
    {
      "id": "trip_48291027_20250207_001",
      "vehicleId": "48291027",
      "driverId": "22831026",
      "startMs": 1738939860000,
      "endMs": 1738941477153,
      "startLocation": {
        "latitude": 40.669097,
        "longitude": -111.947753
      },
      "endLocation": {
        "latitude": 40.777027,
        "longitude": -111.779586
      },
      "startAddress": "63075 Carlos Park Apt. 988",
      "endAddress": "8632 Hess Mews Suite 628",
      "startCoords": {
        "latitude": 40.770253,
        "longitude": -111.877683
      },
      "endCoords": {
        "latitude": 40.736584,
        "longitude": -111.810444
      },
      "distanceMeters": 12462.9,
      "durationMs": 1617153,
      "drivingDurationMs": 1410967,
      "idlingDurationMs": 206187,
      "fuelConsumedMl": 564,
      "fuelConsumedGallons": 0.149,
      "maxSpeedMph": 42.5,
      "averageSpeedMph": 17.2,
      "safetyEvents": [],
      "_no_driver_login": false,
      "_fuel_note": "QUIRK 5: fuelConsumedGallons is in US gallons. Multiply by 3.785 for litres. Samsara does not link fuel to specific Onfleet tasks."
    },
    {
      "id": "trip_48291027_20250207_002",
      "vehicleId": "48291027",
      "driverId": "22831026",
      "startMs": 1738941780000,
      "endMs": 1738943340289,
      "startLocation": {
        "latitude": 40.670165,
        "longitude": -111.94964
      },
      "endLocation": {
        "latitude": 40.764902,
        "longitude": -111.944764
      },
      "startAddress": "46052 Alvarado Squares",
      "endAddress": "212 Lewis Cove",
      "startCoords": {
        "latitude": 40.673451,
        "longitude": -111.80166
      },
      "endCoords": {
        "latitude": 40.663772,
        "longitude": -111.786822
      },
      "distanceMeters": 14083.2,
      "durationMs": 1560290,
      "drivingDurationMs": 1358240,
      "idlingDurationMs": 202050,
      "fuelConsumedMl": 636,
      "fuelConsumedGallons": 0.168,
      "maxSpeedMph": 36.9,
      "averageSpeedMph": 20.2,
      "safetyEvents": [],
      "_no_driver_login": false,
      "_fuel_note": ""
    },
    {
      "id": "trip_48291027_20250207_003",
      "vehicleId": "48291027",
      "driverId": "22831026",
      "startMs": 1738920000000,
      "endMs": 1738923683185,
      "startLocation": {
        "latitude": 40.761794,
        "longitude": -111.879596
      },
      "endLocation": {
        "latitude": 40.759883,
        "longitude": -111.880266
      },
      "startAddress": "796 Hill Knolls",
      "endAddress": "055 Jensen Forks Suite 314",
      "startCoords": {
        "latitude": 40.779362,
        "longitude": -111.896392
      },
      "endCoords": {
        "latitude": 40.746747,
        "longitude": -111.901483
      },
      "distanceMeters": 19956.0,
      "durationMs": 3683186,
      "drivingDurationMs": 3191289,
      "idlingDurationMs": 491897,
      "fuelConsumedMl": 901,
      "fuelConsumedGallons": 0.238,
      "maxSpeedMph": 52.5,
      "averageSpeedMph": 12.1,
      "safetyEvents": [],
      "_no_driver_login": false,
      "_fuel_note": ""
    },
    {
      "id": "trip_48291027_20250207_004",
      "vehicleId": "48291027",
      "driverId": "22831026",
      "startMs": 1738933260000,
      "endMs": 1738936942705,
      "startLocation": {
        "latitude": 40.684374,
        "longitude": -111.851181
      },
      "endLocation": {
        "latitude": 40.716298,
        "longitude": -111.883398
      },
      "startAddress": "73467 Brandt Pine",
      "endAddress": "591 Gray Rest",
      "startCoords": {
        "latitude": 40.72043,
        "longitude": -111.800859
      },
      "endCoords": {
        "latitude": 40.690224,
        "longitude": -111.778628
      },
      "distanceMeters": 23575.9,
      "durationMs": 3682705,
      "drivingDurationMs": 3140401,
      "idlingDurationMs": 542304,
      "fuelConsumedMl": 1067,
      "fuelConsumedGallons": 0.282,
      "maxSpeedMph": 61.5,
      "averageSpeedMph": 14.3,
      "safetyEvents": [],
      "_no_driver_login": false,
      "_fuel_note": ""
    },
    {
      "id": "trip_48291027_20250207_005",
      "vehicleId": "48291027",
      "driverId": "22831026",
      "startMs": 1738951860000,
      "endMs": 1738954537551,
      "startLocation": {
        "latitude": 40.777488,
        "longitude": -111.839242
      },
      "endLocation": {
        "latitude": 40.794355,
        "longitude": -111.779438
      },
      "startAddress": "18676 Stacey Road Suite 225",
      "endAddress": "6996 White Orchard",
      "startCoords": {
        "latitude": 40.687543,
        "longitude": -111.885665
      },
      "endCoords": {
        "latitude": 40.781643,
        "longitude": -111.942691
      },
      "distanceMeters": 16169.2,
      "durationMs": 2677551,
      "drivingDurationMs": 2164245,
      "idlingDurationMs": 513306,
      "fuelConsumedMl": 731,
      "fuelConsumedGallons": 0.193,
      "maxSpeedMph": 45.7,
      "averageSpeedMph": 13.5,
      "safetyEvents": [],
      "_no_driver_login": false,
      "_fuel_note": ""
    },
    {
      "id": "trip_48291027_20250207_006",
      "vehicleId": "48291027",
      "driverId": "22831026",
      "startMs": 1738916880000,
      "endMs": 1738918233680,
      "startLocation": {
        "latitude": 40.658495,
        "longitude": -111.798915
      },
      "endLocation": {
        "latitude": 40.789558,
        "longitude": -111.845283
      },
      "startAddress": "334 Mullen Junction Suite 299",
      "endAddress": "065 Dawson Ranch",
      "startCoords": {
        "latitude": 40.788193,
        "longitude": -111.870387
      },
      "endCoords": {
        "latitude": 40.788933,
        "longitude": -111.89556
      },
      "distanceMeters": 7210.4,
      "durationMs": 1353681,
      "drivingDurationMs": 1151866,
      "idlingDurationMs": 201815,
      "fuelConsumedMl": 326,
      "fuelConsumedGallons": 0.086,
      "maxSpeedMph": 31.9,
      "averageSpeedMph": 11.9,
      "safetyEvents": [],
      "_no_driver_login": false,
      "_fuel_note": ""
    },
    {
      "id": "trip_48291027_20250207_007",
      "vehicleId": "48291027",
      "driverId": "22831026",
      "startMs": 1738934040000,
      "endMs": 1738934830084,
      "startLocation": {
        "latitude": 40.66745,
        "longitude": -111.935121
      },
      "endLocation": {
        "latitude": 40.718602,
        "longitude": -111.914506
      },
      "startAddress": "72567 Smith Row",
      "endAddress": "62857 Shannon Keys Apt. 433",
      "startCoords": {
        "latitude": 40.793243,
        "longitude": -111.922481
      },
      "endCoords": {
        "latitude": 40.69741,
        "longitude": -111.813905
      },
      "distanceMeters": 5005.2,
      "durationMs": 790085,
      "drivingDurationMs": 628414,
      "idlingDurationMs": 161671,
      "fuelConsumedMl": 227,
      "fuelConsumedGallons": 0.06,
      "maxSpeedMph": 54.9,
      "averageSpeedMph": 14.2,
      "safetyEvents": [],
      "_no_driver_login": false,
      "_fuel_note": ""
    },
    {
      "id": "trip_48291027_20250207_008",
      "vehicleId": "48291027",
      "driverId": "22831026",
      "startMs": 1738933380000,
      "endMs": 1738935988537,
      "startLocation": {
        "latitude": 40.69151,
        "longitude": -111.787338
      },
      "endLocation": {
        "latitude": 40.713948,
        "longitude": -111.780981
      },
      "startAddress": "3956 Mary Field",
      "endAddress": "59155 Richard Estates",
      "startCoords": {
        "latitude": 40.690161,
        "longitude": -111.921362
      },
      "endCoords": {
        "latitude": 40.691085,
        "longitude": -111.959239
      },
      "distanceMeters": 21861.5,
      "durationMs": 2608538,
      "drivingDurationMs": 2364792,
      "idlingDurationMs": 243745,
      "fuelConsumedMl": 988,
      "fuelConsumedGallons": 0.261,
      "maxSpeedMph": 39.6,
      "averageSpeedMph": 18.7,
      "safetyEvents": [],
      "_no_driver_login": false,
      "_fuel_note": ""
    },
    {
      "id": "trip_48291027_20250207_009",
      "vehicleId": "48291027",
      "driverId": "22831026",
      "startMs": 1738951020000,
      "endMs": 1738954676469,
      "startLocation": {
        "latitude": 40.699643,
        "longitude": -111.927341
      },
      "endLocation": {
        "latitude": 40.673454,
        "longitude": -111.848949
      },
      "startAddress": "21695 Alexander Flats",
      "endAddress": "78739 Sheri Parks Suite 288",
      "startCoords": {
        "latitude": 40.711849,
        "longitude": -111.931857
      },
      "endCoords": {
        "latitude": 40.772125,
        "longitude": -111.818804
      },
      "distanceMeters": 20633.5,
      "durationMs": 3656469,
      "drivingDurationMs": 3029025,
      "idlingDurationMs": 627444,
      "fuelConsumedMl": 935,
      "fuelConsumedGallons": 0.247,
      "maxSpeedMph": 68.0,
      "averageSpeedMph": 12.6,
      "safetyEvents": [
        {
          "type": "speeding",
          "startMs": 1738953300000,
          "maxSpeedMph": 68.0
        }
      ],
      "_no_driver_login": false,
      "_fuel_note": ""
    },
    {
      "id": "trip_48291027_20250207_010",
      "vehicleId": "48291027",
      "driverId": "22831026",
      "startMs": 1738927980000,
      "endMs": 1738929347905,
      "startLocation": {
        "latitude": 40.762616,
        "longitude": -111.841771
      },
      "endLocation": {
        "latitude": 40.761324,
        "longitude": -111.865697
      },
      "startAddress": "228 Nancy Stravenue Apt. 197",
      "endAddress": "6294 Melanie Park Suite 228",
      "startCoords": {
        "latitude": 40.715217,
        "longitude": -111.899226
      },
      "endCoords": {
        "latitude": 40.777097,
        "longitude": -111.928753
      },
      "distanceMeters": 10491.7,
      "durationMs": 1367906,
      "drivingDurationMs": 1162716,
      "idlingDurationMs": 205190,
      "fuelConsumedMl": 473,
      "fuelConsumedGallons": 0.125,
      "maxSpeedMph": 61.6,
      "averageSpeedMph": 17.2,
      "safetyEvents": [],
      "_no_driver_login": false,
      "_fuel_note": ""
    },
    {
      "id": "trip_48291027_20250208_001",
      "vehicleId": "48291027",
      "driverId": "22831026",
      "startMs": 1739020020000,
      "endMs": 1739020801429,
      "startLocation": {
        "latitude": 40.773711,
        "longitude": -111.910844
      },
      "endLocation": {
        "latitude": 40.702039,
        "longitude": -111.922202
      },
      "startAddress": "149 Kristen Garden Suite 934",
      "endAddress": "4151 Robin Heights Apt. 794",
      "startCoords": {
        "latitude": 40.695301,
        "longitude": -111.944465
      },
      "endCoords": {
        "latitude": 40.660641,
        "longitude": -111.921434
      },
      "distanceMeters": 6313.7,
      "durationMs": 781430,
      "drivingDurationMs": 617807,
      "idlingDurationMs": 163623,
      "fuelConsumedMl": 284,
      "fuelConsumedGallons": 0.075,
      "maxSpeedMph": 49.1,
      "averageSpeedMph": 18.1,
      "safetyEvents": [],
      "_no_driver_login": false,
      "_fuel_note": "QUIRK 5: fuelConsumedGallons is in US gallons. Multiply by 3.785 for litres. Samsara does not link fuel to specific Onfleet tasks."
    },
    {
      "id": "trip_48291027_20250208_002",
      "vehicleId": "48291027",
      "driverId": "22831026",
      "startMs": 1739018940000,
      "endMs": 1739022034486,
      "startLocation": {
        "latitude": 40.799884,
        "longitude": -111.832553
      },
      "endLocation": {
        "latitude": 40.752137,
        "longitude": -111.817778
      },
      "startAddress": "3320 Teresa Crossing Apt. 437",
      "endAddress": "7165 Stanley Mills Apt. 335",
      "startCoords": {
        "latitude": 40.766538,
        "longitude": -111.913951
      },
      "endCoords": {
        "latitude": 40.75631,
        "longitude": -111.949588
      },
      "distanceMeters": 21397.6,
      "durationMs": 3094486,
      "drivingDurationMs": 2511575,
      "idlingDurationMs": 582911,
      "fuelConsumedMl": 969,
      "fuelConsumedGallons": 0.256,
      "maxSpeedMph": 71.1,
      "averageSpeedMph": 15.5,
      "safetyEvents": [
        {
          "type": "speeding",
          "startMs": 1739020440000,
          "maxSpeedMph": 71.1
        }
      ],
      "_no_driver_login": false,
      "_fuel_note": ""
    },
    {
      "id": "trip_48291027_20250208_003",
      "vehicleId": "48291027",
      "driverId": "22831026",
      "startMs": 1739031840000,
      "endMs": 1739032765652,
      "startLocation": {
        "latitude": 40.692105,
        "longitude": -111.789313
      },
      "endLocation": {
        "latitude": 40.78041,
        "longitude": -111.932008
      },
      "startAddress": "4307 Robert Cliffs Suite 027",
      "endAddress": "46575 Wiggins Station",
      "startCoords": {
        "latitude": 40.76871,
        "longitude": -111.875962
      },
      "endCoords": {
        "latitude": 40.671198,
        "longitude": -111.86492
      },
      "distanceMeters": 6956.2,
      "durationMs": 925653,
      "drivingDurationMs": 744623,
      "idlingDurationMs": 181029,
      "fuelConsumedMl": 314,
      "fuelConsumedGallons": 0.083,
      "maxSpeedMph": 50.0,
      "averageSpeedMph": 16.8,
      "safetyEvents": [],
      "_no_driver_login": false,
      "_fuel_note": ""
    },
    {
      "id": "trip_48291027_20250208_004",
      "vehicleId": "48291027",
      "driverId": "22831026",
      "startMs": 1739022960000,
      "endMs": 1739025943248,
      "startLocation": {
        "latitude": 40.704896,
        "longitude": -111.813798
      },
      "endLocation": {
        "latitude": 40.685155,
        "longitude": -111.78559
      },
      "startAddress": "82655 Carrie Motorway",
      "endAddress": "1921 Chris Roads Suite 301",
      "startCoords": {
        "latitude": 40.792323,
        "longitude": -111.812402
      },
      "endCoords": {
        "latitude": 40.74391,
        "longitude": -111.889066
      },
      "distanceMeters": 19332.4,
      "durationMs": 2983248,
      "drivingDurationMs": 2481747,
      "idlingDurationMs": 501501,
      "fuelConsumedMl": 874,
      "fuelConsumedGallons": 0.231,
      "maxSpeedMph": 35.7,
      "averageSpeedMph": 14.5,
      "safetyEvents": [],
      "_no_driver_login": false,
      "_fuel_note": ""
    },
    {
      "id": "trip_48291027_20250208_005",
      "vehicleId": "48291027",
      "driverId": "22831026",
      "startMs": 1738998600000,
      "endMs": 1738999412916,
      "startLocation": {
        "latitude": 40.67397,
        "longitude": -111.811953
      },
      "endLocation": {
        "latitude": 40.732352,
        "longitude": -111.952949
      },
      "startAddress": "23510 Flores Branch Suite 045",
      "endAddress": "128 Breanna Rapids Apt. 858",
      "startCoords": {
        "latitude": 40.747901,
        "longitude": -111.833139
      },
      "endCoords": {
        "latitude": 40.721999,
        "longitude": -111.944983
      },
      "distanceMeters": 6383.1,
      "durationMs": 812917,
      "drivingDurationMs": 648567,
      "idlingDurationMs": 164350,
      "fuelConsumedMl": 288,
      "fuelConsumedGallons": 0.076,
      "maxSpeedMph": 49.4,
      "averageSpeedMph": 17.6,
      "safetyEvents": [],
      "_no_driver_login": false,
      "_fuel_note": ""
    },
    {
      "id": "trip_48291027_20250208_006",
      "vehicleId": "48291027",
      "driverId": "22831026",
      "startMs": 1738998540000,
      "endMs": 1739001483582,
      "startLocation": {
        "latitude": 40.677346,
        "longitude": -111.878762
      },
      "endLocation": {
        "latitude": 40.691512,
        "longitude": -111.95833
      },
      "startAddress": "48348 Carroll Branch",
      "endAddress": "50359 Haynes Alley",
      "startCoords": {
        "latitude": 40.692638,
        "longitude": -111.941134
      },
      "endCoords": {
        "latitude": 40.795927,
        "longitude": -111.939873
      },
      "distanceMeters": 21576.9,
      "durationMs": 2943583,
      "drivingDurationMs": 2632640,
      "idlingDurationMs": 310942,
      "fuelConsumedMl": 977,
      "fuelConsumedGallons": 0.258,
      "maxSpeedMph": 43.1,
      "averageSpeedMph": 16.4,
      "safetyEvents": [],
      "_no_driver_login": false,
      "_fuel_note": ""
    },
    {
      "id": "trip_48291027_20250208_007",
      "vehicleId": "48291027",
      "driverId": "22831026",
      "startMs": 1739004240000,
      "endMs": 1739005754906,
      "startLocation": {
        "latitude": 40.760547,
        "longitude": -111.881285
      },
      "endLocation": {
        "latitude": 40.669324,
        "longitude": -111.804812
      },
      "startAddress": "58449 Castro Inlet Suite 811",
      "endAddress": "074 Miller Groves Suite 666",
      "startCoords": {
        "latitude": 40.658305,
        "longitude": -111.831429
      },
      "endCoords": {
        "latitude": 40.717699,
        "longitude": -111.883909
      },
      "distanceMeters": 8456.3,
      "durationMs": 1514906,
      "drivingDurationMs": 1293711,
      "idlingDurationMs": 221195,
      "fuelConsumedMl": 382,
      "fuelConsumedGallons": 0.101,
      "maxSpeedMph": 45.7,
      "averageSpeedMph": 12.5,
      "safetyEvents": [],
      "_no_driver_login": false,
      "_fuel_note": ""
    },
    {
      "id": "trip_48291027_20250208_008",
      "vehicleId": "48291027",
      "driverId": "22831026",
      "startMs": 1739001480000,
      "endMs": 1739004238990,
      "startLocation": {
        "latitude": 40.771884,
        "longitude": -111.904262
      },
      "endLocation": {
        "latitude": 40.767799,
        "longitude": -111.944188
      },
      "startAddress": "010 Meyer Point",
      "endAddress": "25456 Andrea Pines",
      "startCoords": {
        "latitude": 40.78238,
        "longitude": -111.847847
      },
      "endCoords": {
        "latitude": 40.678628,
        "longitude": -111.809871
      },
      "distanceMeters": 18655.2,
      "durationMs": 2758991,
      "drivingDurationMs": 2520750,
      "idlingDurationMs": 238241,
      "fuelConsumedMl": 844,
      "fuelConsumedGallons": 0.223,
      "maxSpeedMph": 50.7,
      "averageSpeedMph": 15.1,
      "safetyEvents": [],
      "_no_driver_login": false,
      "_fuel_note": ""
    },
    {
      "id": "trip_48291027_20250208_009",
      "vehicleId": "48291027",
      "driverId": "22831026",
      "startMs": 1739013840000,
      "endMs": 1739015644902,
      "startLocation": {
        "latitude": 40.733698,
        "longitude": -111.875851
      },
      "endLocation": {
        "latitude": 40.741578,
        "longitude": -111.94662
      },
      "startAddress": "5701 Roberson Turnpike Apt. 554",
      "endAddress": "301 Matthew Junction",
      "startCoords": {
        "latitude": 40.685515,
        "longitude": -111.843093
      },
      "endCoords": {
        "latitude": 40.748161,
        "longitude": -111.886615
      },
      "distanceMeters": 10541.4,
      "durationMs": 1804902,
      "drivingDurationMs": 1607243,
      "idlingDurationMs": 197660,
      "fuelConsumedMl": 477,
      "fuelConsumedGallons": 0.126,
      "maxSpeedMph": 64.0,
      "averageSpeedMph": 13.1,
      "safetyEvents": [],
      "_no_driver_login": false,
      "_fuel_note": ""
    },
    {
      "id": "trip_48291027_20250208_010",
      "vehicleId": "48291027",
      "driverId": "22831026",
      "startMs": 1739025840000,
      "endMs": 1739027332525,
      "startLocation": {
        "latitude": 40.778876,
        "longitude": -111.845982
      },
      "endLocation": {
        "latitude": 40.685173,
        "longitude": -111.893965
      },
      "startAddress": "975 Holloway Views Suite 844",
      "endAddress": "07949 Franco Locks Suite 215",
      "startCoords": {
        "latitude": 40.71987,
        "longitude": -111.873012
      },
      "endCoords": {
        "latitude": 40.783855,
        "longitude": -111.948562
      },
      "distanceMeters": 11136.8,
      "durationMs": 1492525,
      "drivingDurationMs": 1216094,
      "idlingDurationMs": 276431,
      "fuelConsumedMl": 503,
      "fuelConsumedGallons": 0.133,
      "maxSpeedMph": 36.2,
      "averageSpeedMph": 16.7,
      "safetyEvents": [],
      "_no_driver_login": false,
      "_fuel_note": ""
    },
    {
      "id": "trip_48291027_20250208_011",
      "vehicleId": "48291027",
      "driverId": "22831026",
      "startMs": 1739009280000,
      "endMs": 1739010773955,
      "startLocation": {
        "latitude": 40.695231,
        "longitude": -111.882943
      },
      "endLocation": {
        "latitude": 40.753995,
        "longitude": -111.848536
      },
      "startAddress": "221 Phillips Rue Suite 784",
      "endAddress": "25402 Isabella Cliff Suite 852",
      "startCoords": {
        "latitude": 40.693611,
        "longitude": -111.896306
      },
      "endCoords": {
        "latitude": 40.750853,
        "longitude": -111.889163
      },
      "distanceMeters": 12699.3,
      "durationMs": 1493956,
      "drivingDurationMs": 1282843,
      "idlingDurationMs": 211112,
      "fuelConsumedMl": 575,
      "fuelConsumedGallons": 0.152,
      "maxSpeedMph": 49.1,
      "averageSpeedMph": 19.0,
      "safetyEvents": [],
      "_no_driver_login": false,
      "_fuel_note": ""
    },
    {
      "id": "trip_48291027_20250208_012",
      "vehicleId": "48291027",
      "driverId": "22831026",
      "startMs": 1739001300000,
      "endMs": 1739001847100,
      "startLocation": {
        "latitude": 40.759736,
        "longitude": -111.795877
      },
      "endLocation": {
        "latitude": 40.711381,
        "longitude": -111.91755
      },
      "startAddress": "422 Conway Run",
      "endAddress": "823 Lindsey Mountains Apt. 753",
      "startCoords": {
        "latitude": 40.666859,
        "longitude": -111.89905
      },
      "endCoords": {
        "latitude": 40.703742,
        "longitude": -111.93786
      },
      "distanceMeters": 2650.7,
      "durationMs": 547100,
      "drivingDurationMs": 409464,
      "idlingDurationMs": 137636,
      "fuelConsumedMl": 121,
      "fuelConsumedGallons": 0.032,
      "maxSpeedMph": 29.3,
      "averageSpeedMph": 10.8,
      "safetyEvents": [],
      "_no_driver_login": false,
      "_fuel_note": ""
    },
    {
      "id": "trip_48291027_20250208_013",
      "vehicleId": "48291027",
      "driverId": "22831026",
      "startMs": 1739038680000,
      "endMs": 1739039716325,
      "startLocation": {
        "latitude": 40.679689,
        "longitude": -111.849477
      },
      "endLocation": {
        "latitude": 40.673093,
        "longitude": -111.899357
      },
      "startAddress": "6181 Rachel Shores",
      "endAddress": "7783 Martin Stream Apt. 365",
      "startCoords": {
        "latitude": 40.778599,
        "longitude": -111.8814
      },
      "endCoords": {
        "latitude": 40.779627,
        "longitude": -111.96097
      },
      "distanceMeters": 5808.6,
      "durationMs": 1036325,
      "drivingDurationMs": 839196,
      "idlingDurationMs": 197129,
      "fuelConsumedMl": 261,
      "fuelConsumedGallons": 0.069,
      "maxSpeedMph": 65.1,
      "averageSpeedMph": 12.5,
      "safetyEvents": [
        {
          "type": "speeding",
          "startMs": 1739039580000,
          "maxSpeedMph": 65.1
        }
      ],
      "_no_driver_login": false,
      "_fuel_note": ""
    },
    {
      "id": "trip_48291027_20250210_001",
      "vehicleId": "48291027",
      "driverId": "22831026",
      "startMs": 1739185200000,
      "endMs": 1739186710657,
      "startLocation": {
        "latitude": 40.676984,
        "longitude": -111.952686
      },
      "endLocation": {
        "latitude": 40.699424,
        "longitude": -111.851852
      },
      "startAddress": "82889 Thomas Squares",
      "endAddress": "12553 Padilla Cove",
      "startCoords": {
        "latitude": 40.798185,
        "longitude": -111.834075
      },
      "endCoords": {
        "latitude": 40.789206,
        "longitude": -111.913583
      },
      "distanceMeters": 7829.5,
      "durationMs": 1510658,
      "drivingDurationMs": 1242924,
      "idlingDurationMs": 267734,
      "fuelConsumedMl": 356,
      "fuelConsumedGallons": 0.094,
      "maxSpeedMph": 66.5,
      "averageSpeedMph": 11.6,
      "safetyEvents": [
        {
          "type": "speeding",
          "startMs": 1739185560000,
          "maxSpeedMph": 66.5
        }
      ],
      "_no_driver_login": false,
      "_fuel_note": "QUIRK 5: fuelConsumedGallons is in US gallons. Multiply by 3.785 for litres. Samsara does not link fuel to specific Onfleet tasks."
    },
    {
      "id": "trip_48291027_20250210_002",
      "vehicleId": "48291027",
      "driverId": "22831026",
      "startMs": 1739210400000,
      "endMs": 1739211742451,
      "startLocation": {
        "latitude": 40.711492,
        "longitude": -111.874767
      },
      "endLocation": {
        "latitude": 40.664911,
        "longitude": -111.920115
      },
      "startAddress": "8816 Margaret Alley Apt. 400",
      "endAddress": "69032 Lori Ville Apt. 170",
      "startCoords": {
        "latitude": 40.705375,
        "longitude": -111.793312
      },
      "endCoords": {
        "latitude": 40.683463,
        "longitude": -111.936776
      },
      "distanceMeters": 10043.6,
      "durationMs": 1342451,
      "drivingDurationMs": 1117579,
      "idlingDurationMs": 224872,
      "fuelConsumedMl": 454,
      "fuelConsumedGallons": 0.12,
      "maxSpeedMph": 65.9,
      "averageSpeedMph": 16.7,
      "safetyEvents": [
        {
          "type": "speeding",
          "startMs": 1739210640000,
          "maxSpeedMph": 65.9
        }
      ],
      "_no_driver_login": false,
      "_fuel_note": ""
    },
    {
      "id": "trip_48291027_20250210_003",
      "vehicleId": "48291027",
      "driverId": "22831026",
      "startMs": 1739187060000,
      "endMs": 1739191251374,
      "startLocation": {
        "latitude": 40.656922,
        "longitude": -111.943255
      },
      "endLocation": {
        "latitude": 40.675623,
        "longitude": -111.9441
      },
      "startAddress": "274 Paul View",
      "endAddress": "524 Ball Hills Suite 808",
      "startCoords": {
        "latitude": 40.774969,
        "longitude": -111.923562
      },
      "endCoords": {
        "latitude": 40.689758,
        "longitude": -111.846823
      },
      "distanceMeters": 22602.4,
      "durationMs": 4191374,
      "drivingDurationMs": 3584259,
      "idlingDurationMs": 607115,
      "fuelConsumedMl": 1022,
      "fuelConsumedGallons": 0.27,
      "maxSpeedMph": 39.3,
      "averageSpeedMph": 12.1,
      "safetyEvents": [],
      "_no_driver_login": false,
      "_fuel_note": ""
    },
    {
      "id": "trip_48291027_20250210_004",
      "vehicleId": "48291027",
      "driverId": "22831026",
      "startMs": 1739167560000,
      "endMs": 1739169782349,
      "startLocation": {
        "latitude": 40.693696,
        "longitude": -111.896153
      },
      "endLocation": {
        "latitude": 40.754938,
        "longitude": -111.878076
      },
      "startAddress": "18078 Andersen Parkways Suite 521",
      "endAddress": "718 Brewer Shoal Apt. 372",
      "startCoords": {
        "latitude": 40.752563,
        "longitude": -111.797032
      },
      "endCoords": {
        "latitude": 40.685543,
        "longitude": -111.830852
      },
      "distanceMeters": 12048.4,
      "durationMs": 2222349,
      "drivingDurationMs": 1831104,
      "idlingDurationMs": 391245,
      "fuelConsumedMl": 545,
      "fuelConsumedGallons": 0.144,
      "maxSpeedMph": 41.1,
      "averageSpeedMph": 12.1,
      "safetyEvents": [],
      "_no_driver_login": false,
      "_fuel_note": ""
    },
    {
      "id": "trip_48291027_20250210_005",
      "vehicleId": "48291027",
      "driverId": "22831026",
      "startMs": 1739181180000,
      "endMs": 1739184739105,
      "startLocation": {
        "latitude": 40.799834,
        "longitude": -111.813672
      },
      "endLocation": {
        "latitude": 40.664408,
        "longitude": -111.820159
      },
      "startAddress": "0401 Rodney Tunnel Apt. 650",
      "endAddress": "6724 Walker Stravenue",
      "startCoords": {
        "latitude": 40.662924,
        "longitude": -111.908584
      },
      "endCoords": {
        "latitude": 40.709469,
        "longitude": -111.937419
      },
      "distanceMeters": 23216.9,
      "durationMs": 3559105,
      "drivingDurationMs": 2963004,
      "idlingDurationMs": 596102,
      "fuelConsumedMl": 1049,
      "fuelConsumedGallons": 0.277,
      "maxSpeedMph": 54.6,
      "averageSpeedMph": 14.6,
      "safetyEvents": [],
      "_no_driver_login": false,
      "_fuel_note": ""
    },
    {
      "id": "trip_48291027_20250210_006",
      "vehicleId": "48291027",
      "driverId": "22831026",
      "startMs": 1739183700000,
      "endMs": 1739184452222,
      "startLocation": {
        "latitude": 40.698122,
        "longitude": -111.843477
      },
      "endLocation": {
        "latitude": 40.710093,
        "longitude": -111.798015
      },
      "startAddress": "0104 Joshua Plaza",
      "endAddress": "7299 Moore Mount Suite 578",
      "startCoords": {
        "latitude": 40.756428,
        "longitude": -111.878649
      },
      "endCoords": {
        "latitude": 40.784886,
        "longitude": -111.950843
      },
      "distanceMeters": 5787.0,
      "durationMs": 752223,
      "drivingDurationMs": 590491,
      "idlingDurationMs": 161732,
      "fuelConsumedMl": 261,
      "fuelConsumedGallons": 0.069,
      "maxSpeedMph": 56.7,
      "averageSpeedMph": 17.2,
      "safetyEvents": [],
      "_no_driver_login": false,
      "_fuel_note": ""
    },
    {
      "id": "trip_48291027_20250210_007",
      "vehicleId": "48291027",
      "driverId": "22831026",
      "startMs": 1739167620000,
      "endMs": 1739170155974,
      "startLocation": {
        "latitude": 40.762696,
        "longitude": -111.848407
      },
      "endLocation": {
        "latitude": 40.769572,
        "longitude": -111.813847
      },
      "startAddress": "4143 Mendez Plain",
      "endAddress": "2147 Melissa Course Apt. 215",
      "startCoords": {
        "latitude": 40.723683,
        "longitude": -111.949604
      },
      "endCoords": {
        "latitude": 40.743631,
        "longitude": -111.870168
      },
      "distanceMeters": 18697.4,
      "durationMs": 2535974,
      "drivingDurationMs": 2066312,
      "idlingDurationMs": 469663,
      "fuelConsumedMl": 844,
      "fuelConsumedGallons": 0.223,
      "maxSpeedMph": 32.2,
      "averageSpeedMph": 16.5,
      "safetyEvents": [],
      "_no_driver_login": false,
      "_fuel_note": ""
    },
    {
      "id": "trip_48291027_20250210_008",
      "vehicleId": "48291027",
      "driverId": "22831026",
      "startMs": 1739191080000,
      "endMs": 1739193085650,
      "startLocation": {
        "latitude": 40.657253,
        "longitude": -111.886104
      },
      "endLocation": {
        "latitude": 40.698825,
        "longitude": -111.861175
      },
      "startAddress": "7251 Curtis Valleys",
      "endAddress": "38650 James Highway",
      "startCoords": {
        "latitude": 40.717149,
        "longitude": -111.828921
      },
      "endCoords": {
        "latitude": 40.678933,
        "longitude": -111.957663
      },
      "distanceMeters": 11583.4,
      "durationMs": 2005650,
      "drivingDurationMs": 1653286,
      "idlingDurationMs": 352365,
      "fuelConsumedMl": 522,
      "fuelConsumedGallons": 0.138,
      "maxSpeedMph": 40.5,
      "averageSpeedMph": 12.9,
      "safetyEvents": [],
      "_no_driver_login": false,
      "_fuel_note": ""
    },
    {
      "id": "trip_48291027_20250210_009",
      "vehicleId": "48291027",
      "driverId": "22831026",
      "startMs": 1739212140000,
      "endMs": 1739215252764,
      "startLocation": {
        "latitude": 40.671569,
        "longitude": -111.954893
      },
      "endLocation": {
        "latitude": 40.67566,
        "longitude": -111.787879
      },
      "startAddress": "63639 Bennett Greens Apt. 342",
      "endAddress": "591 Christine Tunnel Suite 098",
      "startCoords": {
        "latitude": 40.695953,
        "longitude": -111.957143
      },
      "endCoords": {
        "latitude": 40.759235,
        "longitude": -111.799657
      },
      "distanceMeters": 24905.5,
      "durationMs": 3112764,
      "drivingDurationMs": 2490484,
      "idlingDurationMs": 622280,
      "fuelConsumedMl": 1128,
      "fuelConsumedGallons": 0.298,
      "maxSpeedMph": 59.0,
      "averageSpeedMph": 17.9,
      "safetyEvents": [],
      "_no_driver_login": false,
      "_fuel_note": ""
    },
    {
      "id": "trip_48291027_20250210_010",
      "vehicleId": "48291027",
      "driverId": "22831026",
      "startMs": 1739212680000,
      "endMs": 1739213308098,
      "startLocation": {
        "latitude": 40.698461,
        "longitude": -111.947053
      },
      "endLocation": {
        "latitude": 40.742814,
        "longitude": -111.795689
      },
      "startAddress": "06197 Jessica Extensions Apt. 004",
      "endAddress": "04003 Robert Unions Suite 541",
      "startCoords": {
        "latitude": 40.798512,
        "longitude": -111.860078
      },
      "endCoords": {
        "latitude": 40.792426,
        "longitude": -111.776427
      },
      "distanceMeters": 4144.2,
      "durationMs": 628098,
      "drivingDurationMs": 477007,
      "idlingDurationMs": 151091,
      "fuelConsumedMl": 189,
      "fuelConsumedGallons": 0.05,
      "maxSpeedMph": 69.8,
      "averageSpeedMph": 14.8,
      "safetyEvents": [
        {
          "type": "speeding",
          "startMs": 1739212800000,
          "maxSpeedMph": 69.8
        }
      ],
      "_no_driver_login": false,
      "_fuel_note": ""
    },
    {
      "id": "trip_48291027_20250210_011",
      "vehicleId": "48291027",
      "driverId": "22831026",
      "startMs": 1739191560000,
      "endMs": 1739193949683,
      "startLocation": {
        "latitude": 40.769937,
        "longitude": -111.928793
      },
      "endLocation": {
        "latitude": 40.693631,
        "longitude": -111.918097
      },
      "startAddress": "144 Felicia Lodge Apt. 557",
      "endAddress": "3801 Snyder Roads Suite 219",
      "startCoords": {
        "latitude": 40.736698,
        "longitude": -111.865085
      },
      "endCoords": {
        "latitude": 40.703766,
        "longitude": -111.893537
      },
      "distanceMeters": 19695.7,
      "durationMs": 2389683,
      "drivingDurationMs": 1913026,
      "idlingDurationMs": 476657,
      "fuelConsumedMl": 890,
      "fuelConsumedGallons": 0.235,
      "maxSpeedMph": 49.1,
      "averageSpeedMph": 18.4,
      "safetyEvents": [],
      "_no_driver_login": false,
      "_fuel_note": ""
    },
    {
      "id": "trip_48291027_20250210_012",
      "vehicleId": "48291027",
      "driverId": "22831026",
      "startMs": 1739176920000,
      "endMs": 1739178528096,
      "startLocation": {
        "latitude": 40.743348,
        "longitude": -111.885544
      },
      "endLocation": {
        "latitude": 40.76555,
        "longitude": -111.945054
      },
      "startAddress": "39068 Calderon Villages",
      "endAddress": "5276 Spence Shoal",
      "startCoords": {
        "latitude": 40.706185,
        "longitude": -111.926937
      },
      "endCoords": {
        "latitude": 40.723272,
        "longitude": -111.869054
      },
      "distanceMeters": 11219.8,
      "durationMs": 1608097,
      "drivingDurationMs": 1373133,
      "idlingDurationMs": 234963,
      "fuelConsumedMl": 507,
      "fuelConsumedGallons": 0.134,
      "maxSpeedMph": 52.7,
      "averageSpeedMph": 15.6,
      "safetyEvents": [],
      "_no_driver_login": false,
      "_fuel_note": ""
    },
    {
      "id": "trip_48291027_20250210_013",
      "vehicleId": "48291027",
      "driverId": "22831026",
      "startMs": 1739209800000,
      "endMs": 1739213625144,
      "startLocation": {
        "latitude": 40.737476,
        "longitude": -111.959071
      },
      "endLocation": {
        "latitude": 40.69758,
        "longitude": -111.891599
      },
      "startAddress": "5314 Andre Glen Suite 205",
      "endAddress": "6105 Donna Squares",
      "startCoords": {
        "latitude": 40.676309,
        "longitude": -111.857923
      },
      "endCoords": {
        "latitude": 40.746392,
        "longitude": -111.908894
      },
      "distanceMeters": 19561.8,
      "durationMs": 3825144,
      "drivingDurationMs": 3082047,
      "idlingDurationMs": 743097,
      "fuelConsumedMl": 886,
      "fuelConsumedGallons": 0.234,
      "maxSpeedMph": 39.0,
      "averageSpeedMph": 11.4,
      "safetyEvents": [],
      "_no_driver_login": false,
      "_fuel_note": ""
    },
    {
      "id": "trip_48291027_20250211_001",
      "vehicleId": "48291027",
      "driverId": "22831026",
      "startMs": 1739293860000,
      "endMs": 1739297478696,
      "startLocation": {
        "latitude": 40.702101,
        "longitude": -111.821554
      },
      "endLocation": {
        "latitude": 40.711714,
        "longitude": -111.873376
      },
      "startAddress": "063 Shaw Way",
      "endAddress": "55506 Garcia Ports",
      "startCoords": {
        "latitude": 40.780061,
        "longitude": -111.831158
      },
      "endCoords": {
        "latitude": 40.715954,
        "longitude": -111.789174
      },
      "distanceMeters": 20775.8,
      "durationMs": 3618696,
      "drivingDurationMs": 3184129,
      "idlingDurationMs": 434567,
      "fuelConsumedMl": 939,
      "fuelConsumedGallons": 0.248,
      "maxSpeedMph": 70.8,
      "averageSpeedMph": 12.8,
      "safetyEvents": [
        {
          "type": "speeding",
          "startMs": 1739295420000,
          "maxSpeedMph": 70.8
        }
      ],
      "_no_driver_login": false,
      "_fuel_note": "QUIRK 5: fuelConsumedGallons is in US gallons. Multiply by 3.785 for litres. Samsara does not link fuel to specific Onfleet tasks."
    },
    {
      "id": "trip_48291027_20250211_002",
      "vehicleId": "48291027",
      "driverId": "22831026",
      "startMs": 1739258820000,
      "endMs": 1739260131706,
      "startLocation": {
        "latitude": 40.678881,
        "longitude": -111.925029
      },
      "endLocation": {
        "latitude": 40.699023,
        "longitude": -111.954583
      },
      "startAddress": "01160 Evans Tunnel",
      "endAddress": "87373 Johnson Cliff Apt. 326",
      "startCoords": {
        "latitude": 40.751745,
        "longitude": -111.949233
      },
      "endCoords": {
        "latitude": 40.744749,
        "longitude": -111.95489
      },
      "distanceMeters": 6655.7,
      "durationMs": 1311706,
      "drivingDurationMs": 1049418,
      "idlingDurationMs": 262288,
      "fuelConsumedMl": 303,
      "fuelConsumedGallons": 0.08,
      "maxSpeedMph": 34.5,
      "averageSpeedMph": 11.4,
      "safetyEvents": [],
      "_no_driver_login": false,
      "_fuel_note": ""
    },
    {
      "id": "trip_48291027_20250211_003",
      "vehicleId": "48291027",
      "driverId": null,
      "startMs": 1739297160000,
      "endMs": 1739300027717,
      "startLocation": {
        "latitude": 40.701764,
        "longitude": -111.875772
      },
      "endLocation": {
        "latitude": 40.782169,
        "longitude": -111.949764
      },
      "startAddress": "5979 Mary Walk",
      "endAddress": "4949 White Field",
      "startCoords": {
        "latitude": 40.667186,
        "longitude": -111.780681
      },
      "endCoords": {
        "latitude": 40.688867,
        "longitude": -111.785935
      },
      "distanceMeters": 17801.1,
      "durationMs": 2867717,
      "drivingDurationMs": 2460846,
      "idlingDurationMs": 406872,
      "fuelConsumedMl": 806,
      "fuelConsumedGallons": 0.213,
      "maxSpeedMph": 37.6,
      "averageSpeedMph": 13.9,
      "safetyEvents": [],
      "_no_driver_login": true,
      "_fuel_note": ""
    },