{
  "vehicleId": "48291022",
  "vehicleName": "SAL-CAR-01",
  "month": "2025_02",
  "pagination": {
    "endCursor": "trip_48291022_20250228_005",
    "hasNextPage": false
  },
  "trips": [
    {
      "id": "trip_48291022_20250201_001",
      "vehicleId": "48291022",
      "driverId": "22831021",
      "startMs": 1738417740000,
      "endMs": 1738429228964,
      "startLocation": {
        "latitude": 40.736404,
        "longitude": -111.830607
      },
      "endLocation": {
        "latitude": 40.658333,
        "longitude": -111.893454
      },
      "startAddress": "5611 Zachary Squares",
      "endAddress": "406 Robert Oval",
      "startCoords": {
        "latitude": 40.74949,
        "longitude": -111.857265
      },
      "endCoords": {
        "latitude": 40.703158,
        "longitude": -111.961434
      },
      "distanceMeters": 59765.9,
      "durationMs": 11488965,
      "drivingDurationMs": 9979152,
      "idlingDurationMs": 1509813,
      "fuelConsumedMl": 7597,
      "fuelConsumedGallons": 2.007,
      "maxSpeedMph": 66.9,
      "averageSpeedMph": 11.6,
      "safetyEvents": [
        {
          "type": "speeding",
          "startMs": 1738418940000,
          "maxSpeedMph": 66.9
        }
      ],
      "_no_driver_login": false,
      "_fuel_note": "QUIRK 5: fuelConsumedGallons is in US gallons. Multiply by 3.785 for litres. Samsara does not link fuel to specific Onfleet tasks."
    },
    {
      "id": "trip_48291022_20250201_002",
      "vehicleId": "48291022",
      "driverId": "22831021",
      "startMs": 1738425960000,
      "endMs": 1738433483178,
      "startLocation": {
        "latitude": 40.717249,
        "longitude": -111.958353
      },
      "endLocation": {
        "latitude": 40.777715,
        "longitude": -111.870658
      },
      "startAddress": "174 Morris Loop Apt. 595",
      "endAddress": "9625 Fisher Lane Apt. 049",
      "startCoords": {
        "latitude": 40.704084,
        "longitude": -111.85597
      },
      "endCoords": {
        "latitude": 40.666128,
        "longitude": -111.942969
      },
      "distanceMeters": 47731.4,
      "durationMs": 7523178,
      "drivingDurationMs": 6028714,
      "idlingDurationMs": 1494464,
      "fuelConsumedMl": 6068,
      "fuelConsumedGallons": 1.603,
      "maxSpeedMph": 34.6,
      "averageSpeedMph": 14.2,
      "safetyEvents": [],
      "_no_driver_login": false,
      "_fuel_note": ""
    },
    {
      "id": "trip_48291022_20250201_003",
      "vehicleId": "48291022",
      "driverId": "22831021",
      "startMs": 1738416180000,
      "endMs": 1738425788120,
      "startLocation": {
        "latitude": 40.663542,
        "longitude": -111.868313
      },
      "endLocation": {
        "latitude": 40.705587,
        "longitude": -111.843087
      },
      "startAddress": "618 Jeremy Drive Apt. 530",
      "endAddress": "9085 Berry Course Suite 800",
      "startCoords": {
        "latitude": 40.743224,
        "longitude": -111.793313
      },
      "endCoords": {
        "latitude": 40.793104,
        "longitude": -111.804397
      },
      "distanceMeters": 51306.3,
      "durationMs": 9608120,
      "drivingDurationMs": 9199535,
      "idlingDurationMs": 408585,
      "fuelConsumedMl": 6522,
      "fuelConsumedGallons": 1.723,
      "maxSpeedMph": 68.2,
      "averageSpeedMph": 11.9,
      "safetyEvents": [
        {
          "type": "speeding",
          "startMs": 1738422540000,
          "maxSpeedMph": 68.2
        }
      ],
      "_no_driver_login": false,
      "_fuel_note": ""
    },
    {
      "id": "trip_48291022_20250201_004",
      "vehicleId": "48291022",
      "driverId": "22831021",
      "startMs": 1738412340000,
      "endMs": 1738429276560,
      "startLocation": {
        "latitude": 40.757664,
        "longitude": -111.933284
      },
      "endLocation": {
        "latitude": 40.769239,
        "longitude": -111.807509
      },
      "startAddress": "24887 Phillips Lights",
      "endAddress": "32988 James Meadow",
      "startCoords": {
        "latitude": 40.779245,
        "longitude": -111.892323
      },
      "endCoords": {
        "latitude": 40.775671,
        "longitude": -111.793444
      },
      "distanceMeters": 77988.4,
      "durationMs": 16936561,
      "drivingDurationMs": 15153258,
      "idlingDurationMs": 1783303,
      "fuelConsumedMl": 9914,
      "fuelConsumedGallons": 2.619,
      "maxSpeedMph": 29.4,
      "averageSpeedMph": 10.3,
      "safetyEvents": [],
      "_no_driver_login": false,
      "_fuel_note": ""
    },
    {
      "id": "trip_48291022_20250202_001",
      "vehicleId": "48291022",
      "driverId": "22831021",
      "startMs": 1738480260000,
      "endMs": 1738481487816,
      "startLocation": {
        "latitude": 40.729434,
        "longitude": -111.822221
      },
      "endLocation": {
        "latitude": 40.7007,
        "longitude": -111.80873
      },
      "startAddress": "31071 Foster Flat Apt. 902",
      "endAddress": "4830 White Via Apt. 739",
      "startCoords": {
        "latitude": 40.703683,
        "longitude": -111.780067
      },
      "endCoords": {
        "latitude": 40.76053,
        "longitude": -111.826293
      },
      "distanceMeters": 6072.2,
      "durationMs": 1227816,
      "drivingDurationMs": 998172,
      "idlingDurationMs": 229644,
      "fuelConsumedMl": 772,
      "fuelConsumedGallons": 0.204,
      "maxSpeedMph": 59.3,
      "averageSpeedMph": 11.1,
      "safetyEvents": [],
      "_no_driver_login": false,
      "_fuel_note": "QUIRK 5: fuelConsumedGallons is in US gallons. Multiply by 3.785 for litres. Samsara does not link fuel to specific Onfleet tasks."
    },
    {
      "id": "trip_48291022_20250202_002",
      "vehicleId": "48291022",
      "driverId": null,
      "startMs": 1738520640000,
      "endMs": 1738527860485,
      "startLocation": {
        "latitude": 40.721166,
        "longitude": -111.84609
      },
      "endLocation": {
        "latitude": 40.670118,
        "longitude": -111.875545
      },
      "startAddress": "230 Zamora Circles",
      "endAddress": "9241 Tracy Vista Apt. 848",
      "startCoords": {
        "latitude": 40.785202,
        "longitude": -111.899438
      },
      "endCoords": {
        "latitude": 40.719079,
        "longitude": -111.844113
      },
      "distanceMeters": 54551.2,
      "durationMs": 7220485,
      "drivingDurationMs": 6659227,
      "idlingDurationMs": 561258,
      "fuelConsumedMl": 6935,
      "fuelConsumedGallons": 1.832,
      "maxSpeedMph": 62.1,
      "averageSpeedMph": 16.9,
      "safetyEvents": [],
      "_no_driver_login": true,
      "_fuel_note": ""
    },
    {
      "id": "trip_48291022_20250202_003",
      "vehicleId": "48291022",
      "driverId": "22831021",
      "startMs": 1738494240000,
      "endMs": 1738497254893,
      "startLocation": {
        "latitude": 40.706584,
        "longitude": -111.825883
      },
      "endLocation": {
        "latitude": 40.717402,
        "longitude": -111.785773
      },
      "startAddress": "817 Cuevas Overpass Apt. 452",
      "endAddress": "03193 Dawson Via Apt. 581",
      "startCoords": {
        "latitude": 40.733723,
        "longitude": -111.794808
      },
      "endCoords": {
        "latitude": 40.705664,
        "longitude": -111.949332
      },
      "distanceMeters": 18164.7,
      "durationMs": 3014893,
      "drivingDurationMs": 2815262,
      "idlingDurationMs": 199631,
      "fuelConsumedMl": 2309,
      "fuelConsumedGallons": 0.61,
      "maxSpeedMph": 50.4,
      "averageSpeedMph": 13.5,
      "safetyEvents": [],
      "_no_driver_login": false,
      "_fuel_note": ""
    },
    {
      "id": "trip_48291022_20250203_001",
      "vehicleId": "48291022",
      "driverId": "22831021",
      "startMs": 1738580460000,
      "endMs": 1738587774542,
      "startLocation": {
        "latitude": 40.685411,
        "longitude": -111.86593
      },
      "endLocation": {
        "latitude": 40.713878,
        "longitude": -111.90755
      },
      "startAddress": "1221 Bell Fort Suite 309",
      "endAddress": "8541 April Mountains Apt. 305",
      "startCoords": {
        "latitude": 40.765956,
        "longitude": -111.958463
      },
      "endCoords": {
        "latitude": 40.67175,
        "longitude": -111.820044
      },
      "distanceMeters": 33909.0,
      "durationMs": 7314543,
      "drivingDurationMs": 6642591,
      "idlingDurationMs": 671952,
      "fuelConsumedMl": 4312,
      "fuelConsumedGallons": 1.139,
      "maxSpeedMph": 61.6,
      "averageSpeedMph": 10.4,
      "safetyEvents": [],
      "_no_driver_login": false,
      "_fuel_note": "QUIRK 5: fuelConsumedGallons is in US gallons. Multiply by 3.785 for litres. Samsara does not link fuel to specific Onfleet tasks."
    },
    {
      "id": "trip_48291022_20250203_002",
      "vehicleId": "48291022",
      "driverId": "22831021",
      "startMs": 1738570200000,
      "endMs": 1738578894700,
      "startLocation": {
        "latitude": 40.747161,
        "longitude": -111.959164
      },
      "endLocation": {
        "latitude": 40.714432,
        "longitude": -111.895994
      },
      "startAddress": "338 Julie Street",
      "endAddress": "49403 Deanna Harbors",
      "startCoords": {
        "latitude": 40.699465,
        "longitude": -111.910514
      },
      "endCoords": {
        "latitude": 40.767,
        "longitude": -111.79713
      },
      "distanceMeters": 57473.6,
      "durationMs": 8694701,
      "drivingDurationMs": 8068646,
      "idlingDurationMs": 626055,
      "fuelConsumedMl": 7306,
      "fuelConsumedGallons": 1.93,
      "maxSpeedMph": 64.3,
      "averageSpeedMph": 14.8,
      "safetyEvents": [],
      "_no_driver_login": false,
      "_fuel_note": ""
    },
    {
      "id": "trip_48291022_20250204_001",
      "vehicleId": "48291022",
      "driverId": "22831021",
      "startMs": 1738651620000,
      "endMs": 1738656893502,
      "startLocation": {
        "latitude": 40.74259,
        "longitude": -111.893975
      },
      "endLocation": {
        "latitude": 40.688182,
        "longitude": -111.8718
      },
      "startAddress": "1604 Paul Island Apt. 283",
      "endAddress": "7023 Lawrence Squares",
      "startCoords": {
        "latitude": 40.676374,
        "longitude": -111.946785
      },
      "endCoords": {
        "latitude": 40.77661,
        "longitude": -111.861535
      },
      "distanceMeters": 32114.3,
      "durationMs": 5273502,
      "drivingDurationMs": 4234719,
      "idlingDurationMs": 1038783,
      "fuelConsumedMl": 4084,
      "fuelConsumedGallons": 1.079,
      "maxSpeedMph": 63.5,
      "averageSpeedMph": 13.6,
      "safetyEvents": [],
      "_no_driver_login": false,
      "_fuel_note": "QUIRK 5: fuelConsumedGallons is in US gallons. Multiply by 3.785 for litres. Samsara does not link fuel to specific Onfleet tasks."
    },
    {
      "id": "trip_48291022_20250204_002",
      "vehicleId": "48291022",
      "driverId": "22831021",
      "startMs": 1738692780000,
      "endMs": 1738701015753,
      "startLocation": {
        "latitude": 40.729148,
        "longitude": -111.872802
      },
      "endLocation": {
        "latitude": 40.673574,
        "longitude": -111.892571
      },
      "startAddress": "85991 Owens Port",
      "endAddress": "5629 Timothy Crossing Apt. 131",
      "startCoords": {
        "latitude": 40.687119,
        "longitude": -111.7973
      },
      "endCoords": {
        "latitude": 40.661527,
        "longitude": -111.800231
      },
      "distanceMeters": 51065.7,
      "durationMs": 8235754,
      "drivingDurationMs": 7561468,
      "idlingDurationMs": 674285,
      "fuelConsumedMl": 6492,
      "fuelConsumedGallons": 1.715,
      "maxSpeedMph": 52.0,
      "averageSpeedMph": 13.9,
      "safetyEvents": [],
      "_no_driver_login": false,
      "_fuel_note": ""
    },
    {
      "id": "trip_48291022_20250204_003",
      "vehicleId": "48291022",
      "driverId": "22831021",
      "startMs": 1738660500000,
      "endMs": 1738668582513,
      "startLocation": {
        "latitude": 40.705054,
        "longitude": -111.933661
      },
      "endLocation": {
        "latitude": 40.799191,
        "longitude": -111.899546
      },
      "startAddress": "8042 Hall Valley Apt. 421",
      "endAddress": "48339 Mejia Court",
      "startCoords": {
        "latitude": 40.776113,
        "longitude": -111.784732
      },
      "endCoords": {
        "latitude": 40.775816,
        "longitude": -111.924228
      },
      "distanceMeters": 50076.7,
      "durationMs": 8082514,
      "drivingDurationMs": 6905454,
      "idlingDurationMs": 1177059,
      "fuelConsumedMl": 6367,
      "fuelConsumedGallons": 1.682,
      "maxSpeedMph": 62.1,
      "averageSpeedMph": 13.9,
      "safetyEvents": [],
      "_no_driver_login": false,
      "_fuel_note": ""
    },
    {
      "id": "trip_48291022_20250205_001",
      "vehicleId": "48291022",
      "driverId": "22831021",
      "startMs": 1738774980000,
      "endMs": 1738778002221,
      "startLocation": {
        "latitude": 40.798781,
        "longitude": -111.799013
      },
      "endLocation": {
        "latitude": 40.775466,
        "longitude": -111.830609
      },
      "startAddress": "203 Hayden Flats",
      "endAddress": "42877 Ayala Village Apt. 630",
      "startCoords": {
        "latitude": 40.727872,
        "longitude": -111.915284
      },
      "endCoords": {
        "latitude": 40.66983,
        "longitude": -111.924324
      },
      "distanceMeters": 22103.2,
      "durationMs": 3022222,
      "drivingDurationMs": 2536337,
      "idlingDurationMs": 485885,
      "fuelConsumedMl": 2809,
      "fuelConsumedGallons": 0.742,
      "maxSpeedMph": 30.2,
      "averageSpeedMph": 16.4,
      "safetyEvents": [],
      "_no_driver_login": false,
      "_fuel_note": "QUIRK 5: fuelConsumedGallons is in US gallons. Multiply by 3.785 for litres. Samsara does not link fuel to specific Onfleet tasks."
    },
    {
      "id": "trip_48291022_20250205_002",
      "vehicleId": "48291022",
      "driverId": "22831021",
      "startMs": 1738764120000,
      "endMs": 1738771658359,
      "startLocation": {
        "latitude": 40.783248,
        "longitude": -111.873227
      },
      "endLocation": {
        "latitude": 40.679774,
        "longitude": -111.786028
      },
      "startAddress": "73995 Goodman Street",
      "endAddress": "1210 Ryan Cove Suite 876",
      "startCoords": {
        "latitude": 40.710951,
        "longitude": -111.9464
      },
      "endCoords": {
        "latitude": 40.755652,
        "longitude": -111.792103
      },
      "distanceMeters": 52843.7,
      "durationMs": 7538360,
      "drivingDurationMs": 6070435,
      "idlingDurationMs": 1467925,
      "fuelConsumedMl": 6719,
      "fuelConsumedGallons": 1.775,
      "maxSpeedMph": 58.4,
      "averageSpeedMph": 15.7,
      "safetyEvents": [],
      "_no_driver_login": false,
      "_fuel_note": ""
    },
    {
      "id": "trip_48291022_20250205_003",
      "vehicleId": "48291022",
      "driverId": "22831021",
      "startMs": 1738749840000,
      "endMs": 1738753578360,
      "startLocation": {
        "latitude": 40.693955,
        "longitude": -111.837668
      },
      "endLocation": {
        "latitude": 40.685028,
        "longitude": -111.783538
      },
      "startAddress": "73918 Dean Viaduct Suite 689",
      "endAddress": "9954 Carol Crossing Suite 043",
      "startCoords": {
        "latitude": 40.776675,
        "longitude": -111.824243
      },
      "endCoords": {
        "latitude": 40.668193,
        "longitude": -111.825594
      },
      "distanceMeters": 25245.3,
      "durationMs": 3738361,
      "drivingDurationMs": 3270442,
      "idlingDurationMs": 467919,
      "fuelConsumedMl": 3210,
      "fuelConsumedGallons": 0.848,
      "maxSpeedMph": 41.4,
      "averageSpeedMph": 15.1,
      "safetyEvents": [],
      "_no_driver_login": false,
      "_fuel_note": ""
    },
    {
      "id": "trip_48291022_20250205_004",
      "vehicleId": "48291022",
      "driverId": "22831021",
      "startMs": 1738735560000,
      "endMs": 1738743800995,
      "startLocation": {
        "latitude": 40.7457,
        "longitude": -111.91623
      },
      "endLocation": {
        "latitude": 40.687365,
        "longitude": -111.85666
      },
      "startAddress": "5826 Salinas Pines",
      "endAddress": "4351 Brown Crest",
      "startCoords": {
        "latitude": 40.701597,
        "longitude": -111.787562
      },
      "endCoords": {
        "latitude": 40.66767,
        "longitude": -111.874143
      },
      "distanceMeters": 52970.6,
      "durationMs": 8240995,
      "drivingDurationMs": 7542906,
      "idlingDurationMs": 698089,
      "fuelConsumedMl": 6734,
      "fuelConsumedGallons": 1.779,
      "maxSpeedMph": 52.7,
      "averageSpeedMph": 14.4,
      "safetyEvents": [],
      "_no_driver_login": false,
      "_fuel_note": ""
    },
    {
      "id": "trip_48291022_20250206_001",
      "vehicleId": "48291022",
      "driverId": "22831021",
      "startMs": 1738829580000,
      "endMs": 1738830501086,
      "startLocation": {
        "latitude": 40.775707,
        "longitude": -111.839119
      },
      "endLocation": {
        "latitude": 40.732733,
        "longitude": -111.946719
      },
      "startAddress": "7404 Keith Haven Apt. 134",
      "endAddress": "551 Dawn Extension Apt. 000",
      "startCoords": {
        "latitude": 40.768205,
        "longitude": -111.96007
      },
      "endCoords": {
        "latitude": 40.769755,
        "longitude": -111.931888
      },
      "distanceMeters": 5403.2,
      "durationMs": 921087,
      "drivingDurationMs": 738946,
      "idlingDurationMs": 182140,
      "fuelConsumedMl": 685,
      "fuelConsumedGallons": 0.181,
      "maxSpeedMph": 49.9,
      "averageSpeedMph": 13.1,
      "safetyEvents": [],
      "_no_driver_login": false,
      "_fuel_note": "QUIRK 5: fuelConsumedGallons is in US gallons. Multiply by 3.785 for litres. Samsara does not link fuel to specific Onfleet tasks."
    },
    {
      "id": "trip_48291022_20250206_002",
      "vehicleId": "48291022",
      "driverId": "22831021",
      "startMs": 1738865460000,
      "endMs": 1738870837932,
      "startLocation": {
        "latitude": 40.77202,
        "longitude": -111.924164
      },
      "endLocation": {
        "latitude": 40.771654,
        "longitude": -111.854437
      },
      "startAddress": "74407 Simon Curve",
      "endAddress": "6517 Owens Row",
      "startCoords": {
        "latitude": 40.716605,
        "longitude": -111.876839
      },
      "endCoords": {
        "latitude": 40.742341,
        "longitude": -111.928616
      },
      "distanceMeters": 25580.3,
      "durationMs": 5377933,
      "drivingDurationMs": 4634992,
      "idlingDurationMs": 742941,
      "fuelConsumedMl": 3252,
      "fuelConsumedGallons": 0.859,
      "maxSpeedMph": 59.4,
      "averageSpeedMph": 10.6,
      "safetyEvents": [],
      "_no_driver_login": false,
      "_fuel_note": ""
    },
    {
      "id": "trip_48291022_20250206_003",
      "vehicleId": "48291022",
      "driverId": "22831021",
      "startMs": 1738858440000,
      "endMs": 1738865884179,
      "startLocation": {
        "latitude": 40.715934,
        "longitude": -111.86713
      },
      "endLocation": {
        "latitude": 40.686817,
        "longitude": -111.814611
      },
      "startAddress": "5197 Allen Estates Apt. 528",
      "endAddress": "51330 Michael Isle",
      "startCoords": {
        "latitude": 40.782022,
        "longitude": -111.811277
      },
      "endCoords": {
        "latitude": 40.696778,
        "longitude": -111.953724
      },
      "distanceMeters": 57258.6,
      "durationMs": 7444180,
      "drivingDurationMs": 6978329,
      "idlingDurationMs": 465851,
      "fuelConsumedMl": 7279,
      "fuelConsumedGallons": 1.923,
      "maxSpeedMph": 42.7,
      "averageSpeedMph": 17.2,
      "safetyEvents": [],
      "_no_driver_login": false,
      "_fuel_note": ""
    },
    {
      "id": "trip_48291022_20250206_004",
      "vehicleId": "48291022",
      "driverId": "22831021",
      "startMs": 1738847040000,
      "endMs": 1738856861060,
      "startLocation": {
        "latitude": 40.714804,
        "longitude": -111.949911
      },
      "endLocation": {
        "latitude": 40.75673,
        "longitude": -111.824609
      },
      "startAddress": "641 Scott Fields",
      "endAddress": "6880 Donna Ridges",
      "startCoords": {
        "latitude": 40.699727,
        "longitude": -111.804588
      },
      "endCoords": {
        "latitude": 40.735901,
        "longitude": -111.846218
      },
      "distanceMeters": 69599.8,
      "durationMs": 9821060,
      "drivingDurationMs": 8483754,
      "idlingDurationMs": 1337307,
      "fuelConsumedMl": 8850,
      "fuelConsumedGallons": 2.338,
      "maxSpeedMph": 59.7,
      "averageSpeedMph": 15.9,
      "safetyEvents": [],
      "_no_driver_login": false,
      "_fuel_note": ""
    },
    {
      "id": "trip_48291022_20250206_005",
      "vehicleId": "48291022",
      "driverId": "22831021",
      "startMs": 1738855800000,
      "endMs": 1738859986446,
      "startLocation": {
        "latitude": 40.720842,
        "longitude": -111.957498
      },
      "endLocation": {
        "latitude": 40.791116,
        "longitude": -111.852039
      },
      "startAddress": "290 Wood Mission",
      "endAddress": "76915 Hudson Corner",
      "startCoords": {
        "latitude": 40.797506,
        "longitude": -111.846562
      },
      "endCoords": {
        "latitude": 40.798056,
        "longitude": -111.791207
      },
      "distanceMeters": 28990.4,
      "durationMs": 4186446,
      "drivingDurationMs": 3408831,
      "idlingDurationMs": 777615,
      "fuelConsumedMl": 3687,
      "fuelConsumedGallons": 0.974,
      "maxSpeedMph": 40.5,
      "averageSpeedMph": 15.5,
      "safetyEvents": [],
      "_no_driver_login": false,
      "_fuel_note": ""
    },
    {
      "id": "trip_48291022_20250207_001",
      "vehicleId": "48291022",
      "driverId": "22831021",
      "startMs": 1738926480000,
      "endMs": 1738937481545,
      "startLocation": {
        "latitude": 40.703487,
        "longitude": -111.95648
      },
      "endLocation": {
        "latitude": 40.753183,
        "longitude": -111.869215
      },
      "startAddress": "2011 Ware Cape Apt. 439",
      "endAddress": "7120 Anthony Cape Apt. 748",
      "startCoords": {
        "latitude": 40.731028,
        "longitude": -111.796667
      },
      "endCoords": {
        "latitude": 40.656423,
        "longitude": -111.863329
      },
      "distanceMeters": 76466.1,
      "durationMs": 11001546,
      "drivingDurationMs": 9210517,
      "idlingDurationMs": 1791029,
      "fuelConsumedMl": 9721,
      "fuelConsumedGallons": 2.568,
      "maxSpeedMph": 31.0,
      "averageSpeedMph": 15.5,
      "safetyEvents": [],
      "_no_driver_login": false,
      "_fuel_note": "QUIRK 5: fuelConsumedGallons is in US gallons. Multiply by 3.785 for litres. Samsara does not link fuel to specific Onfleet tasks."
    },
    {
      "id": "trip_48291022_20250207_002",
      "vehicleId": "48291022",
      "driverId": "22831021",
      "startMs": 1738921020000,
      "endMs": 1738932889327,
      "startLocation": {
        "latitude": 40.698489,
        "longitude": -111.872038
      },
      "endLocation": {
        "latitude": 40.794064,
        "longitude": -111.926913
      },
      "startAddress": "19069 Patrick Crest",
      "endAddress": "9318 Stephanie Tunnel Apt. 656",
      "startCoords": {
        "latitude": 40.796841,
        "longitude": -111.85346
      },
      "endCoords": {
        "latitude": 40.677894,
        "longitude": -111.924253
      },
      "distanceMeters": 71660.9,
      "durationMs": 11869327,
      "drivingDurationMs": 9647642,
      "idlingDurationMs": 2221685,
      "fuelConsumedMl": 9111,
      "fuelConsumedGallons": 2.407,
      "maxSpeedMph": 59.1,
      "averageSpeedMph": 13.5,
      "safetyEvents": [],
      "_no_driver_login": false,
      "_fuel_note": ""
    },
    {
      "id": "trip_48291022_20250207_003",
      "vehicleId": "48291022",
      "driverId": "22831021",
      "startMs": 1738952460000,
      "endMs": 1738955219457,
      "startLocation": {
        "latitude": 40.661732,
        "longitude": -111.916461
      },
      "endLocation": {
        "latitude": 40.797147,
        "longitude": -111.928044
      },
      "startAddress": "15355 Leslie Ferry Apt. 693",
      "endAddress": "33614 Susan Turnpike Apt. 372",
      "startCoords": {
        "latitude": 40.715187,
        "longitude": -111.90637
      },
      "endCoords": {
        "latitude": 40.788373,
        "longitude": -111.923495
      },
      "distanceMeters": 20926.8,
      "durationMs": 2759458,
      "drivingDurationMs": 2476093,
      "idlingDurationMs": 283364,
      "fuelConsumedMl": 2661,
      "fuelConsumedGallons": 0.703,
      "maxSpeedMph": 65.0,
      "averageSpeedMph": 17.0,
      "safetyEvents": [],
      "_no_driver_login": false,
      "_fuel_note": ""
    },
    {
      "id": "trip_48291022_20250207_004",
      "vehicleId": "48291022",
      "driverId": "22831021",
      "startMs": 1738937820000,
      "endMs": 1738940909083,
      "startLocation": {
        "latitude": 40.666785,
        "longitude": -111.853763
      },
      "endLocation": {
        "latitude": 40.768244,
        "longitude": -111.940441
      },
      "startAddress": "1608 Hernandez Haven Apt. 079",
      "endAddress": "59865 Wilson Overpass Suite 614",
      "startCoords": {
        "latitude": 40.707069,
        "longitude": -111.782446
      },
      "endCoords": {
        "latitude": 40.72349,
        "longitude": -111.871066
      },
      "distanceMeters": 22323.1,
      "durationMs": 3089083,
      "drivingDurationMs": 2587381,
      "idlingDurationMs": 501703,
      "fuelConsumedMl": 2839,
      "fuelConsumedGallons": 0.75,
      "maxSpeedMph": 40.7,
      "averageSpeedMph": 16.2,
      "safetyEvents": [],
      "_no_driver_login": false,
      "_fuel_note": ""
    },
    {
      "id": "trip_48291022_20250208_001",
      "vehicleId": "48291022",
      "driverId": "22831021",
      "startMs": 1739002140000,
      "endMs": 1739008413919,
      "startLocation": {
        "latitude": 40.710421,
        "longitude": -111.799153
      },
      "endLocation": {
        "latitude": 40.783395,
        "longitude": -111.820929
      },
      "startAddress": "08807 Sean Street",
      "endAddress": "3952 Daniel Stream Suite 612",
      "startCoords": {
        "latitude": 40.693687,
        "longitude": -111.783001
      },
      "endCoords": {
        "latitude": 40.777913,
        "longitude": -111.804986
      },
      "distanceMeters": 37751.4,
      "durationMs": 6273920,
      "drivingDurationMs": 5557781,
      "idlingDurationMs": 716139,
      "fuelConsumedMl": 4800,
      "fuelConsumedGallons": 1.268,
      "maxSpeedMph": 65.9,
      "averageSpeedMph": 13.5,
      "safetyEvents": [
        {
          "type": "speeding",
          "startMs": 1739005980000,
          "maxSpeedMph": 65.9
        }
      ],
      "_no_driver_login": false,
      "_fuel_note": "QUIRK 5: fuelConsumedGallons is in US gallons. Multiply by 3.785 for litres. Samsara does not link fuel to specific Onfleet tasks."
    },
    {
      "id": "trip_48291022_20250209_001",
      "vehicleId": "48291022",
      "driverId": "22831021",
      "startMs": 1739109240000,
      "endMs": 1739124023917,
      "startLocation": {
        "latitude": 40.762751,
        "longitude": -111.812704
      },
      "endLocation": {
        "latitude": 40.747227,
        "longitude": -111.907302
      },
      "startAddress": "6648 Stone Meadow",
      "endAddress": "9432 Garcia Streets Apt. 022",
      "startCoords": {
        "latitude": 40.733976,
        "longitude": -111.895156
      },
      "endCoords": {
        "latitude": 40.772695,
        "longitude": -111.943147
      },
      "distanceMeters": 83352.3,
      "durationMs": 14783917,
      "drivingDurationMs": 14602892,
      "idlingDurationMs": 181025,
      "fuelConsumedMl": 10599,
      "fuelConsumedGallons": 2.8,
      "maxSpeedMph": 56.9,
      "averageSpeedMph": 12.6,
      "safetyEvents": [],
      "_no_driver_login": false,
      "_fuel_note": "QUIRK 5: fuelConsumedGallons is in US gallons. Multiply by 3.785 for litres. Samsara does not link fuel to specific Onfleet tasks."
    },
    {
      "id": "trip_48291022_20250209_002",
      "vehicleId": "48291022",
      "driverId": "22831021",
      "startMs": 1739105160000,
      "endMs": 1739116920350,
      "startLocation": {
        "latitude": 40.755726,
        "longitude": -111.855742
      },
      "endLocation": {
        "latitude": 40.730555,
        "longitude": -111.817797
      },
      "startAddress": "984 Mccoy Ford",
      "endAddress": "615 Villa Forges",
      "startCoords": {
        "latitude": 40.729079,
        "longitude": -111.874324
      },
      "endCoords": {
        "latitude": 40.691049,
        "longitude": -111.929796
      },
      "distanceMeters": 60257.6,
      "durationMs": 11760350,
      "drivingDurationMs": 11009973,
      "idlingDurationMs": 750377,
      "fuelConsumedMl": 7662,
      "fuelConsumedGallons": 2.024,
      "maxSpeedMph": 56.5,
      "averageSpeedMph": 11.5,
      "safetyEvents": [],
      "_no_driver_login": false,
      "_fuel_note": ""
    },
    {
      "id": "trip_48291022_20250209_003",
      "vehicleId": "48291022",
      "driverId": "22831021",
      "startMs": 1739111400000,
      "endMs": 1739121542846,
      "startLocation": {
        "latitude": 40.660711,
        "longitude": -111.925483
      },
      "endLocation": {
        "latitude": 40.799126,
        "longitude": -111.939663
      },
      "startAddress": "66785 Erickson Lock",
      "endAddress": "55715 Palmer Port Apt. 349",
      "startCoords": {
        "latitude": 40.786023,
        "longitude": -111.937047
      },
      "endCoords": {
        "latitude": 40.716916,
        "longitude": -111.801482
      },
      "distanceMeters": 62594.7,
      "durationMs": 10142846,
      "drivingDurationMs": 9495431,
      "idlingDurationMs": 647415,
      "fuelConsumedMl": 7957,
      "fuelConsumedGallons": 2.102,
      "maxSpeedMph": 48.5,
      "averageSpeedMph": 13.8,
      "safetyEvents": [],
      "_no_driver_login": false,
      "_fuel_note": ""
    },
    {
      "id": "trip_48291022_20250209_004",
      "vehicleId": "48291022",
      "driverId": "22831021",
      "startMs": 1739120220000,
      "endMs": 1739125651086,
      "startLocation": {
        "latitude": 40.758137,
        "longitude": -111.928118
      },
      "endLocation": {
        "latitude": 40.747255,
        "longitude": -111.864769
      },
      "startAddress": "4914 Adams Haven Suite 639",
      "endAddress": "542 Tammy Overpass",
      "startCoords": {
        "latitude": 40.767453,
        "longitude": -111.850308
      },
      "endCoords": {
        "latitude": 40.664005,
        "longitude": -111.790156
      },
      "distanceMeters": 29680.6,
      "durationMs": 5431086,
      "drivingDurationMs": 4355783,
      "idlingDurationMs": 1075303,
      "fuelConsumedMl": 3774,
      "fuelConsumedGallons": 0.997,
      "maxSpeedMph": 68.1,
      "averageSpeedMph": 12.2,
      "safetyEvents": [
        {
          "type": "speeding",
          "startMs": 1739122680000,
          "maxSpeedMph": 68.1
        }
      ],
      "_no_driver_login": false,
      "_fuel_note": ""
    },
    {
      "id": "trip_48291022_20250210_001",
      "vehicleId": "48291022",
      "driverId": "22831021",
      "startMs": 1739169660000,
      "endMs": 1739173087640,
      "startLocation": {
        "latitude": 40.717103,
        "longitude": -111.882177
      },
      "endLocation": {
        "latitude": 40.732229,
        "longitude": -111.873904
      },
      "startAddress": "692 Elizabeth Inlet",
      "endAddress": "28786 Robert Trail Apt. 656",
      "startCoords": {
        "latitude": 40.678423,
        "longitude": -111.868663
      },
      "endCoords": {
        "latitude": 40.677962,
        "longitude": -111.830491
      },
      "distanceMeters": 15179.4,
      "durationMs": 3427640,
      "drivingDurationMs": 2813518,
      "idlingDurationMs": 614122,
      "fuelConsumedMl": 1931,
      "fuelConsumedGallons": 0.51,
      "maxSpeedMph": 70.7,
      "averageSpeedMph": 9.9,
      "safetyEvents": [
        {
          "type": "speeding",
          "startMs": 1739172420000,
          "maxSpeedMph": 70.7
        }
      ],
      "_no_driver_login": false,
      "_fuel_note": "QUIRK 5: fuelConsumedGallons is in US gallons. Multiply by 3.785 for litres. Samsara does not link fuel to specific Onfleet tasks."
    },
    {
      "id": "trip_48291022_20250210_002",
      "vehicleId": "48291022",
      "driverId": null,
      "startMs": 1739187720000,
      "endMs": 1739200822635,
      "startLocation": {
        "latitude": 40.797218,
        "longitude": -111.831696
      },
      "endLocation": {
        "latitude": 40.703504,
        "longitude": -111.906862
      },
      "startAddress": "6639 Ian Shore Apt. 658",
      "endAddress": "611 Tammy Terrace Suite 248",
      "startCoords": {
        "latitude": 40.705322,
        "longitude": -111.81458
      },
      "endCoords": {
        "latitude": 40.749141,
        "longitude": -111.956176
      },
      "distanceMeters": 82335.3,
      "durationMs": 13102635,
      "drivingDurationMs": 10712612,
      "idlingDurationMs": 2390023,
      "fuelConsumedMl": 10467,
      "fuelConsumedGallons": 2.765,
      "maxSpeedMph": 54.7,
      "averageSpeedMph": 14.1,
      "safetyEvents": [],
      "_no_driver_login": true,
      "_fuel_note": ""
    },
    {
      "id": "trip_48291022_20250210_003",
      "vehicleId": "48291022",
      "driverId": "22831021",
      "startMs": 1739178240000,
      "endMs": 1739180198995,
      "startLocation": {
        "latitude": 40.783842,
        "longitude": -111.852223
      },
      "endLocation": {
        "latitude": 40.727764,
        "longitude": -111.892846
      },
      "startAddress": "94368 Matthew Fort",
      "endAddress": "00956 Perry Parks",
      "startCoords": {
        "latitude": 40.796307,
        "longitude": -111.921859
      },
      "endCoords": {
        "latitude": 40.783116,
        "longitude": -111.958834
      },
      "distanceMeters": 9054.5,
      "durationMs": 1958996,
      "drivingDurationMs": 1612736,
      "idlingDurationMs": 346260,
      "fuelConsumedMl": 1151,
      "fuelConsumedGallons": 0.304,
      "maxSpeedMph": 38.8,
      "averageSpeedMph": 10.3,
      "safetyEvents": [],
      "_no_driver_login": false,
      "_fuel_note": ""
    },
    {
      "id": "trip_48291022_20250210_004",
      "vehicleId": "48291022",
      "driverId": "22831021",
      "startMs": 1739167920000,
      "endMs": 1739171517214,
      "startLocation": {
        "latitude": 40.761587,
        "longitude": -111.850593
      },
      "endLocation": {
        "latitude": 40.765487,
        "longitude": -111.841917
      },
      "startAddress": "937 Henry Turnpike",
      "endAddress": "900 Darryl Island",
      "startCoords": {
        "latitude": 40.688686,
        "longitude": -111.855201
      },
      "endCoords": {
        "latitude": 40.730508,
        "longitude": -111.806407
      },
      "distanceMeters": 27664.1,
      "durationMs": 3597215,
      "drivingDurationMs": 3249252,
      "idlingDurationMs": 347963,
      "fuelConsumedMl": 3517,
      "fuelConsumedGallons": 0.929,
      "maxSpeedMph": 69.3,
      "averageSpeedMph": 17.2,
      "safetyEvents": [
        {
          "type": "speeding",
          "startMs": 1739170140000,
          "maxSpeedMph": 69.3
        }
      ],
      "_no_driver_login": false,
      "_fuel_note": ""
    },
    {
      "id": "trip_48291022_20250210_005",
      "vehicleId": "48291022",
      "driverId": "22831021",
      "startMs": 1739185980000,
      "endMs": 1739189973128,
      "startLocation": {
        "latitude": 40.666846,
        "longitude": -111.813206
      },
      "endLocation": {
        "latitude": 40.72525,
        "longitude": -111.799436
      },
      "startAddress": "82840 Laura Port",
      "endAddress": "607 Mercado Manors",
      "startCoords": {
        "latitude": 40.755504,
        "longitude": -111.888097
      },
      "endCoords": {
        "latitude": 40.749452,
        "longitude": -111.893887
      },
      "distanceMeters": 20909.3,
      "durationMs": 3993129,
      "drivingDurationMs": 3298428,
      "idlingDurationMs": 694700,
      "fuelConsumedMl": 2657,
      "fuelConsumedGallons": 0.702,
      "maxSpeedMph": 36.1,
      "averageSpeedMph": 11.7,
      "safetyEvents": [],
      "_no_driver_login": false,
      "_fuel_note": ""
    },
    {
      "id": "trip_48291022_20250211_001",
      "vehicleId": "48291022",
      "driverId": "22831021",
      "startMs": 1739286900000,
      "endMs": 1739288599646,
      "startLocation": {
        "latitude": 40.687601,
        "longitude": -111.863352
      },
      "endLocation": {
        "latitude": 40.748706,
        "longitude": -111.917036
      },
      "startAddress": "30719 Wang Pike",
      "endAddress": "705 Terri Locks",
      "startCoords": {
        "latitude": 40.784141,
        "longitude": -111.787943
      },
      "endCoords": {
        "latitude": 40.713539,
        "longitude": -111.827688
      },
      "distanceMeters": 7445.3,
      "durationMs": 1699647,
      "drivingDurationMs": 1485876,
      "idlingDurationMs": 213771,
      "fuelConsumedMl": 946,
      "fuelConsumedGallons": 0.25,
      "maxSpeedMph": 68.2,
      "averageSpeedMph": 9.8,
      "safetyEvents": [
        {
          "type": "speeding",
          "startMs": 1739287500000,
          "maxSpeedMph": 68.2
        }
      ],
      "_no_driver_login": false,
      "_fuel_note": "QUIRK 5: fuelConsumedGallons is in US gallons. Multiply by 3.785 for litres. Samsara does not link fuel to specific Onfleet tasks."
    },
    {
      "id": "trip_48291022_20250211_002",
      "vehicleId": "48291022",
      "driverId": "22831021",
      "startMs": 1739300100000,
      "endMs": 1739306290447,
      "startLocation": {
        "latitude": 40.726843,
        "longitude": -111.908571
      },
      "endLocation": {
        "latitude": 40.792621,
        "longitude": -111.814821
      },
      "startAddress": "21117 Teresa Meadow Apt. 367",
      "endAddress": "041 West Springs Suite 662",
      "startCoords": {
        "latitude": 40.71944,
        "longitude": -111.882514
      },
      "endCoords": {
        "latitude": 40.663038,
        "longitude": -111.876348
      },
      "distanceMeters": 47750.2,
      "durationMs": 6190448,
      "drivingDurationMs": 5677695,
      "idlingDurationMs": 512752,
      "fuelConsumedMl": 6072,
      "fuelConsumedGallons": 1.604,
      "maxSpeedMph": 31.9,
      "averageSpeedMph": 17.3,
      "safetyEvents": [],
      "_no_driver_login": false,
      "_fuel_note": ""
    },
    {
      "id": "trip_48291022_20250211_003",
      "vehicleId": "48291022",
      "driverId": "22831021",
      "startMs": 1739280540000,
      "endMs": 1739287883958,
      "startLocation": {
        "latitude": 40.680956,
        "longitude": -111.872834
      },
      "endLocation": {
        "latitude": 40.679599,
        "longitude": -111.913265
      },
      "startAddress": "44120 Molly Place Suite 284",
      "endAddress": "0129 Nichols Streets",
      "startCoords": {
        "latitude": 40.741207,
        "longitude": -111.947278
      },
      "endCoords": {
        "latitude": 40.73655,
        "longitude": -111.890575
      },
      "distanceMeters": 42177.3,
      "durationMs": 7343959,
      "drivingDurationMs": 6970695,
      "idlingDurationMs": 373264,
      "fuelConsumedMl": 5364,
      "fuelConsumedGallons": 1.417,
      "maxSpeedMph": 60.3,
      "averageSpeedMph": 12.8,
      "safetyEvents": [],
      "_no_driver_login": false,
      "_fuel_note": ""
    },
    {
      "id": "trip_48291022_20250211_004",
      "vehicleId": "48291022",
      "driverId": "22831021",
      "startMs": 1739297580000,
      "endMs": 1739307600000,
      "startLocation": {
        "latitude": 40.774904,
        "longitude": -111.905657
      },
      "endLocation": {
        "latitude": 40.772044,
        "longitude": -111.875448
      },
      "startAddress": "38175 Jones Rapids",
      "endAddress": "7974 Sergio Lane",
      "startCoords": {
        "latitude": 40.794967,
        "longitude": -111.87122
      },
      "endCoords": {
        "latitude": 40.743717,
        "longitude": -111.834964
      },
      "distanceMeters": 55806.2,
      "durationMs": 10020000,
      "drivingDurationMs": 8016000,
      "idlingDurationMs": 2004000,
      "fuelConsumedMl": 7094,
      "fuelConsumedGallons": 1.874,
      "maxSpeedMph": 38.9,
      "averageSpeedMph": 12.5,
      "safetyEvents": [],
      "_no_driver_login": false,
      "_fuel_note": ""
    },
    {
      "id": "trip_48291022_20250212_001",
      "vehicleId": "48291022",
      "driverId": "22831021",
      "startMs": 1739364120000,
      "endMs": 1739377332624,
      "startLocation": {
        "latitude": 40.685186,
        "longitude": -111.797575
      },
      "endLocation": {
        "latitude": 40.660189,
        "longitude": -111.794264
      },
      "startAddress": "836 Jason Pines Suite 000",
      "endAddress": "350 Wood Port Apt. 645",
      "startCoords": {
        "latitude": 40.785024,
        "longitude": -111.917882
      },
      "endCoords": {
        "latitude": 40.740835,
        "longitude": -111.925047
      },
      "distanceMeters": 71901.6,
      "durationMs": 13212625,
      "drivingDurationMs": 11821557,
      "idlingDurationMs": 1391068,
      "fuelConsumedMl": 9142,
      "fuelConsumedGallons": 2.415,
      "maxSpeedMph": 70.1,
      "averageSpeedMph": 12.2,
      "safetyEvents": [
        {
          "type": "speeding",
          "startMs": 1739376180000,
          "maxSpeedMph": 70.1
        }
      ],
      "_no_driver_login": false,
      "_fuel_note": "QUIRK 5: fuelConsumedGallons is in US gallons. Multiply by 3.785 for litres. Samsara does not link fuel to specific Onfleet tasks."
    },
    {
      "id": "trip_48291022_20250212_002",
      "vehicleId": "48291022",
      "driverId": "22831021",
      "startMs": 1739350320000,
      "endMs": 1739357823648,
      "startLocation": {
        "latitude": 40.737584,
        "longitude": -111.880922
      },
      "endLocation": {
        "latitude": 40.725565,
        "longitude": -111.794278
      },
      "startAddress": "29109 Medina Estates Apt. 306",
      "endAddress": "002 Wolf Fork",
      "startCoords": {
        "latitude": 40.79822,
        "longitude": -111.832034
      },
      "endCoords": {
        "latitude": 40.662408,
        "longitude": -111.90276
      },
      "distanceMeters": 62027.9,
      "durationMs": 7503649,
      "drivingDurationMs": 6986849,
      "idlingDurationMs": 516800,
      "fuelConsumedMl": 7885,
      "fuelConsumedGallons": 2.083,
      "maxSpeedMph": 43.9,
      "averageSpeedMph": 18.5,
      "safetyEvents": [],
      "_no_driver_login": false,
      "_fuel_note": ""
    },
    {
      "id": "trip_48291022_20250213_001",
      "vehicleId": "48291022",
      "driverId": "22831021",
      "startMs": 1739429880000,
      "endMs": 1739441872629,
      "startLocation": {
        "latitude": 40.672862,
        "longitude": -111.917641
      },
      "endLocation": {
        "latitude": 40.743666,
        "longitude": -111.937759
      },
      "startAddress": "582 Brian Village",
      "endAddress": "0137 Debra Islands Suite 515",
      "startCoords": {
        "latitude": 40.682682,
        "longitude": -111.869713
      },
      "endCoords": {
        "latitude": 40.760402,
        "longitude": -111.875663
      },
      "distanceMeters": 67109.8,
      "durationMs": 11992629,
      "drivingDurationMs": 10722683,
      "idlingDurationMs": 1269946,
      "fuelConsumedMl": 8532,
      "fuelConsumedGallons": 2.254,
      "maxSpeedMph": 64.5,
      "averageSpeedMph": 12.5,
      "safetyEvents": [],
      "_no_driver_login": false,
      "_fuel_note": "QUIRK 5: fuelConsumedGallons is in US gallons. Multiply by 3.785 for litres. Samsara does not link fuel to specific Onfleet tasks."
    },
    {
      "id": "trip_48291022_20250213_002",
      "vehicleId": "48291022",
      "driverId": "22831021",
      "startMs": 1739453100000,
      "endMs": 1739463083176,
      "startLocation": {
        "latitude": 40.755684,
        "longitude": -111.863123
      },
      "endLocation": {
        "latitude": 40.677963,
        "longitude": -111.778005
      },
      "startAddress": "6373 Cordova Extensions",
      "endAddress": "38649 Cooper Crossroad",
      "startCoords": {
        "latitude": 40.771304,
        "longitude": -111.810422
      },
      "endCoords": {
        "latitude": 40.670919,
        "longitude": -111.793018
      },
      "distanceMeters": 63646.3,
      "durationMs": 9983177,
      "drivingDurationMs": 9788523,
      "idlingDurationMs": 194654,
      "fuelConsumedMl": 8093,
      "fuelConsumedGallons": 2.138,
      "maxSpeedMph": 50.8,
      "averageSpeedMph": 14.3,
      "safetyEvents": [],
      "_no_driver_login": false,
      "_fuel_note": ""
    },
    {
      "id": "trip_48291022_20250213_003",
      "vehicleId": "48291022",
      "driverId": "22831021",
      "startMs": 1739446140000,
      "endMs": 1739456681289,
      "startLocation": {
        "latitude": 40.760213,
        "longitude": -111.886771
      },
      "endLocation": {
        "latitude": 40.774032,
        "longitude": -111.893413
      },
      "startAddress": "99949 Smith Creek",
      "endAddress": "967 Vickie Mills Suite 016",
      "startCoords": {
        "latitude": 40.721326,
        "longitude": -111.8934
      },
      "endCoords": {
        "latitude": 40.78018,
        "longitude": -111.816892
      },
      "distanceMeters": 66518.0,
      "durationMs": 10541289,
      "drivingDurationMs": 9071641,
      "idlingDurationMs": 1469648,
      "fuelConsumedMl": 8457,
      "fuelConsumedGallons": 2.234,
      "maxSpeedMph": 40.3,
      "averageSpeedMph": 14.1,
      "safetyEvents": [],
      "_no_driver_login": false,
      "_fuel_note": ""
    },
    {
      "id": "trip_48291022_20250214_001",
      "vehicleId": "48291022",
      "driverId": "22831021",
      "startMs": 1739532300000,
      "endMs": 1739539520602,
      "startLocation": {
        "latitude": 40.695531,
        "longitude": -111.926076
      },
      "endLocation": {
        "latitude": 40.715875,
        "longitude": -111.919887
      },
      "startAddress": "684 Scott Mount",
      "endAddress": "6666 Webb Circle Apt. 540",
      "startCoords": {
        "latitude": 40.746364,
        "longitude": -111.814734
      },
      "endCoords": {
        "latitude": 40.65746,
        "longitude": -111.839226
      },
      "distanceMeters": 43517.0,
      "durationMs": 7220603,
      "drivingDurationMs": 6205717,
      "idlingDurationMs": 1014885,
      "fuelConsumedMl": 5534,
      "fuelConsumedGallons": 1.462,
      "maxSpeedMph": 39.5,
      "averageSpeedMph": 13.5,
      "safetyEvents": [],
      "_no_driver_login": false,
      "_fuel_note": "QUIRK 5: fuelConsumedGallons is in US gallons. Multiply by 3.785 for litres. Samsara does not link fuel to specific Onfleet tasks."
    },
    {
      "id": "trip_48291022_20250214_002",
      "vehicleId": "48291022",
      "driverId": "22831021",
      "startMs": 1739528220000,
      "endMs": 1739541046728,
      "startLocation": {
        "latitude": 40.752985,
        "longitude": -111.794607
      },
      "endLocation": {
        "latitude": 40.711746,
        "longitude": -111.826106
      },
      "startAddress": "953 Sean Roads Apt. 800",
      "endAddress": "986 Bond Station",
      "startCoords": {
        "latitude": 40.795724,
        "longitude": -111.839279
      },
      "endCoords": {
        "latitude": 40.769561,
        "longitude": -111.804887
      },
      "distanceMeters": 66993.5,
      "durationMs": 12826729,
      "drivingDurationMs": 11141369,
      "idlingDurationMs": 1685359,
      "fuelConsumedMl": 8517,
      "fuelConsumedGallons": 2.25,
      "maxSpeedMph": 40.4,
      "averageSpeedMph": 11.7,
      "safetyEvents": [],
      "_no_driver_login": false,
      "_fuel_note": ""
    },
    {
      "id": "trip_48291022_20250214_003",
      "vehicleId": "48291022",
      "driverId": "22831021",
      "startMs": 1739516640000,
      "endMs": 1739520860108,
      "startLocation": {
        "latitude": 40.659629,
        "longitude": -111.827076
      },
      "endLocation": {
        "latitude": 40.693954,
        "longitude": -111.78197
      },
      "startAddress": "407 Strickland Center Suite 272",
      "endAddress": "3293 Wayne Knoll",
      "startCoords": {
        "latitude": 40.66097,
        "longitude": -111.901192
      },
      "endCoords": {
        "latitude": 40.671193,
        "longitude": -111.860529
      },
      "distanceMeters": 23052.9,
      "durationMs": 4220108,
      "drivingDurationMs": 3530009,
      "idlingDurationMs": 690099,
      "fuelConsumedMl": 2930,
      "fuelConsumedGallons": 0.774,
      "maxSpeedMph": 38.9,
      "averageSpeedMph": 12.2,
      "safetyEvents": [],
      "_no_driver_login": false,
      "_fuel_note": ""
    },
    {
      "id": "trip_48291022_20250214_004",
      "vehicleId": "48291022",
      "driverId": "22831021",
      "startMs": 1739545860000,
      "endMs": 1739551897783,
      "startLocation": {
        "latitude": 40.764045,
        "longitude": -111.806215
      },
      "endLocation": {
        "latitude": 40.733865,
        "longitude": -111.779999
      },
      "startAddress": "1211 Brandi Manor",
      "endAddress": "4193 Bailey Gateway",
      "startCoords": {
        "latitude": 40.706684,
        "longitude": -111.832126
      },
      "endCoords": {
        "latitude": 40.743461,
        "longitude": -111.811933
      },
      "distanceMeters": 46377.0,
      "durationMs": 6037783,
      "drivingDurationMs": 5402565,
      "idlingDurationMs": 635218,
      "fuelConsumedMl": 5898,
      "fuelConsumedGallons": 1.558,
      "maxSpeedMph": 71.3,
      "averageSpeedMph": 17.2,
      "safetyEvents": [
        {
          "type": "speeding",
          "startMs": 1739549700000,
          "maxSpeedMph": 71.3
        }
      ],
      "_no_driver_login": false,
      "_fuel_note": ""
    },
    {
      "id": "trip_48291022_20250214_005",
      "vehicleId": "48291022",
      "driverId": "22831021",
      "startMs": 1739541360000,
      "endMs": 1739556709799,
      "startLocation": {
        "latitude": 40.71083,
        "longitude": -111.84317
      },
      "endLocation": {
        "latitude": 40.676095,
        "longitude": -111.912282
      },
      "startAddress": "1576 Darius Harbors",
      "endAddress": "0884 Woodward Ridge Apt. 702",
      "startCoords": {
        "latitude": 40.720464,
        "longitude": -111.870184
      },
      "endCoords": {
        "latitude": 40.710636,
        "longitude": -111.899748
      },
      "distanceMeters": 80404.8,
      "durationMs": 15349800,
      "drivingDurationMs": 14030141,
      "idlingDurationMs": 1319659,
      "fuelConsumedMl": 10224,
      "fuelConsumedGallons": 2.701,
      "maxSpeedMph": 42.9,
      "averageSpeedMph": 11.7,
      "safetyEvents": [],
      "_no_driver_login": false,
      "_fuel_note": ""
    },
    {
      "id": "trip_48291022_20250215_001",
      "vehicleId": "48291022",
      "driverId": "22831021",
      "startMs": 1739642340000,
      "endMs": 1739652880381,
      "startLocation": {
        "latitude": 40.747381,
        "longitude": -111.914564
      },
      "endLocation": {
        "latitude": 40.765538,
        "longitude": -111.774472
      },
      "startAddress": "1012 David Junctions Suite 878",
      "endAddress": "50261 Gloria Roads Apt. 492",
      "startCoords": {
        "latitude": 40.675601,
        "longitude": -111.792113
      },
      "endCoords": {
        "latitude": 40.785797,
        "longitude": -111.858064
      },
      "distanceMeters": 53451.9,
      "durationMs": 10540382,
      "drivingDurationMs": 9701178,
      "idlingDurationMs": 839204,
      "fuelConsumedMl": 6795,
      "fuelConsumedGallons": 1.795,
      "maxSpeedMph": 58.0,
      "averageSpeedMph": 11.3,
      "safetyEvents": [],
      "_no_driver_login": false,
      "_fuel_note": "QUIRK 5: fuelConsumedGallons is in US gallons. Multiply by 3.785 for litres. Samsara does not link fuel to specific Onfleet tasks."
    },
    {
      "id": "trip_48291022_20250215_002",
      "vehicleId": "48291022",
      "driverId": "22831021",
      "startMs": 1739613660000,
      "endMs": 1739621425793,
      "startLocation": {
        "latitude": 40.678863,
        "longitude": -111.907208
      },
      "endLocation": {
        "latitude": 40.716287,
        "longitude": -111.910315
      },
      "startAddress": "01381 Mitchell Club Apt. 507",
      "endAddress": "51982 Lawson Bridge Apt. 689",
      "startCoords": {
        "latitude": 40.785594,
        "longitude": -111.87427
      },
      "endCoords": {
        "latitude": 40.790677,
        "longitude": -111.877811
      },
      "distanceMeters": 53723.3,
      "durationMs": 7765793,
      "drivingDurationMs": 7364790,
      "idlingDurationMs": 401003,
      "fuelConsumedMl": 6829,
      "fuelConsumedGallons": 1.804,
      "maxSpeedMph": 31.6,
      "averageSpeedMph": 15.5,
      "safetyEvents": [],
      "_no_driver_login": false,
      "_fuel_note": ""
    },
    {
      "id": "trip_48291022_20250216_001",
      "vehicleId": "48291022",
      "driverId": "22831021",
      "startMs": 1739712720000,
      "endMs": 1739723705314,
      "startLocation": {
        "latitude": 40.676617,
        "longitude": -111.883333
      },
      "endLocation": {
        "latitude": 40.754877,
        "longitude": -111.927083
      },
      "startAddress": "4274 Kimberly Parks",
      "endAddress": "6683 Griffin Ports Suite 314",
      "startCoords": {
        "latitude": 40.786303,
        "longitude": -111.809993
      },
      "endCoords": {
        "latitude": 40.793069,
        "longitude": -111.8317
      },
      "distanceMeters": 78039.4,
      "durationMs": 10985314,
      "drivingDurationMs": 9662678,
      "idlingDurationMs": 1322636,
      "fuelConsumedMl": 9922,
      "fuelConsumedGallons": 2.621,
      "maxSpeedMph": 68.6,
      "averageSpeedMph": 15.9,
      "safetyEvents": [
        {
          "type": "speeding",
          "startMs": 1739716560000,
          "maxSpeedMph": 68.6
        }
      ],
      "_no_driver_login": false,
      "_fuel_note": "QUIRK 5: fuelConsumedGallons is in US gallons. Multiply by 3.785 for litres. Samsara does not link fuel to specific Onfleet tasks."
    },
    {
      "id": "trip_48291022_20250216_002",
      "vehicleId": "48291022",
      "driverId": "22831021",
      "startMs": 1739730120000,
      "endMs": 1739739600000,
      "startLocation": {
        "latitude": 40.678442,
        "longitude": -111.927368
      },
      "endLocation": {
        "latitude": 40.750336,
        "longitude": -111.812037
      },
      "startAddress": "5519 Morgan Ville",
      "endAddress": "75193 Cook Stream",
      "startCoords": {
        "latitude": 40.669337,
        "longitude": -111.877471
      },
      "endCoords": {
        "latitude": 40.75911,
        "longitude": -111.956203
      },
      "distanceMeters": 42548.5,
      "durationMs": 9480000,
      "drivingDurationMs": 8393621,
      "idlingDurationMs": 1086379,
      "fuelConsumedMl": 5409,
      "fuelConsumedGallons": 1.429,
      "maxSpeedMph": 71.6,
      "averageSpeedMph": 10.0,
      "safetyEvents": [
        {
          "type": "speeding",
          "startMs": 1739731560000,
          "maxSpeedMph": 71.6
        }
      ],
      "_no_driver_login": false,
      "_fuel_note": ""
    },
    {
      "id": "trip_48291022_20250216_003",
      "vehicleId": "48291022",
      "driverId": "22831021",
      "startMs": 1739729400000,
      "endMs": 1739734609461,
      "startLocation": {
        "latitude": 40.732554,
        "longitude": -111.824087
      },
      "endLocation": {
        "latitude": 40.692077,
        "longitude": -111.776061
      },
      "startAddress": "53818 Green Plains Suite 134",
      "endAddress": "6833 Emily Pines",
      "startCoords": {
        "latitude": 40.741152,
        "longitude": -111.777245
      },
      "endCoords": {
        "latitude": 40.778422,
        "longitude": -111.842752
      },
      "distanceMeters": 34377.9,
      "durationMs": 5209461,
      "drivingDurationMs": 4249799,
      "idlingDurationMs": 959662,
      "fuelConsumedMl": 4372,
      "fuelConsumedGallons": 1.155,
      "maxSpeedMph": 43.5,
      "averageSpeedMph": 14.8,
      "safetyEvents": [],
      "_no_driver_login": false,
      "_fuel_note": ""
    },
    {
      "id": "trip_48291022_20250216_004",
      "vehicleId": "48291022",
      "driverId": "22831021",
      "startMs": 1739719800000,
      "endMs": 1739734619941,
      "startLocation": {
        "latitude": 40.79922,
        "longitude": -111.956658
      },
      "endLocation": {
        "latitude": 40.677246,
        "longitude": -111.923115
      },
      "startAddress": "3551 Chen Point Suite 157",
      "endAddress": "7232 Tyler Cape Apt. 644",
      "startCoords": {
        "latitude": 40.695673,
        "longitude": -111.882422
      },
      "endCoords": {
        "latitude": 40.67351,
        "longitude": -111.783098
      },
      "distanceMeters": 78452.2,
      "durationMs": 14819941,
      "drivingDurationMs": 14467313,
      "idlingDurationMs": 352628,
      "fuelConsumedMl": 9975,
      "fuelConsumedGallons": 2.635,
      "maxSpeedMph": 52.5,
      "averageSpeedMph": 11.8,
      "safetyEvents": [],
      "_no_driver_login": false,
      "_fuel_note": ""
    },
    {
      "id": "trip_48291022_20250217_001",
      "vehicleId": "48291022",
      "driverId": "22831021",
      "startMs": 1739775300000,
      "endMs": 1739782771923,
      "startLocation": {
        "latitude": 40.790805,
        "longitude": -111.92009
      },
      "endLocation": {
        "latitude": 40.712161,
        "longitude": -111.948925
      },
      "startAddress": "2220 Jonathan Shoals",
      "endAddress": "39588 Mark Mission Apt. 289",
      "startCoords": {
        "latitude": 40.680645,
        "longitude": -111.86857
      },
      "endCoords": {
        "latitude": 40.679525,
        "longitude": -111.894138
      },
      "distanceMeters": 35695.3,
      "durationMs": 7471924,
      "drivingDurationMs": 6254302,
      "idlingDurationMs": 1217622,
      "fuelConsumedMl": 4539,
      "fuelConsumedGallons": 1.199,
      "maxSpeedMph": 68.1,
      "averageSpeedMph": 10.7,
      "safetyEvents": [
        {
          "type": "speeding",
          "startMs": 1739782380000,
          "maxSpeedMph": 68.1
        }
      ],
      "_no_driver_login": false,
      "_fuel_note": "QUIRK 5: fuelConsumedGallons is in US gallons. Multiply by 3.785 for litres. Samsara does not link fuel to specific Onfleet tasks."
    },
    {
      "id": "trip_48291022_20250217_002",
      "vehicleId": "48291022",
      "driverId": "22831021",
      "startMs": 1739781360000,
      "endMs": 1739791517140,
      "startLocation": {
        "latitude": 40.694321,
        "longitude": -111.950103
      },
      "endLocation": {
        "latitude": 40.669368,
        "longitude": -111.833642
      },
      "startAddress": "04051 Henry Mission Suite 424",
      "endAddress": "098 Lynch Forks Apt. 379",
      "startCoords": {
        "latitude": 40.71525,
        "longitude": -111.947234
      },
      "endCoords": {
        "latitude": 40.777584,
        "longitude": -111.800783
      },
      "distanceMeters": 66936.0,
      "durationMs": 10157141,
      "drivingDurationMs": 8605102,
      "idlingDurationMs": 1552039,
      "fuelConsumedMl": 8510,
      "fuelConsumedGallons": 2.248,
      "maxSpeedMph": 69.9,
      "averageSpeedMph": 14.7,
      "safetyEvents": [
        {
          "type": "speeding",
          "startMs": 1739786100000,
          "maxSpeedMph": 69.9
        }
      ],
      "_no_driver_login": false,
      "_fuel_note": ""
    },
    {
      "id": "trip_48291022_20250217_003",
      "vehicleId": "48291022",
      "driverId": "22831021",
      "startMs": 1739808840000,
      "endMs": 1739814430562,
      "startLocation": {
        "latitude": 40.782158,
        "longitude": -111.818129
      },
      "endLocation": {
        "latitude": 40.739458,
        "longitude": -111.774942
      },
      "startAddress": "6784 Deborah Ferry",
      "endAddress": "258 Jennifer Lock",
      "startCoords": {
        "latitude": 40.744319,
        "longitude": -111.861429
      },
      "endCoords": {
        "latitude": 40.737435,
        "longitude": -111.775781
      },
      "distanceMeters": 26349.4,
      "durationMs": 5590563,
      "drivingDurationMs": 4623923,
      "idlingDurationMs": 966639,
      "fuelConsumedMl": 3350,
      "fuelConsumedGallons": 0.885,
      "maxSpeedMph": 29.7,
      "averageSpeedMph": 10.5,
      "safetyEvents": [],
      "_no_driver_login": false,
      "_fuel_note": ""
    },
    {
      "id": "trip_48291022_20250218_001",
      "vehicleId": "48291022",
      "driverId": "22831021",
      "startMs": 1739866380000,
      "endMs": 1739874004410,
      "startLocation": {
        "latitude": 40.674483,
        "longitude": -111.855698
      },
      "endLocation": {
        "latitude": 40.708257,
        "longitude": -111.858102
      },
      "startAddress": "2382 Mclaughlin Cape",
      "endAddress": "53313 Daniel Courts",
      "startCoords": {
        "latitude": 40.783585,
        "longitude": -111.89893
      },
      "endCoords": {
        "latitude": 40.78166,
        "longitude": -111.887095
      },
      "distanceMeters": 48902.1,
      "durationMs": 7624411,
      "drivingDurationMs": 6641385,
      "idlingDurationMs": 983026,
      "fuelConsumedMl": 6219,
      "fuelConsumedGallons": 1.643,
      "maxSpeedMph": 57.2,
      "averageSpeedMph": 14.3,
      "safetyEvents": [],
      "_no_driver_login": false,
      "_fuel_note": "QUIRK 5: fuelConsumedGallons is in US gallons. Multiply by 3.785 for litres. Samsara does not link fuel to specific Onfleet tasks."
    },
    {
      "id": "trip_48291022_20250218_002",
      "vehicleId": "48291022",
      "driverId": "22831021",
      "startMs": 1739860920000,
      "endMs": 1739872630110,
      "startLocation": {
        "latitude": 40.689023,
        "longitude": -111.871447
      },
      "endLocation": {
        "latitude": 40.743027,
        "longitude": -111.915886
      },
      "startAddress": "977 Olivia Inlet",
      "endAddress": "605 Yvette Haven",
      "startCoords": {
        "latitude": 40.766241,
        "longitude": -111.880547
      },
      "endCoords": {
        "latitude": 40.755592,
        "longitude": -111.821327
      },
      "distanceMeters": 83154.4,
      "durationMs": 11710111,
      "drivingDurationMs": 9554216,
      "idlingDurationMs": 2155895,
      "fuelConsumedMl": 10573,
      "fuelConsumedGallons": 2.793,
      "maxSpeedMph": 56.6,
      "averageSpeedMph": 15.9,
      "safetyEvents": [],
      "_no_driver_login": false,
      "_fuel_note": ""
    },
    {
      "id": "trip_48291022_20250219_001",
      "vehicleId": "48291022",
      "driverId": "22831021",
      "startMs": 1739988300000,
      "endMs": 1739996463805,
      "startLocation": {
        "latitude": 40.68998,
        "longitude": -111.88691
      },
      "endLocation": {
        "latitude": 40.693092,
        "longitude": -111.947647
      },
      "startAddress": "5554 Holden Point Apt. 984",
      "endAddress": "350 Brown Coves",
      "startCoords": {
        "latitude": 40.687095,
        "longitude": -111.921426
      },
      "endCoords": {
        "latitude": 40.740427,
        "longitude": -111.781716
      },
      "distanceMeters": 56795.1,
      "durationMs": 8163805,
      "drivingDurationMs": 7926954,
      "idlingDurationMs": 236851,
      "fuelConsumedMl": 7223,
      "fuelConsumedGallons": 1.908,
      "maxSpeedMph": 45.7,
      "averageSpeedMph": 15.6,
      "safetyEvents": [],
      "_no_driver_login": false,
      "_fuel_note": "QUIRK 5: fuelConsumedGallons is in US gallons. Multiply by 3.785 for litres. Samsara does not link fuel to specific Onfleet tasks."
    },
    {
      "id": "trip_48291022_20250219_002",
      "vehicleId": "48291022",
      "driverId": "22831021",
      "startMs": 1739950980000,
      "endMs": 1739958810208,
      "startLocation": {
        "latitude": 40.668539,
        "longitude": -111.944996
      },
      "endLocation": {
        "latitude": 40.720725,
        "longitude": -111.779819
      },
      "startAddress": "349 Dalton Divide",
      "endAddress": "69852 Wagner Parks",
      "startCoords": {
        "latitude": 40.764387,
        "longitude": -111.927013
      },
      "endCoords": {
        "latitude": 40.746426,
        "longitude": -111.9264
      },
      "distanceMeters": 55337.5,
      "durationMs": 7830209,
      "drivingDurationMs": 7104540,
      "idlingDurationMs": 725669,
      "fuelConsumedMl": 7037,
      "fuelConsumedGallons": 1.859,
      "maxSpeedMph": 32.5,
      "averageSpeedMph": 15.8,
      "safetyEvents": [],
      "_no_driver_login": false,
      "_fuel_note": ""
    },
    {
      "id": "trip_48291022_20250219_003",
      "vehicleId": "48291022",
      "driverId": "22831021",
      "startMs": 1739964480000,
      "endMs": 1739969115524,
      "startLocation": {
        "latitude": 40.665942,
        "longitude": -111.930662
      },
      "endLocation": {
        "latitude": 40.779405,
        "longitude": -111.843647
      },
      "startAddress": "28691 Stefanie Summit Suite 324",
      "endAddress": "3784 Jason Station",
      "startCoords": {
        "latitude": 40.786118,
        "longitude": -111.842694
      },
      "endCoords": {
        "latitude": 40.710834,
        "longitude": -111.800531
      },
      "distanceMeters": 30924.1,
      "durationMs": 4635525,
      "drivingDurationMs": 3765502,
      "idlingDurationMs": 870023,
      "fuelConsumedMl": 3933,
      "fuelConsumedGallons": 1.039,
      "maxSpeedMph": 65.6,
      "averageSpeedMph": 14.9,
      "safetyEvents": [
        {
          "type": "speeding",
          "startMs": 1739965380000,
          "maxSpeedMph": 65.6
        }
      ],
      "_no_driver_login": false,
      "_fuel_note": ""
    },
    {
      "id": "trip_48291022_20250219_004",
      "vehicleId": "48291022",
      "driverId": "22831021",
      "startMs": 1739979240000,
      "endMs": 1739982125657,
      "startLocation": {
        "latitude": 40.74378,
        "longitude": -111.846752
      },
      "endLocation": {
        "latitude": 40.688105,
        "longitude": -111.819008
      },
      "startAddress": "14436 Greene Forge Suite 969",
      "endAddress": "93837 Morales Road Suite 426",
      "startCoords": {
        "latitude": 40.689662,
        "longitude": -111.925227
      },
      "endCoords": {
        "latitude": 40.722594,
        "longitude": -111.851849
      },
      "distanceMeters": 20226.1,
      "durationMs": 2885657,
      "drivingDurationMs": 2603269,
      "idlingDurationMs": 282389,
      "fuelConsumedMl": 2570,
      "fuelConsumedGallons": 0.679,
      "maxSpeedMph": 53.3,
      "averageSpeedMph": 15.7,
      "safetyEvents": [],
      "_no_driver_login": false,
      "_fuel_note": ""
    },
    {
      "id": "trip_48291022_20250220_001",
      "vehicleId": "48291022",
      "driverId": "22831021",
      "startMs": 1740077820000,
      "endMs": 1740085200000,
      "startLocation": {
        "latitude": 40.746186,
        "longitude": -111.902585
      },
      "endLocation": {
        "latitude": 40.701551,
        "longitude": -111.948826
      },
      "startAddress": "1351 Ellen Squares Suite 189",
      "endAddress": "14129 Robert Tunnel Apt. 670",
      "startCoords": {
        "latitude": 40.797782,
        "longitude": -111.890656
      },
      "endCoords": {
        "latitude": 40.683453,
        "longitude": -111.9227
      },
      "distanceMeters": 32130.3,
      "durationMs": 7380000,
      "drivingDurationMs": 5904000,
      "idlingDurationMs": 1476000,
      "fuelConsumedMl": 4084,
      "fuelConsumedGallons": 1.079,
      "maxSpeedMph": 40.7,
      "averageSpeedMph": 9.7,
      "safetyEvents": [],
      "_no_driver_login": false,
      "_fuel_note": "QUIRK 5: fuelConsumedGallons is in US gallons. Multiply by 3.785 for litres. Samsara does not link fuel to specific Onfleet tasks."
    },
    {
      "id": "trip_48291022_20250220_002",
      "vehicleId": "48291022",
      "driverId": "22831021",
      "startMs": 1740076680000,
      "endMs": 1740080764090,
      "startLocation": {
        "latitude": 40.680598,
        "longitude": -111.79605
      },
      "endLocation": {
        "latitude": 40.665627,
        "longitude": -111.810834
      },
      "startAddress": "68835 Pearson Ridge Suite 472",
      "endAddress": "7911 Rebecca Stream",
      "startCoords": {
        "latitude": 40.752942,
        "longitude": -111.789228
      },
      "endCoords": {
        "latitude": 40.722567,
        "longitude": -111.952328
      },
      "distanceMeters": 30132.1,
      "durationMs": 4084091,
      "drivingDurationMs": 3450294,
      "idlingDurationMs": 633796,
      "fuelConsumedMl": 3831,
      "fuelConsumedGallons": 1.012,
      "maxSpeedMph": 62.9,
      "averageSpeedMph": 16.5,
      "safetyEvents": [],
      "_no_driver_login": false,
      "_fuel_note": ""
    },
    {
      "id": "trip_48291022_20250220_003",
      "vehicleId": "48291022",
      "driverId": "22831021",
      "startMs": 1740073620000,
      "endMs": 1740085200000,
      "startLocation": {
        "latitude": 40.670517,
        "longitude": -111.883529
      },
      "endLocation": {
        "latitude": 40.736801,
        "longitude": -111.796068
      },
      "startAddress": "6330 Brown Freeway Suite 569",
      "endAddress": "862 Rodgers Falls Suite 090",
      "startCoords": {
        "latitude": 40.732436,
        "longitude": -111.800724
      },
      "endCoords": {
        "latitude": 40.666895,
        "longitude": -111.834444
      },
      "distanceMeters": 46567.9,
      "durationMs": 11580000,
      "drivingDurationMs": 9264000,
      "idlingDurationMs": 2316000,
      "fuelConsumedMl": 5920,
      "fuelConsumedGallons": 1.564,
      "maxSpeedMph": 51.6,
      "averageSpeedMph": 9.0,
      "safetyEvents": [],
      "_no_driver_login": false,
      "_fuel_note": ""
    },
    {
      "id": "trip_48291022_20250220_004",
      "vehicleId": "48291022",
      "driverId": "22831021",
      "startMs": 1740045900000,
      "endMs": 1740058816601,
      "startLocation": {
        "latitude": 40.749301,
        "longitude": -111.929735
      },
      "endLocation": {
        "latitude": 40.743789,
        "longitude": -111.89978
      },
      "startAddress": "22771 Kimberly Inlet Apt. 934",
      "endAddress": "0637 Kevin Rapids Suite 142",
      "startCoords": {
        "latitude": 40.759908,
        "longitude": -111.87718
      },
      "endCoords": {
        "latitude": 40.681741,
        "longitude": -111.794911
      },
      "distanceMeters": 82845.3,
      "durationMs": 12916601,
      "drivingDurationMs": 12075247,
      "idlingDurationMs": 841355,
      "fuelConsumedMl": 10535,
      "fuelConsumedGallons": 2.783,
      "maxSpeedMph": 61.4,
      "averageSpeedMph": 14.3,
      "safetyEvents": [],
      "_no_driver_login": false,
      "_fuel_note": ""
    },
    {
      "id": "trip_48291022_20250220_005",
      "vehicleId": "48291022",
      "driverId": "22831021",
      "startMs": 1740039240000,
      "endMs": 1740044481244,
      "startLocation": {
        "latitude": 40.701064,
        "longitude": -111.851829
      },
      "endLocation": {
        "latitude": 40.684004,
        "longitude": -111.781831
      },
      "startAddress": "40941 Richards Plaza",
      "endAddress": "730 Diaz Cliff",
      "startCoords": {
        "latitude": 40.703551,
        "longitude": -111.778238
      },
      "endCoords": {
        "latitude": 40.666125,
        "longitude": -111.921123
      },
      "distanceMeters": 26586.0,
      "durationMs": 5241244,
      "drivingDurationMs": 4921140,
      "idlingDurationMs": 320104,
      "fuelConsumedMl": 3380,
      "fuelConsumedGallons": 0.893,
      "maxSpeedMph": 53.4,
      "averageSpeedMph": 11.3,
      "safetyEvents": [],
      "_no_driver_login": false,
      "_fuel_note": ""
    },
    {
      "id": "trip_48291022_20250220_006",
      "vehicleId": "48291022",
      "driverId": "22831021",
      "startMs": 1740061980000,
      "endMs": 1740063084680,
      "startLocation": {
        "latitude": 40.743626,
        "longitude": -111.934437
      },
      "endLocation": {
        "latitude": 40.756265,
        "longitude": -111.797427
      },
      "startAddress": "76315 Zhang Ridges Suite 822",
      "endAddress": "0146 Brown Skyway",
      "startCoords": {
        "latitude": 40.793138,
        "longitude": -111.788676
      },
      "endCoords": {
        "latitude": 40.775586,
        "longitude": -111.811286
      },
      "distanceMeters": 7401.5,
      "durationMs": 1104681,
      "drivingDurationMs": 909251,
      "idlingDurationMs": 195430,
      "fuelConsumedMl": 943,
      "fuelConsumedGallons": 0.249,
      "maxSpeedMph": 52.7,
      "averageSpeedMph": 15.0,
      "safetyEvents": [],
      "_no_driver_login": false,
      "_fuel_note": ""
    },
    {
      "id": "trip_48291022_20250221_001",
      "vehicleId": "48291022",
      "driverId": "22831021",
      "startMs": 1740125100000,
      "endMs": 1740135865842,
      "startLocation": {
        "latitude": 40.742385,
        "longitude": -111.872122
      },
      "endLocation": {
        "latitude": 40.731007,
        "longitude": -111.894794
      },
      "startAddress": "80577 Hughes Port",
      "endAddress": "144 Steven Plaza",
      "startCoords": {
        "latitude": 40.779323,
        "longitude": -111.956132
      },
      "endCoords": {
        "latitude": 40.789832,
        "longitude": -111.895116
      },
      "distanceMeters": 56593.5,
      "durationMs": 10765843,
      "drivingDurationMs": 9251345,
      "idlingDurationMs": 1514498,
      "fuelConsumedMl": 7196,
      "fuelConsumedGallons": 1.901,
      "maxSpeedMph": 48.8,
      "averageSpeedMph": 11.8,
      "safetyEvents": [],
      "_no_driver_login": false,
      "_fuel_note": "QUIRK 5: fuelConsumedGallons is in US gallons. Multiply by 3.785 for litres. Samsara does not link fuel to specific Onfleet tasks."
    },
    {
      "id": "trip_48291022_20250221_002",
      "vehicleId": "48291022",
      "driverId": "22831021",
      "startMs": 1740143880000,
      "endMs": 1740154293535,
      "startLocation": {
        "latitude": 40.728934,
        "longitude": -111.891852
      },
      "endLocation": {
        "latitude": 40.662843,
        "longitude": -111.810087
      },
      "startAddress": "641 Franco Lights Suite 346",
      "endAddress": "3283 Denise Ford Apt. 588",
      "startCoords": {
        "latitude": 40.757215,
        "longitude": -111.820548
      },
      "endCoords": {
        "latitude": 40.719801,
        "longitude": -111.814833
      },
      "distanceMeters": 61227.3,
      "durationMs": 10413535,
      "drivingDurationMs": 9451349,
      "idlingDurationMs": 962186,
      "fuelConsumedMl": 7783,
      "fuelConsumedGallons": 2.056,
      "maxSpeedMph": 43.0,
      "averageSpeedMph": 13.2,
      "safetyEvents": [],
      "_no_driver_login": false,
      "_fuel_note": ""
    },
    {
      "id": "trip_48291022_20250221_003",
      "vehicleId": "48291022",
      "driverId": null,
      "startMs": 1740122280000,
      "endMs": 1740124476162,
      "startLocation": {
        "latitude": 40.753432,
        "longitude": -111.879392
      },
      "endLocation": {
        "latitude": 40.696563,
        "longitude": -111.840553
      },
      "startAddress": "3919 Kyle Lake Suite 349",
      "endAddress": "034 Barr Way Apt. 607",
      "startCoords": {
        "latitude": 40.744361,
        "longitude": -111.950626
      },
      "endCoords": {
        "latitude": 40.789208,
        "longitude": -111.808779
      },
      "distanceMeters": 14277.6,
      "durationMs": 2196162,
      "drivingDurationMs": 1833313,
      "idlingDurationMs": 362849,
      "fuelConsumedMl": 1817,
      "fuelConsumedGallons": 0.48,
      "maxSpeedMph": 55.9,
      "averageSpeedMph": 14.5,
      "safetyEvents": [],
      "_no_driver_login": true,
      "_fuel_note": ""
    },
    {
      "id": "trip_48291022_20250222_001",
      "vehicleId": "48291022",
      "driverId": null,
      "startMs": 1740239640000,
      "endMs": 1740241037891,
      "startLocation": {
        "latitude": 40.757182,
        "longitude": -111.832348
      },
      "endLocation": {
        "latitude": 40.755071,
        "longitude": -111.954544
      },
      "startAddress": "22506 Sergio Fort",
      "endAddress": "2307 Bethany Knolls Suite 556",
      "startCoords": {
        "latitude": 40.743996,
        "longitude": -111.915417
      },
      "endCoords": {
        "latitude": 40.687159,
        "longitude": -111.876185
      },
      "distanceMeters": 8702.1,
      "durationMs": 1397891,
      "drivingDurationMs": 1202514,
      "idlingDurationMs": 195378,
      "fuelConsumedMl": 1105,
      "fuelConsumedGallons": 0.292,
      "maxSpeedMph": 31.4,
      "averageSpeedMph": 13.9,
      "safetyEvents": [],
      "_no_driver_login": true,
      "_fuel_note": "QUIRK 5: fuelConsumedGallons is in US gallons. Multiply by 3.785 for litres. Samsara does not link fuel to specific Onfleet tasks."
    },
    {
      "id": "trip_48291022_20250222_002",
      "vehicleId": "48291022",
      "driverId": "22831021",
      "startMs": 1740225660000,
      "endMs": 1740227605624,
      "startLocation": {
        "latitude": 40.739939,
        "longitude": -111.953426
      },
      "endLocation": {
        "latitude": 40.767377,
        "longitude": -111.827592
      },
      "startAddress": "08122 King Land",
      "endAddress": "035 Dalton Mountains Apt. 227",
      "startCoords": {
        "latitude": 40.734993,
        "longitude": -111.879827
      },
      "endCoords": {
        "latitude": 40.729954,
        "longitude": -111.931065
      },
      "distanceMeters": 14375.3,
      "durationMs": 1945625,
      "drivingDurationMs": 1764809,
      "idlingDurationMs": 180816,
      "fuelConsumedMl": 1828,
      "fuelConsumedGallons": 0.483,
      "maxSpeedMph": 41.5,
      "averageSpeedMph": 16.5,
      "safetyEvents": [],
      "_no_driver_login": false,
      "_fuel_note": ""
    },
    {
      "id": "trip_48291022_20250222_003",
      "vehicleId": "48291022",
      "driverId": "22831021",
      "startMs": 1740208200000,
      "endMs": 1740210400090,
      "startLocation": {
        "latitude": 40.689323,
        "longitude": -111.823447
      },
      "endLocation": {
        "latitude": 40.787623,
        "longitude": -111.93369
      },
      "startAddress": "2310 Michael Squares Suite 908",
      "endAddress": "28114 Tiffany Plaza",
      "startCoords": {
        "latitude": 40.732987,
        "longitude": -111.866869
      },
      "endCoords": {
        "latitude": 40.663274,
        "longitude": -111.833542
      },
      "distanceMeters": 10965.8,
      "durationMs": 2200090,
      "drivingDurationMs": 1774796,
      "idlingDurationMs": 425295,
      "fuelConsumedMl": 1393,
      "fuelConsumedGallons": 0.368,
      "maxSpeedMph": 61.2,
      "averageSpeedMph": 11.1,
      "safetyEvents": [],
      "_no_driver_login": false,
      "_fuel_note": ""
    },
    {
      "id": "trip_48291022_20250223_001",
      "vehicleId": "48291022",
      "driverId": "22831021",
      "startMs": 1740327360000,
      "endMs": 1740336735356,
      "startLocation": {
        "latitude": 40.752171,
        "longitude": -111.867933
      },
      "endLocation": {
        "latitude": 40.68483,
        "longitude": -111.781418
      },
      "startAddress": "73525 Cory Roads Suite 885",
      "endAddress": "0198 Adam Village Apt. 063",
      "startCoords": {
        "latitude": 40.717755,
        "longitude": -111.82917
      },
      "endCoords": {
        "latitude": 40.675925,
        "longitude": -111.867921
      },
      "distanceMeters": 77617.4,
      "durationMs": 9375357,
      "drivingDurationMs": 8925214,
      "idlingDurationMs": 450143,
      "fuelConsumedMl": 9869,
      "fuelConsumedGallons": 2.607,
      "maxSpeedMph": 44.3,
      "averageSpeedMph": 18.5,
      "safetyEvents": [],
      "_no_driver_login": false,
      "_fuel_note": "QUIRK 5: fuelConsumedGallons is in US gallons. Multiply by 3.785 for litres. Samsara does not link fuel to specific Onfleet tasks."
    },
    {
      "id": "trip_48291022_20250223_002",
      "vehicleId": "48291022",
      "driverId": "22831021",
      "startMs": 1740335700000,
      "endMs": 1740341104911,
      "startLocation": {
        "latitude": 40.680857,
        "longitude": -111.859679
      },
      "endLocation": {
        "latitude": 40.787174,
        "longitude": -111.881807
      },
      "startAddress": "8538 Campbell Common",
      "endAddress": "7181 Thomas Fields",
      "startCoords": {
        "latitude": 40.661771,
        "longitude": -111.774453
      },
      "endCoords": {
        "latitude": 40.714733,
        "longitude": -111.833478
      },
      "distanceMeters": 32043.5,
      "durationMs": 5404911,
      "drivingDurationMs": 4750369,
      "idlingDurationMs": 654543,
      "fuelConsumedMl": 4073,
      "fuelConsumedGallons": 1.076,
      "maxSpeedMph": 40.8,
      "averageSpeedMph": 13.3,
      "safetyEvents": [],
      "_no_driver_login": false,
      "_fuel_note": ""
    },
    {
      "id": "trip_48291022_20250223_003",
      "vehicleId": "48291022",
      "driverId": "22831021",
      "startMs": 1740320820000,
      "endMs": 1740326226778,
      "startLocation": {
        "latitude": 40.710497,
        "longitude": -111.886527
      },
      "endLocation": {
        "latitude": 40.75199,
        "longitude": -111.780376
      },
      "startAddress": "37371 Brittany Skyway Apt. 020",
      "endAddress": "47304 Hardin Isle Apt. 419",
      "startCoords": {
        "latitude": 40.659665,
        "longitude": -111.93131
      },
      "endCoords": {
        "latitude": 40.79572,
        "longitude": -111.897305
      },
      "distanceMeters": 42203.5,
      "durationMs": 5406779,
      "drivingDurationMs": 5153768,
      "idlingDurationMs": 253011,
      "fuelConsumedMl": 5368,
      "fuelConsumedGallons": 1.418,
      "maxSpeedMph": 29.1,
      "averageSpeedMph": 17.5,
      "safetyEvents": [],
      "_no_driver_login": false,
      "_fuel_note": ""
    },
    {
      "id": "trip_48291022_20250224_001",
      "vehicleId": "48291022",
      "driverId": null,
      "startMs": 1740416220000,
      "endMs": 1740427807342,
      "startLocation": {
        "latitude": 40.667426,
        "longitude": -111.864228
      },
      "endLocation": {
        "latitude": 40.670844,
        "longitude": -111.814062
      },
      "startAddress": "361 Williams Freeway",
      "endAddress": "6656 Mccullough Burg",
      "startCoords": {
        "latitude": 40.735215,
        "longitude": -111.810068
      },
      "endCoords": {
        "latitude": 40.763093,
        "longitude": -111.878578
      },
      "distanceMeters": 75512.7,
      "durationMs": 11587343,
      "drivingDurationMs": 11227588,
      "idlingDurationMs": 359755,
      "fuelConsumedMl": 9600,
      "fuelConsumedGallons": 2.536,
      "maxSpeedMph": 40.4,
      "averageSpeedMph": 14.6,
      "safetyEvents": [],
      "_no_driver_login": true,
      "_fuel_note": "QUIRK 5: fuelConsumedGallons is in US gallons. Multiply by 3.785 for litres. Samsara does not link fuel to specific Onfleet tasks."
    },
    {
      "id": "trip_48291022_20250224_002",
      "vehicleId": "48291022",
      "driverId": null,
      "startMs": 1740404700000,
      "endMs": 1740420694741,
      "startLocation": {
        "latitude": 40.773817,
        "longitude": -111.953091
      },
      "endLocation": {
        "latitude": 40.769691,
        "longitude": -111.850041
      },
      "startAddress": "80415 Nelson Groves Suite 104",
      "endAddress": "641 Kent Brook",
      "startCoords": {
        "latitude": 40.708933,
        "longitude": -111.924453
      },
      "endCoords": {
        "latitude": 40.769815,
        "longitude": -111.931533
      },
      "distanceMeters": 74138.7,
      "durationMs": 15994741,
      "drivingDurationMs": 14372335,
      "idlingDurationMs": 1622407,
      "fuelConsumedMl": 9426,
      "fuelConsumedGallons": 2.49,
      "maxSpeedMph": 33.5,
      "averageSpeedMph": 10.4,
      "safetyEvents": [],
      "_no_driver_login": true,
      "_fuel_note": ""
    },
    {
      "id": "trip_48291022_20250224_003",
      "vehicleId": "48291022",
      "driverId": "22831021",
      "startMs": 1740397020000,
      "endMs": 1740407656677,
      "startLocation": {
        "latitude": 40.763268,
        "longitude": -111.955373
      },
      "endLocation": {
        "latitude": 40.774083,
        "longitude": -111.896187
      },
      "startAddress": "80833 Nathan Inlet Suite 911",
      "endAddress": "492 Leonard Forge",
      "startCoords": {
        "latitude": 40.766032,
        "longitude": -111.774281
      },
      "endCoords": {
        "latitude": 40.721677,
        "longitude": -111.86075
      },
      "distanceMeters": 72692.2,
      "durationMs": 10636677,
      "drivingDurationMs": 8754297,
      "idlingDurationMs": 1882381,
      "fuelConsumedMl": 9244,
      "fuelConsumedGallons": 2.442,
      "maxSpeedMph": 67.2,
      "averageSpeedMph": 15.3,
      "safetyEvents": [
        {
          "type": "speeding",
          "startMs": 1740400080000,
          "maxSpeedMph": 67.2
        }
      ],
      "_no_driver_login": false,
      "_fuel_note": ""
    },
    {
      "id": "trip_48291022_20250224_004",
      "vehicleId": "48291022",
      "driverId": "22831021",
      "startMs": 1740392700000,
      "endMs": 1740402194520,
      "startLocation": {
        "latitude": 40.668953,
        "longitude": -111.89446
      },
      "endLocation": {
        "latitude": 40.708786,
        "longitude": -111.824554
      },
      "startAddress": "26958 Fowler Neck Suite 240",
      "endAddress": "895 Erin Junctions Suite 152",
      "startCoords": {
        "latitude": 40.778603,
        "longitude": -111.914703
      },
      "endCoords": {
        "latitude": 40.728877,
        "longitude": -111.916859
      },
      "distanceMeters": 55642.8,
      "durationMs": 9494520,
      "drivingDurationMs": 8737238,
      "idlingDurationMs": 757282,
      "fuelConsumedMl": 7075,
      "fuelConsumedGallons": 1.869,
      "maxSpeedMph": 37.7,
      "averageSpeedMph": 13.1,
      "safetyEvents": [],
      "_no_driver_login": false,
      "_fuel_note": ""
    },
    {
      "id": "trip_48291022_20250224_005",
      "vehicleId": "48291022",
      "driverId": "22831021",
      "startMs": 1740417960000,
      "endMs": 1740422745238,
      "startLocation": {
        "latitude": 40.683578,
        "longitude": -111.8456
      },
      "endLocation": {
        "latitude": 40.768104,
        "longitude": -111.814993
      },
      "startAddress": "48826 Mills Valley",
      "endAddress": "87864 Lynn Walks",
      "startCoords": {
        "latitude": 40.682973,
        "longitude": -111.778305
      },
      "endCoords": {
        "latitude": 40.735403,
        "longitude": -111.933659
      },
      "distanceMeters": 28033.8,
      "durationMs": 4785239,
      "drivingDurationMs": 4485169,
      "idlingDurationMs": 300070,
      "fuelConsumedMl": 3566,
      "fuelConsumedGallons": 0.942,
      "maxSpeedMph": 40.4,
      "averageSpeedMph": 13.1,
      "safetyEvents": [],
      "_no_driver_login": false,
      "_fuel_note": ""
    },
    {
      "id": "trip_48291022_20250225_001",
      "vehicleId": "48291022",
      "driverId": "22831021",
      "startMs": 1740502560000,
      "endMs": 1740510251210,
      "startLocation": {
        "latitude": 40.676251,
        "longitude": -111.890924
      },
      "endLocation": {
        "latitude": 40.759438,
        "longitude": -111.808778
      },
      "startAddress": "254 Hall Light Apt. 754",
      "endAddress": "9412 Martin Summit",
      "startCoords": {
        "latitude": 40.662179,
        "longitude": -111.812273
      },
      "endCoords": {
        "latitude": 40.69211,
        "longitude": -111.94186
      },
      "distanceMeters": 50819.1,
      "durationMs": 7691211,
      "drivingDurationMs": 6273130,
      "idlingDurationMs": 1418081,
      "fuelConsumedMl": 6462,
      "fuelConsumedGallons": 1.707,
      "maxSpeedMph": 40.5,
      "averageSpeedMph": 14.8,
      "safetyEvents": [],
      "_no_driver_login": false,
      "_fuel_note": "QUIRK 5: fuelConsumedGallons is in US gallons. Multiply by 3.785 for litres. Samsara does not link fuel to specific Onfleet tasks."
    },
    {
      "id": "trip_48291022_20250225_002",
      "vehicleId": "48291022",
      "driverId": "22831021",
      "startMs": 1740494460000,
      "endMs": 1740509946936,
      "startLocation": {
        "latitude": 40.721264,
        "longitude": -111.844303
      },
      "endLocation": {
        "latitude": 40.752073,
        "longitude": -111.862463
      },
      "startAddress": "293 Vaughn Circle",
      "endAddress": "39238 Cynthia Tunnel Apt. 991",
      "startCoords": {
        "latitude": 40.728347,
        "longitude": -111.930046
      },
      "endCoords": {
        "latitude": 40.716773,
        "longitude": -111.787281
      },
      "distanceMeters": 70356.5,
      "durationMs": 15486936,
      "drivingDurationMs": 13161771,
      "idlingDurationMs": 2325165,
      "fuelConsumedMl": 8945,
      "fuelConsumedGallons": 2.363,
      "maxSpeedMph": 28.7,
      "averageSpeedMph": 10.2,
      "safetyEvents": [],
      "_no_driver_login": false,
      "_fuel_note": ""
    },
    {
      "id": "trip_48291022_20250225_003",
      "vehicleId": "48291022",
      "driverId": "22831021",
      "startMs": 1740504540000,
      "endMs": 1740517200000,
      "startLocation": {
        "latitude": 40.675434,
        "longitude": -111.911261
      },
      "endLocation": {
        "latitude": 40.726968,
        "longitude": -111.831171
      },
      "startAddress": "68925 Evans Rue",
      "endAddress": "173 Nicolas Courts Suite 840",
      "startCoords": {
        "latitude": 40.715153,
        "longitude": -111.833161
      },
      "endCoords": {
        "latitude": 40.747232,
        "longitude": -111.858852
      },
      "distanceMeters": 70013.9,
      "durationMs": 12660000,
      "drivingDurationMs": 10227812,
      "idlingDurationMs": 2432188,
      "fuelConsumedMl": 8903,
      "fuelConsumedGallons": 2.352,
      "maxSpeedMph": 70.6,
      "averageSpeedMph": 12.4,
      "safetyEvents": [
        {
          "type": "speeding",
          "startMs": 1740509400000,
          "maxSpeedMph": 70.6
        }
      ],
      "_no_driver_login": false,
      "_fuel_note": ""
    },
    {
      "id": "trip_48291022_20250225_004",
      "vehicleId": "48291022",
      "driverId": "22831021",
      "startMs": 1740497100000,
      "endMs": 1740501932293,
      "startLocation": {
        "latitude": 40.730474,
        "longitude": -111.957495
      },
      "endLocation": {
        "latitude": 40.750277,
        "longitude": -111.931822
      },
      "startAddress": "620 Bradley Parkways Apt. 285",
      "endAddress": "75320 Heidi Ways",
      "startCoords": {
        "latitude": 40.799468,
        "longitude": -111.801755
      },
      "endCoords": {
        "latitude": 40.751647,
        "longitude": -111.900263
      },
      "distanceMeters": 30087.2,
      "durationMs": 4832293,
      "drivingDurationMs": 4311493,
      "idlingDurationMs": 520800,
      "fuelConsumedMl": 3827,
      "fuelConsumedGallons": 1.011,
      "maxSpeedMph": 66.0,
      "averageSpeedMph": 13.9,
      "safetyEvents": [
        {
          "type": "speeding",
          "startMs": 1740501780000,
          "maxSpeedMph": 66.0
        }
      ],
      "_no_driver_login": false,
      "_fuel_note": ""
    },
    {
      "id": "trip_48291022_20250226_001",
      "vehicleId": "48291022",
      "driverId": "22831021",
      "startMs": 1740549780000,
      "endMs": 1740558476439,
      "startLocation": {
        "latitude": 40.681726,
        "longitude": -111.905536
      },
      "endLocation": {
        "latitude": 40.787466,
        "longitude": -111.826878
      },
      "startAddress": "3629 Jackson Summit",
      "endAddress": "8408 Benjamin Lake",
      "startCoords": {
        "latitude": 40.723011,
        "longitude": -111.888188
      },
      "endCoords": {
        "latitude": 40.739827,
        "longitude": -111.836323
      },
      "distanceMeters": 60204.6,
      "durationMs": 8696440,
      "drivingDurationMs": 7130442,
      "idlingDurationMs": 1565997,
      "fuelConsumedMl": 7654,
      "fuelConsumedGallons": 2.022,
      "maxSpeedMph": 46.2,
      "averageSpeedMph": 15.5,
      "safetyEvents": [],
      "_no_driver_login": false,
      "_fuel_note": "QUIRK 5: fuelConsumedGallons is in US gallons. Multiply by 3.785 for litres. Samsara does not link fuel to specific Onfleet tasks."
    },
    {
      "id": "trip_48291022_20250226_002",
      "vehicleId": "48291022",
      "driverId": null,
      "startMs": 1740593040000,
      "endMs": 1740594974195,
      "startLocation": {
        "latitude": 40.682134,
        "longitude": -111.894364
      },
      "endLocation": {
        "latitude": 40.74687,
        "longitude": -111.848065
      },
      "startAddress": "90448 Kristina Loaf Suite 100",
      "endAddress": "216 Randall Glen",
      "startCoords": {
        "latitude": 40.741501,
        "longitude": -111.874874
      },
      "endCoords": {
        "latitude": 40.767874,
        "longitude": -111.95179
      },
      "distanceMeters": 11476.3,
      "durationMs": 1934196,
      "drivingDurationMs": 1728064,
      "idlingDurationMs": 206132,
      "fuelConsumedMl": 1457,
      "fuelConsumedGallons": 0.385,
      "maxSpeedMph": 62.1,
      "averageSpeedMph": 13.3,
      "safetyEvents": [],
      "_no_driver_login": true,
      "_fuel_note": ""
    },
    {
      "id": "trip_48291022_20250227_001",
      "vehicleId": "48291022",
      "driverId": "22831021",
      "startMs": 1740639120000,
      "endMs": 1740643283708,
      "startLocation": {
        "latitude": 40.731296,
        "longitude": -111.776406
      },
      "endLocation": {
        "latitude": 40.762667,
        "longitude": -111.896008
      },
      "startAddress": "131 William Mountains",
      "endAddress": "948 Knapp Course",
      "startCoords": {
        "latitude": 40.739122,
        "longitude": -111.956572
      },
      "endCoords": {
        "latitude": 40.711016,
        "longitude": -111.935258
      },
      "distanceMeters": 19983.4,
      "durationMs": 4163708,
      "drivingDurationMs": 3353185,
      "idlingDurationMs": 810523,
      "fuelConsumedMl": 2540,
      "fuelConsumedGallons": 0.671,
      "maxSpeedMph": 45.7,
      "averageSpeedMph": 10.7,
      "safetyEvents": [],
      "_no_driver_login": false,
      "_fuel_note": "QUIRK 5: fuelConsumedGallons is in US gallons. Multiply by 3.785 for litres. Samsara does not link fuel to specific Onfleet tasks."
    },
    {
      "id": "trip_48291022_20250227_002",
      "vehicleId": "48291022",
      "driverId": "22831021",
      "startMs": 1740660480000,
      "endMs": 1740667542415,
      "startLocation": {
        "latitude": 40.737019,
        "longitude": -111.933373
      },
      "endLocation": {
        "latitude": 40.683512,
        "longitude": -111.842206
      },
      "startAddress": "571 Snyder Brook Apt. 812",
      "endAddress": "022 Green Station Suite 943",
      "startCoords": {
        "latitude": 40.682477,
        "longitude": -111.875209
      },
      "endCoords": {
        "latitude": 40.783548,
        "longitude": -111.903202
      },
      "distanceMeters": 41667.6,
      "durationMs": 7062415,
      "drivingDurationMs": 6104621,
      "idlingDurationMs": 957794,
      "fuelConsumedMl": 5300,
      "fuelConsumedGallons": 1.4,
      "maxSpeedMph": 53.4,
      "averageSpeedMph": 13.2,
      "safetyEvents": [],
      "_no_driver_login": false,
      "_fuel_note": ""
    },
    {
      "id": "trip_48291022_20250227_003",
      "vehicleId": "48291022",
      "driverId": "22831021",
      "startMs": 1740645420000,
      "endMs": 1740650660800,
      "startLocation": {
        "latitude": 40.736459,
        "longitude": -111.861924
      },
      "endLocation": {
        "latitude": 40.742126,
        "longitude": -111.828038
      },
      "startAddress": "994 Wang Causeway",
      "endAddress": "628 Vazquez Junctions",
      "startCoords": {
        "latitude": 40.770435,
        "longitude": -111.850437
      },
      "endCoords": {
        "latitude": 40.677991,
        "longitude": -111.907436
      },
      "distanceMeters": 35656.1,
      "durationMs": 5240801,
      "drivingDurationMs": 4602557,
      "idlingDurationMs": 638244,
      "fuelConsumedMl": 4535,
      "fuelConsumedGallons": 1.198,
      "maxSpeedMph": 31.0,
      "averageSpeedMph": 15.2,
      "safetyEvents": [],
      "_no_driver_login": false,
      "_fuel_note": ""
    },
    {
      "id": "trip_48291022_20250228_001",
      "vehicleId": "48291022",
      "driverId": "22831021",
      "startMs": 1740749760000,
      "endMs": 1740754519440,
      "startLocation": {
        "latitude": 40.769909,
        "longitude": -111.87724
      },
      "endLocation": {
        "latitude": 40.745306,
        "longitude": -111.89938
      },
      "startAddress": "893 Samantha Vista",
      "endAddress": "35590 Ramirez Knolls",
      "startCoords": {
        "latitude": 40.723709,
        "longitude": -111.901148
      },
      "endCoords": {
        "latitude": 40.793006,
        "longitude": -111.842695
      },
      "distanceMeters": 36424.3,
      "durationMs": 4759441,
      "drivingDurationMs": 4212117,
      "idlingDurationMs": 547324,
      "fuelConsumedMl": 4630,
      "fuelConsumedGallons": 1.223,
      "maxSpeedMph": 68.7,
      "averageSpeedMph": 17.1,
      "safetyEvents": [
        {
          "type": "speeding",
          "startMs": 1740751200000,
          "maxSpeedMph": 68.7
        }
      ],
      "_no_driver_login": false,
      "_fuel_note": "QUIRK 5: fuelConsumedGallons is in US gallons. Multiply by 3.785 for litres. Samsara does not link fuel to specific Onfleet tasks."
    },
    {
      "id": "trip_48291022_20250228_002",
      "vehicleId": "48291022",
      "driverId": "22831021",
      "startMs": 1740741360000,
      "endMs": 1740755636542,
      "startLocation": {
        "latitude": 40.743888,
        "longitude": -111.787827
      },
      "endLocation": {
        "latitude": 40.657692,
        "longitude": -111.927246
      },
      "startAddress": "812 Parker Glen",
      "endAddress": "9005 Taylor Rue",
      "startCoords": {
        "latitude": 40.762533,
        "longitude": -111.899186
      },