{
  "vehicleId": "48291004",
  "vehicleName": "DEN-CAR-05",
  "month": "2025_06",
  "pagination": {
    "endCursor": "trip_48291004_20250630_003",
    "hasNextPage": false
  },
  "trips": [
    {
      "id": "trip_48291004_20250601_001",
      "vehicleId": "48291004",
      "driverId": "22831003",
      "startMs": 1748791620000,
      "endMs": 1748795542969,
      "startLocation": {
        "latitude": 39.6884,
        "longitude": -104.926451
      },
      "endLocation": {
        "latitude": 39.707466,
        "longitude": -105.033851
      },
      "startAddress": "6074 David Wall",
      "endAddress": "66707 Robinson Land Apt. 460",
      "startCoords": {
        "latitude": 39.768838,
        "longitude": -104.971389
      },
      "endCoords": {
        "latitude": 39.75047,
        "longitude": -104.958645
      },
      "distanceMeters": 29614.4,
      "durationMs": 3922970,
      "drivingDurationMs": 3509913,
      "idlingDurationMs": 413057,
      "fuelConsumedMl": 3766,
      "fuelConsumedGallons": 0.995,
      "maxSpeedMph": 62.3,
      "averageSpeedMph": 16.9,
      "safetyEvents": [],
      "_no_driver_login": false,
      "_fuel_note": "QUIRK 5: fuelConsumedGallons is in US gallons. Multiply by 3.785 for litres. Samsara does not link fuel to specific Onfleet tasks."
    },
    {
      "id": "trip_48291004_20250601_002",
      "vehicleId": "48291004",
      "driverId": "22831003",
      "startMs": 1748781840000,
      "endMs": 1748791946507,
      "startLocation": {
        "latitude": 39.764573,
        "longitude": -104.942131
      },
      "endLocation": {
        "latitude": 39.820374,
        "longitude": -104.951918
      },
      "startAddress": "267 Moore Parkway Suite 564",
      "endAddress": "48031 Morris Ferry Apt. 602",
      "startCoords": {
        "latitude": 39.685889,
        "longitude": -105.010953
      },
      "endCoords": {
        "latitude": 39.735113,
        "longitude": -105.056878
      },
      "distanceMeters": 64069.3,
      "durationMs": 10106507,
      "drivingDurationMs": 9873644,
      "idlingDurationMs": 232863,
      "fuelConsumedMl": 8146,
      "fuelConsumedGallons": 2.152,
      "maxSpeedMph": 55.0,
      "averageSpeedMph": 14.2,
      "safetyEvents": [],
      "_no_driver_login": false,
      "_fuel_note": ""
    },
    {
      "id": "trip_48291004_20250602_001",
      "vehicleId": "48291004",
      "driverId": "22831003",
      "startMs": 1748874060000,
      "endMs": 1748880671791,
      "startLocation": {
        "latitude": 39.792828,
        "longitude": -105.010592
      },
      "endLocation": {
        "latitude": 39.719933,
        "longitude": -104.913473
      },
      "startAddress": "8461 Amanda Ports",
      "endAddress": "459 Guzman Knoll Apt. 334",
      "startCoords": {
        "latitude": 39.73855,
        "longitude": -104.983943
      },
      "endCoords": {
        "latitude": 39.767152,
        "longitude": -105.062256
      },
      "distanceMeters": 39063.9,
      "durationMs": 6611792,
      "drivingDurationMs": 5753278,
      "idlingDurationMs": 858514,
      "fuelConsumedMl": 4966,
      "fuelConsumedGallons": 1.312,
      "maxSpeedMph": 38.3,
      "averageSpeedMph": 13.2,
      "safetyEvents": [],
      "_no_driver_login": false,
      "_fuel_note": "QUIRK 5: fuelConsumedGallons is in US gallons. Multiply by 3.785 for litres. Samsara does not link fuel to specific Onfleet tasks."
    },
    {
      "id": "trip_48291004_20250602_002",
      "vehicleId": "48291004",
      "driverId": "22831003",
      "startMs": 1748881020000,
      "endMs": 1748885664140,
      "startLocation": {
        "latitude": 39.788745,
        "longitude": -104.903845
      },
      "endLocation": {
        "latitude": 39.760188,
        "longitude": -104.962104
      },
      "startAddress": "44370 Steven Center",
      "endAddress": "848 Berg Isle",
      "startCoords": {
        "latitude": 39.748259,
        "longitude": -105.087279
      },
      "endCoords": {
        "latitude": 39.743016,
        "longitude": -104.967011
      },
      "distanceMeters": 27810.3,
      "durationMs": 4644140,
      "drivingDurationMs": 4332602,
      "idlingDurationMs": 311538,
      "fuelConsumedMl": 3536,
      "fuelConsumedGallons": 0.934,
      "maxSpeedMph": 55.2,
      "averageSpeedMph": 13.4,
      "safetyEvents": [],
      "_no_driver_login": false,
      "_fuel_note": ""
    },
    {
      "id": "trip_48291004_20250602_003",
      "vehicleId": "48291004",
      "driverId": "22831003",
      "startMs": 1748879520000,
      "endMs": 1748885868117,
      "startLocation": {
        "latitude": 39.810759,
        "longitude": -105.06056
      },
      "endLocation": {
        "latitude": 39.776904,
        "longitude": -104.917507
      },
      "startAddress": "815 Vargas Green Suite 815",
      "endAddress": "24607 Lori Spur",
      "startCoords": {
        "latitude": 39.687181,
        "longitude": -104.942531
      },
      "endCoords": {
        "latitude": 39.75639,
        "longitude": -105.046714
      },
      "distanceMeters": 47752.0,
      "durationMs": 6348117,
      "drivingDurationMs": 6155011,
      "idlingDurationMs": 193106,
      "fuelConsumedMl": 6072,
      "fuelConsumedGallons": 1.604,
      "maxSpeedMph": 67.7,
      "averageSpeedMph": 16.8,
      "safetyEvents": [
        {
          "type": "speeding",
          "startMs": 1748884740000,
          "maxSpeedMph": 67.7
        }
      ],
      "_no_driver_login": false,
      "_fuel_note": ""
    },
    {
      "id": "trip_48291004_20250602_004",
      "vehicleId": "48291004",
      "driverId": "22831003",
      "startMs": 1748859060000,
      "endMs": 1748864466086,
      "startLocation": {
        "latitude": 39.728549,
        "longitude": -105.08738
      },
      "endLocation": {
        "latitude": 39.699729,
        "longitude": -104.927081
      },
      "startAddress": "394 Meadows Ferry Suite 508",
      "endAddress": "10142 Carter Locks Apt. 334",
      "startCoords": {
        "latitude": 39.788803,
        "longitude": -105.085641
      },
      "endCoords": {
        "latitude": 39.715747,
        "longitude": -105.041282
      },
      "distanceMeters": 27097.7,
      "durationMs": 5406086,
      "drivingDurationMs": 4326802,
      "idlingDurationMs": 1079284,
      "fuelConsumedMl": 3445,
      "fuelConsumedGallons": 0.91,
      "maxSpeedMph": 67.7,
      "averageSpeedMph": 11.2,
      "safetyEvents": [
        {
          "type": "speeding",
          "startMs": 1748859420000,
          "maxSpeedMph": 67.7
        }
      ],
      "_no_driver_login": false,
      "_fuel_note": ""
    },
    {
      "id": "trip_48291004_20250602_005",
      "vehicleId": "48291004",
      "driverId": "22831003",
      "startMs": 1748871360000,
      "endMs": 1748876532356,
      "startLocation": {
        "latitude": 39.72935,
        "longitude": -104.905707
      },
      "endLocation": {
        "latitude": 39.780506,
        "longitude": -105.01534
      },
      "startAddress": "16640 Jill Via",
      "endAddress": "22434 Vanessa Square Suite 349",
      "startCoords": {
        "latitude": 39.792885,
        "longitude": -105.045835
      },
      "endCoords": {
        "latitude": 39.703923,
        "longitude": -105.032024
      },
      "distanceMeters": 35193.2,
      "durationMs": 5172356,
      "drivingDurationMs": 4847388,
      "idlingDurationMs": 324968,
      "fuelConsumedMl": 4474,
      "fuelConsumedGallons": 1.182,
      "maxSpeedMph": 28.4,
      "averageSpeedMph": 15.2,
      "safetyEvents": [],
      "_no_driver_login": false,
      "_fuel_note": ""
    },
    {
      "id": "trip_48291004_20250603_001",
      "vehicleId": "48291004",
      "driverId": "22831003",
      "startMs": 1748931060000,
      "endMs": 1748935095289,
      "startLocation": {
        "latitude": 39.72139,
        "longitude": -105.005453
      },
      "endLocation": {
        "latitude": 39.735642,
        "longitude": -104.980809
      },
      "startAddress": "8912 Casey Causeway Apt. 091",
      "endAddress": "7999 Julie Fort Apt. 819",
      "startCoords": {
        "latitude": 39.818704,
        "longitude": -105.054015
      },
      "endCoords": {
        "latitude": 39.753252,
        "longitude": -104.910569
      },
      "distanceMeters": 29225.2,
      "durationMs": 4035290,
      "drivingDurationMs": 3462421,
      "idlingDurationMs": 572868,
      "fuelConsumedMl": 3717,
      "fuelConsumedGallons": 0.982,
      "maxSpeedMph": 37.2,
      "averageSpeedMph": 16.2,
      "safetyEvents": [],
      "_no_driver_login": false,
      "_fuel_note": "QUIRK 5: fuelConsumedGallons is in US gallons. Multiply by 3.785 for litres. Samsara does not link fuel to specific Onfleet tasks."
    },
    {
      "id": "trip_48291004_20250603_002",
      "vehicleId": "48291004",
      "driverId": "22831003",
      "startMs": 1748936940000,
      "endMs": 1748939677117,
      "startLocation": {
        "latitude": 39.738769,
        "longitude": -104.905525
      },
      "endLocation": {
        "latitude": 39.753755,
        "longitude": -104.9912
      },
      "startAddress": "75044 Holmes Throughway",
      "endAddress": "4157 Omar Glen Suite 706",
      "startCoords": {
        "latitude": 39.806147,
        "longitude": -105.058549
      },
      "endCoords": {
        "latitude": 39.784508,
        "longitude": -104.905204
      },
      "distanceMeters": 16628.1,
      "durationMs": 2737118,
      "drivingDurationMs": 2205911,
      "idlingDurationMs": 531207,
      "fuelConsumedMl": 2112,
      "fuelConsumedGallons": 0.558,
      "maxSpeedMph": 44.4,
      "averageSpeedMph": 13.6,
      "safetyEvents": [],
      "_no_driver_login": false,
      "_fuel_note": ""
    },
    {
      "id": "trip_48291004_20250603_003",
      "vehicleId": "48291004",
      "driverId": "22831003",
      "startMs": 1748956800000,
      "endMs": 1748967500940,
      "startLocation": {
        "latitude": 39.771413,
        "longitude": -104.973319
      },
      "endLocation": {
        "latitude": 39.78512,
        "longitude": -104.997814
      },
      "startAddress": "17033 Thompson Stream",
      "endAddress": "02417 Rodriguez Passage",
      "startCoords": {
        "latitude": 39.781076,
        "longitude": -105.060699
      },
      "endCoords": {
        "latitude": 39.690069,
        "longitude": -105.022385
      },
      "distanceMeters": 57386.1,
      "durationMs": 10700940,
      "drivingDurationMs": 8988957,
      "idlingDurationMs": 1711983,
      "fuelConsumedMl": 7294,
      "fuelConsumedGallons": 1.927,
      "maxSpeedMph": 57.3,
      "averageSpeedMph": 12.0,
      "safetyEvents": [],
      "_no_driver_login": false,
      "_fuel_note": ""
    },
    {
      "id": "trip_48291004_20250604_001",
      "vehicleId": "48291004",
      "driverId": "22831003",
      "startMs": 1749024360000,
      "endMs": 1749032814462,
      "startLocation": {
        "latitude": 39.69436,
        "longitude": -105.087557
      },
      "endLocation": {
        "latitude": 39.724892,
        "longitude": -104.910909
      },
      "startAddress": "7467 Amy Mall Suite 405",
      "endAddress": "0700 Courtney Mountain",
      "startCoords": {
        "latitude": 39.721178,
        "longitude": -105.008381
      },
      "endCoords": {
        "latitude": 39.809373,
        "longitude": -104.901994
      },
      "distanceMeters": 60136.8,
      "durationMs": 8454462,
      "drivingDurationMs": 7617906,
      "idlingDurationMs": 836557,
      "fuelConsumedMl": 7647,
      "fuelConsumedGallons": 2.02,
      "maxSpeedMph": 40.6,
      "averageSpeedMph": 15.9,
      "safetyEvents": [],
      "_no_driver_login": false,
      "_fuel_note": "QUIRK 5: fuelConsumedGallons is in US gallons. Multiply by 3.785 for litres. Samsara does not link fuel to specific Onfleet tasks."
    },
    {
      "id": "trip_48291004_20250604_002",
      "vehicleId": "48291004",
      "driverId": "22831003",
      "startMs": 1749028260000,
      "endMs": 1749037966516,
      "startLocation": {
        "latitude": 39.809771,
        "longitude": -105.026665
      },
      "endLocation": {
        "latitude": 39.729682,
        "longitude": -105.084307
      },
      "startAddress": "8285 Jones Ports Suite 951",
      "endAddress": "3256 Maddox Stream Apt. 218",
      "startCoords": {
        "latitude": 39.81025,
        "longitude": -104.970281
      },
      "endCoords": {
        "latitude": 39.785847,
        "longitude": -104.955398
      },
      "distanceMeters": 47989.3,
      "durationMs": 9706517,
      "drivingDurationMs": 8477968,
      "idlingDurationMs": 1228549,
      "fuelConsumedMl": 6102,
      "fuelConsumedGallons": 1.612,
      "maxSpeedMph": 47.5,
      "averageSpeedMph": 11.1,
      "safetyEvents": [],
      "_no_driver_login": false,
      "_fuel_note": ""
    },
    {
      "id": "trip_48291004_20250604_003",
      "vehicleId": "48291004",
      "driverId": "22831003",
      "startMs": 1749019740000,
      "endMs": 1749022167840,
      "startLocation": {
        "latitude": 39.818062,
        "longitude": -104.901406
      },
      "endLocation": {
        "latitude": 39.686291,
        "longitude": -105.002817
      },
      "startAddress": "20246 Jason Forest",
      "endAddress": "509 Jacobson Spurs",
      "startCoords": {
        "latitude": 39.792578,
        "longitude": -104.991805
      },
      "endCoords": {
        "latitude": 39.732588,
        "longitude": -105.06154
      },
      "distanceMeters": 16877.9,
      "durationMs": 2427841,
      "drivingDurationMs": 1964385,
      "idlingDurationMs": 463455,
      "fuelConsumedMl": 2146,
      "fuelConsumedGallons": 0.567,
      "maxSpeedMph": 59.8,
      "averageSpeedMph": 15.6,
      "safetyEvents": [],
      "_no_driver_login": false,
      "_fuel_note": ""
    },
    {
      "id": "trip_48291004_20250604_004",
      "vehicleId": "48291004",
      "driverId": "22831003",
      "startMs": 1749051360000,
      "endMs": 1749069161750,
      "startLocation": {
        "latitude": 39.768327,
        "longitude": -104.986238
      },
      "endLocation": {
        "latitude": 39.805376,
        "longitude": -105.055403
      },
      "startAddress": "184 Johnson Manor Suite 415",
      "endAddress": "933 Watson Square Apt. 030",
      "startCoords": {
        "latitude": 39.750471,
        "longitude": -105.036104
      },
      "endCoords": {
        "latitude": 39.816044,
        "longitude": -105.018573
      },
      "distanceMeters": 79585.2,
      "durationMs": 17801750,
      "drivingDurationMs": 15450633,
      "idlingDurationMs": 2351117,
      "fuelConsumedMl": 10118,
      "fuelConsumedGallons": 2.673,
      "maxSpeedMph": 39.2,
      "averageSpeedMph": 10.0,
      "safetyEvents": [],
      "_no_driver_login": false,
      "_fuel_note": ""
    },
    {
      "id": "trip_48291004_20250605_001",
      "vehicleId": "48291004",
      "driverId": "22831003",
      "startMs": 1749149880000,
      "endMs": 1749157200000,
      "startLocation": {
        "latitude": 39.685698,
        "longitude": -105.068682
      },
      "endLocation": {
        "latitude": 39.765333,
        "longitude": -104.905769
      },
      "startAddress": "84750 Lauren Isle Suite 026",
      "endAddress": "5909 Brittany Fall",
      "startCoords": {
        "latitude": 39.689873,
        "longitude": -104.960888
      },
      "endCoords": {
        "latitude": 39.802932,
        "longitude": -104.906273
      },
      "distanceMeters": 36063.2,
      "durationMs": 7320000,
      "drivingDurationMs": 6022538,
      "idlingDurationMs": 1297462,
      "fuelConsumedMl": 4584,
      "fuelConsumedGallons": 1.211,
      "maxSpeedMph": 48.2,
      "averageSpeedMph": 11.0,
      "safetyEvents": [],
      "_no_driver_login": false,
      "_fuel_note": "QUIRK 5: fuelConsumedGallons is in US gallons. Multiply by 3.785 for litres. Samsara does not link fuel to specific Onfleet tasks."
    },
    {
      "id": "trip_48291004_20250605_002",
      "vehicleId": "48291004",
      "driverId": "22831003",
      "startMs": 1749108420000,
      "endMs": 1749119814970,
      "startLocation": {
        "latitude": 39.826908,
        "longitude": -105.019147
      },
      "endLocation": {
        "latitude": 39.764147,
        "longitude": -104.992033
      },
      "startAddress": "2833 Williams Forges",
      "endAddress": "36282 Denise Glen",
      "startCoords": {
        "latitude": 39.777742,
        "longitude": -105.03159
      },
      "endCoords": {
        "latitude": 39.75821,
        "longitude": -105.05164
      },
      "distanceMeters": 75468.0,
      "durationMs": 11394971,
      "drivingDurationMs": 10164333,
      "idlingDurationMs": 1230638,
      "fuelConsumedMl": 9596,
      "fuelConsumedGallons": 2.535,
      "maxSpeedMph": 48.7,
      "averageSpeedMph": 14.8,
      "safetyEvents": [],
      "_no_driver_login": false,
      "_fuel_note": ""
    },
    {
      "id": "trip_48291004_20250605_003",
      "vehicleId": "48291004",
      "driverId": "22831003",
      "startMs": 1749120840000,
      "endMs": 1749125454099,
      "startLocation": {
        "latitude": 39.703676,
        "longitude": -104.926274
      },
      "endLocation": {
        "latitude": 39.765324,
        "longitude": -105.006956
      },
      "startAddress": "3898 Odonnell Falls",
      "endAddress": "2165 Arthur Cliffs",
      "startCoords": {
        "latitude": 39.708538,
        "longitude": -105.046066
      },
      "endCoords": {
        "latitude": 39.698421,
        "longitude": -105.002417
      },
      "distanceMeters": 32760.9,
      "durationMs": 4614099,
      "drivingDurationMs": 4327411,
      "idlingDurationMs": 286689,
      "fuelConsumedMl": 4164,
      "fuelConsumedGallons": 1.1,
      "maxSpeedMph": 65.7,
      "averageSpeedMph": 15.9,
      "safetyEvents": [
        {
          "type": "speeding",
          "startMs": 1749120960000,
          "maxSpeedMph": 65.7
        }
      ],
      "_no_driver_login": false,
      "_fuel_note": ""
    },
    {
      "id": "trip_48291004_20250606_001",
      "vehicleId": "48291004",
      "driverId": "22831003",
      "startMs": 1749220320000,
      "endMs": 1749221345091,
      "startLocation": {
        "latitude": 39.773369,
        "longitude": -104.917017
      },
      "endLocation": {
        "latitude": 39.822048,
        "longitude": -104.917499
      },
      "startAddress": "635 Chapman Heights",
      "endAddress": "6666 Nguyen Inlet Apt. 061",
      "startCoords": {
        "latitude": 39.765329,
        "longitude": -104.948182
      },
      "endCoords": {
        "latitude": 39.700523,
        "longitude": -104.909621
      },
      "distanceMeters": 6329.0,
      "durationMs": 1025092,
      "drivingDurationMs": 837955,
      "idlingDurationMs": 187137,
      "fuelConsumedMl": 806,
      "fuelConsumedGallons": 0.213,
      "maxSpeedMph": 71.0,
      "averageSpeedMph": 13.8,
      "safetyEvents": [
        {
          "type": "speeding",
          "startMs": 1749220680000,
          "maxSpeedMph": 71.0
        }
      ],
      "_no_driver_login": false,
      "_fuel_note": "QUIRK 5: fuelConsumedGallons is in US gallons. Multiply by 3.785 for litres. Samsara does not link fuel to specific Onfleet tasks."
    },
    {
      "id": "trip_48291004_20250606_002",
      "vehicleId": "48291004",
      "driverId": null,
      "startMs": 1749211860000,
      "endMs": 1749223165013,
      "startLocation": {
        "latitude": 39.716381,
        "longitude": -104.976068
      },
      "endLocation": {
        "latitude": 39.706566,
        "longitude": -104.919496
      },
      "startAddress": "154 Michael Island Suite 212",
      "endAddress": "076 Rachel Well Suite 341",
      "startCoords": {
        "latitude": 39.816195,
        "longitude": -105.054636
      },
      "endCoords": {
        "latitude": 39.791085,
        "longitude": -104.988668
      },
      "distanceMeters": 76642.9,
      "durationMs": 11305013,
      "drivingDurationMs": 10543221,
      "idlingDurationMs": 761792,
      "fuelConsumedMl": 9744,
      "fuelConsumedGallons": 2.574,
      "maxSpeedMph": 41.4,
      "averageSpeedMph": 15.2,
      "safetyEvents": [],
      "_no_driver_login": true,
      "_fuel_note": ""
    },
    {
      "id": "trip_48291004_20250607_001",
      "vehicleId": "48291004",
      "driverId": "22831003",
      "startMs": 1749279720000,
      "endMs": 1749288099965,
      "startLocation": {
        "latitude": 39.717707,
        "longitude": -104.965777
      },
      "endLocation": {
        "latitude": 39.764342,
        "longitude": -104.962859
      },
      "startAddress": "3211 Amber Courts",
      "endAddress": "2150 Berg Manor Apt. 384",
      "startCoords": {
        "latitude": 39.746699,
        "longitude": -104.931489
      },
      "endCoords": {
        "latitude": 39.76607,
        "longitude": -105.006066
      },
      "distanceMeters": 58201.1,
      "durationMs": 8379966,
      "drivingDurationMs": 7454247,
      "idlingDurationMs": 925719,
      "fuelConsumedMl": 7400,
      "fuelConsumedGallons": 1.955,
      "maxSpeedMph": 47.9,
      "averageSpeedMph": 15.5,
      "safetyEvents": [],
      "_no_driver_login": false,
      "_fuel_note": "QUIRK 5: fuelConsumedGallons is in US gallons. Multiply by 3.785 for litres. Samsara does not link fuel to specific Onfleet tasks."
    },
    {
      "id": "trip_48291004_20250607_002",
      "vehicleId": "48291004",
      "driverId": "22831003",
      "startMs": 1749317160000,
      "endMs": 1749318851073,
      "startLocation": {
        "latitude": 39.790411,
        "longitude": -105.086334
      },
      "endLocation": {
        "latitude": 39.807895,
        "longitude": -105.062547
      },
      "startAddress": "4451 Melanie Manor Suite 145",
      "endAddress": "9947 Charles Cliff Apt. 424",
      "startCoords": {
        "latitude": 39.70465,
        "longitude": -104.97425
      },
      "endCoords": {
        "latitude": 39.778735,
        "longitude": -105.029692
      },
      "distanceMeters": 10487.6,
      "durationMs": 1691074,
      "drivingDurationMs": 1500748,
      "idlingDurationMs": 190326,
      "fuelConsumedMl": 1332,
      "fuelConsumedGallons": 0.352,
      "maxSpeedMph": 54.2,
      "averageSpeedMph": 13.9,
      "safetyEvents": [],
      "_no_driver_login": false,
      "_fuel_note": ""
    },
    {
      "id": "trip_48291004_20250607_003",
      "vehicleId": "48291004",
      "driverId": "22831003",
      "startMs": 1749312240000,
      "endMs": 1749327894131,
      "startLocation": {
        "latitude": 39.733142,
        "longitude": -104.964884
      },
      "endLocation": {
        "latitude": 39.711772,
        "longitude": -105.004117
      },
      "startAddress": "96370 Nicholas Viaduct",
      "endAddress": "952 Spears Fork",
      "startCoords": {
        "latitude": 39.688713,
        "longitude": -104.981637
      },
      "endCoords": {
        "latitude": 39.814029,
        "longitude": -104.927634
      },
      "distanceMeters": 76131.8,
      "durationMs": 15654132,
      "drivingDurationMs": 13487379,
      "idlingDurationMs": 2166753,
      "fuelConsumedMl": 9679,
      "fuelConsumedGallons": 2.557,
      "maxSpeedMph": 67.8,
      "averageSpeedMph": 10.9,
      "safetyEvents": [
        {
          "type": "speeding",
          "startMs": 1749314280000,
          "maxSpeedMph": 67.8
        }
      ],
      "_no_driver_login": false,
      "_fuel_note": ""
    },
    {
      "id": "trip_48291004_20250608_001",
      "vehicleId": "48291004",
      "driverId": "22831003",
      "startMs": 1749369960000,
      "endMs": 1749376876629,
      "startLocation": {
        "latitude": 39.749016,
        "longitude": -104.911495
      },
      "endLocation": {
        "latitude": 39.813279,
        "longitude": -104.923617
      },
      "startAddress": "11653 Scott Glens",
      "endAddress": "6666 Smith Radial",
      "startCoords": {
        "latitude": 39.687607,
        "longitude": -104.929336
      },
      "endCoords": {
        "latitude": 39.69807,
        "longitude": -105.05736
      },
      "distanceMeters": 34546.6,
      "durationMs": 6916630,
      "drivingDurationMs": 6678372,
      "idlingDurationMs": 238258,
      "fuelConsumedMl": 4391,
      "fuelConsumedGallons": 1.16,
      "maxSpeedMph": 30.2,
      "averageSpeedMph": 11.2,
      "safetyEvents": [],
      "_no_driver_login": false,
      "_fuel_note": "QUIRK 5: fuelConsumedGallons is in US gallons. Multiply by 3.785 for litres. Samsara does not link fuel to specific Onfleet tasks."
    },
    {
      "id": "trip_48291004_20250608_002",
      "vehicleId": "48291004",
      "driverId": "22831003",
      "startMs": 1749362580000,
      "endMs": 1749368568324,
      "startLocation": {
        "latitude": 39.723223,
        "longitude": -105.076509
      },
      "endLocation": {
        "latitude": 39.686955,
        "longitude": -104.946286
      },
      "startAddress": "58836 Cole Greens Suite 902",
      "endAddress": "3070 King Ridges",
      "startCoords": {
        "latitude": 39.754323,
        "longitude": -105.083904
      },
      "endCoords": {
        "latitude": 39.729826,
        "longitude": -104.99536
      },
      "distanceMeters": 37340.1,
      "durationMs": 5988325,
      "drivingDurationMs": 5396979,
      "idlingDurationMs": 591346,
      "fuelConsumedMl": 4747,
      "fuelConsumedGallons": 1.254,
      "maxSpeedMph": 54.2,
      "averageSpeedMph": 13.9,
      "safetyEvents": [],
      "_no_driver_login": false,
      "_fuel_note": ""
    },
    {
      "id": "trip_48291004_20250608_003",
      "vehicleId": "48291004",
      "driverId": "22831003",
      "startMs": 1749373440000,
      "endMs": 1749377094831,
      "startLocation": {
        "latitude": 39.700317,
        "longitude": -104.997107
      },
      "endLocation": {
        "latitude": 39.786517,
        "longitude": -104.924079
      },
      "startAddress": "7664 Nguyen Spur Suite 235",
      "endAddress": "2272 Gregory Alley",
      "startCoords": {
        "latitude": 39.794791,
        "longitude": -104.995518
      },
      "endCoords": {
        "latitude": 39.737178,
        "longitude": -104.936697
      },
      "distanceMeters": 22481.0,
      "durationMs": 3654831,
      "drivingDurationMs": 2974633,
      "idlingDurationMs": 680198,
      "fuelConsumedMl": 2858,
      "fuelConsumedGallons": 0.755,
      "maxSpeedMph": 70.4,
      "averageSpeedMph": 13.8,
      "safetyEvents": [
        {
          "type": "speeding",
          "startMs": 1749375420000,
          "maxSpeedMph": 70.4
        }
      ],
      "_no_driver_login": false,
      "_fuel_note": ""
    },
    {
      "id": "trip_48291004_20250608_004",
      "vehicleId": "48291004",
      "driverId": "22831003",
      "startMs": 1749379200000,
      "endMs": 1749383332812,
      "startLocation": {
        "latitude": 39.799509,
        "longitude": -104.946823
      },
      "endLocation": {
        "latitude": 39.731437,
        "longitude": -105.00254
      },
      "startAddress": "0526 Phillips Roads",
      "endAddress": "546 Werner Manor",
      "startCoords": {
        "latitude": 39.811464,
        "longitude": -105.038697
      },
      "endCoords": {
        "latitude": 39.771641,
        "longitude": -104.961329
      },
      "distanceMeters": 28839.0,
      "durationMs": 4132813,
      "drivingDurationMs": 3440729,
      "idlingDurationMs": 692084,
      "fuelConsumedMl": 3668,
      "fuelConsumedGallons": 0.969,
      "maxSpeedMph": 60.2,
      "averageSpeedMph": 15.6,
      "safetyEvents": [],
      "_no_driver_login": false,
      "_fuel_note": ""
    },
    {
      "id": "trip_48291004_20250609_001",
      "vehicleId": "48291004",
      "driverId": "22831003",
      "startMs": 1749490260000,
      "endMs": 1749496609283,
      "startLocation": {
        "latitude": 39.804068,
        "longitude": -104.902888
      },
      "endLocation": {
        "latitude": 39.752821,
        "longitude": -104.983651
      },
      "startAddress": "91154 Gould Estates Apt. 361",
      "endAddress": "6733 Edward Shores Suite 904",
      "startCoords": {
        "latitude": 39.749143,
        "longitude": -104.964203
      },
      "endCoords": {
        "latitude": 39.817419,
        "longitude": -104.905256
      },
      "distanceMeters": 40052.7,
      "durationMs": 6349283,
      "drivingDurationMs": 5651545,
      "idlingDurationMs": 697738,
      "fuelConsumedMl": 5091,
      "fuelConsumedGallons": 1.345,
      "maxSpeedMph": 41.2,
      "averageSpeedMph": 14.1,
      "safetyEvents": [],
      "_no_driver_login": false,
      "_fuel_note": "QUIRK 5: fuelConsumedGallons is in US gallons. Multiply by 3.785 for litres. Samsara does not link fuel to specific Onfleet tasks."
    },
    {
      "id": "trip_48291004_20250609_002",
      "vehicleId": "48291004",
      "driverId": "22831003",
      "startMs": 1749492720000,
      "endMs": 1749499154396,
      "startLocation": {
        "latitude": 39.744132,
        "longitude": -105.04829
      },
      "endLocation": {
        "latitude": 39.795954,
        "longitude": -105.022843
      },
      "startAddress": "86950 Denise Track Suite 316",
      "endAddress": "80157 Garcia Valley Apt. 330",
      "startCoords": {
        "latitude": 39.70505,
        "longitude": -104.963264
      },
      "endCoords": {
        "latitude": 39.801569,
        "longitude": -104.935999
      },
      "distanceMeters": 41722.1,
      "durationMs": 6434397,
      "drivingDurationMs": 5427844,
      "idlingDurationMs": 1006553,
      "fuelConsumedMl": 5303,
      "fuelConsumedGallons": 1.401,
      "maxSpeedMph": 33.5,
      "averageSpeedMph": 14.5,
      "safetyEvents": [],
      "_no_driver_login": false,
      "_fuel_note": ""
    },
    {
      "id": "trip_48291004_20250610_001",
      "vehicleId": "48291004",
      "driverId": "22831003",
      "startMs": 1749549000000,
      "endMs": 1749557017517,
      "startLocation": {
        "latitude": 39.814749,
        "longitude": -104.919146
      },
      "endLocation": {
        "latitude": 39.816173,
        "longitude": -105.031453
      },
      "startAddress": "65860 Ryan Loaf",
      "endAddress": "344 Katelyn Trafficway",
      "startCoords": {
        "latitude": 39.810536,
        "longitude": -105.049497
      },
      "endCoords": {
        "latitude": 39.685121,
        "longitude": -105.079847
      },
      "distanceMeters": 47559.6,
      "durationMs": 8017518,
      "drivingDurationMs": 7662457,
      "idlingDurationMs": 355061,
      "fuelConsumedMl": 6045,
      "fuelConsumedGallons": 1.597,
      "maxSpeedMph": 31.1,
      "averageSpeedMph": 13.3,
      "safetyEvents": [],
      "_no_driver_login": false,
      "_fuel_note": "QUIRK 5: fuelConsumedGallons is in US gallons. Multiply by 3.785 for litres. Samsara does not link fuel to specific Onfleet tasks."
    },
    {
      "id": "trip_48291004_20250610_002",
      "vehicleId": "48291004",
      "driverId": "22831003",
      "startMs": 1749581820000,
      "endMs": 1749584716842,
      "startLocation": {
        "latitude": 39.708323,
        "longitude": -104.919922
      },
      "endLocation": {
        "latitude": 39.819644,
        "longitude": -104.93872
      },
      "startAddress": "51147 Frey Place Apt. 897",
      "endAddress": "30529 Gallagher Mission",
      "startCoords": {
        "latitude": 39.684908,
        "longitude": -104.938198
      },
      "endCoords": {
        "latitude": 39.785838,
        "longitude": -105.0465
      },
      "distanceMeters": 17486.6,
      "durationMs": 2896843,
      "drivingDurationMs": 2503944,
      "idlingDurationMs": 392899,
      "fuelConsumedMl": 2222,
      "fuelConsumedGallons": 0.587,
      "maxSpeedMph": 66.2,
      "averageSpeedMph": 13.5,
      "safetyEvents": [
        {
          "type": "speeding",
          "startMs": 1749584400000,
          "maxSpeedMph": 66.2
        }
      ],
      "_no_driver_login": false,
      "_fuel_note": ""
    },
    {
      "id": "trip_48291004_20250611_001",
      "vehicleId": "48291004",
      "driverId": "22831003",
      "startMs": 1749656040000,
      "endMs": 1749662459870,
      "startLocation": {
        "latitude": 39.714132,
        "longitude": -104.916661
      },
      "endLocation": {
        "latitude": 39.707814,
        "longitude": -105.046126
      },
      "startAddress": "372 Allison Passage Apt. 307",
      "endAddress": "481 Mary Cove Apt. 858",
      "startCoords": {
        "latitude": 39.773197,
        "longitude": -104.983234
      },
      "endCoords": {
        "latitude": 39.690061,
        "longitude": -105.051073
      },
      "distanceMeters": 49687.1,
      "durationMs": 6419871,
      "drivingDurationMs": 5644653,
      "idlingDurationMs": 775218,
      "fuelConsumedMl": 6318,
      "fuelConsumedGallons": 1.669,
      "maxSpeedMph": 68.1,
      "averageSpeedMph": 17.3,
      "safetyEvents": [
        {
          "type": "speeding",
          "startMs": 1749658380000,
          "maxSpeedMph": 68.1
        }
      ],
      "_no_driver_login": false,
      "_fuel_note": "QUIRK 5: fuelConsumedGallons is in US gallons. Multiply by 3.785 for litres. Samsara does not link fuel to specific Onfleet tasks."
    },
    {
      "id": "trip_48291004_20250611_002",
      "vehicleId": "48291004",
      "driverId": "22831003",
      "startMs": 1749643920000,
      "endMs": 1749646642790,
      "startLocation": {
        "latitude": 39.75412,
        "longitude": -105.009116
      },
      "endLocation": {
        "latitude": 39.6861,
        "longitude": -104.980058
      },
      "startAddress": "9816 Kelli Ports Suite 713",
      "endAddress": "3889 Stokes Mews",
      "startCoords": {
        "latitude": 39.792371,
        "longitude": -104.918447
      },
      "endCoords": {
        "latitude": 39.775226,
        "longitude": -104.965824
      },
      "distanceMeters": 19848.7,
      "durationMs": 2722791,
      "drivingDurationMs": 2450823,
      "idlingDurationMs": 271968,
      "fuelConsumedMl": 2525,
      "fuelConsumedGallons": 0.667,
      "maxSpeedMph": 66.0,
      "averageSpeedMph": 16.3,
      "safetyEvents": [
        {
          "type": "speeding",
          "startMs": 1749644820000,
          "maxSpeedMph": 66.0
        }
      ],
      "_no_driver_login": false,
      "_fuel_note": ""
    },
    {
      "id": "trip_48291004_20250611_003",
      "vehicleId": "48291004",
      "driverId": "22831003",
      "startMs": 1749657120000,
      "endMs": 1749669715231,
      "startLocation": {
        "latitude": 39.78166,
        "longitude": -105.01508
      },
      "endLocation": {
        "latitude": 39.690504,
        "longitude": -104.970967
      },
      "startAddress": "767 Jeremy Loaf",
      "endAddress": "52922 Russell Mews Suite 972",
      "startCoords": {
        "latitude": 39.774022,
        "longitude": -104.962403
      },
      "endCoords": {
        "latitude": 39.736884,
        "longitude": -104.91423
      },
      "distanceMeters": 59130.5,
      "durationMs": 12595232,
      "drivingDurationMs": 10699763,
      "idlingDurationMs": 1895468,
      "fuelConsumedMl": 7518,
      "fuelConsumedGallons": 1.986,
      "maxSpeedMph": 68.5,
      "averageSpeedMph": 10.5,
      "safetyEvents": [
        {
          "type": "speeding",
          "startMs": 1749667800000,
          "maxSpeedMph": 68.5
        }
      ],
      "_no_driver_login": false,
      "_fuel_note": ""
    },
    {
      "id": "trip_48291004_20250611_004",
      "vehicleId": "48291004",
      "driverId": "22831003",
      "startMs": 1749642360000,
      "endMs": 1749649702674,
      "startLocation": {
        "latitude": 39.727616,
        "longitude": -104.922095
      },
      "endLocation": {
        "latitude": 39.727538,
        "longitude": -105.057275
      },
      "startAddress": "365 Audrey Glen Suite 369",
      "endAddress": "307 Jones Path Apt. 796",
      "startCoords": {
        "latitude": 39.716053,
        "longitude": -104.999838
      },
      "endCoords": {
        "latitude": 39.747306,
        "longitude": -105.016279
      },
      "distanceMeters": 56236.7,
      "durationMs": 7342675,
      "drivingDurationMs": 7030485,
      "idlingDurationMs": 312189,
      "fuelConsumedMl": 7151,
      "fuelConsumedGallons": 1.889,
      "maxSpeedMph": 63.0,
      "averageSpeedMph": 17.1,
      "safetyEvents": [],
      "_no_driver_login": false,
      "_fuel_note": ""
    },
    {
      "id": "trip_48291004_20250611_005",
      "vehicleId": "48291004",
      "driverId": "22831003",
      "startMs": 1749667980000,
      "endMs": 1749675600000,
      "startLocation": {
        "latitude": 39.704549,
        "longitude": -105.06071
      },
      "endLocation": {
        "latitude": 39.796316,
        "longitude": -104.912763
      },
      "startAddress": "98812 Wilson Bypass",
      "endAddress": "845 Nicole Spur",
      "startCoords": {
        "latitude": 39.818543,
        "longitude": -105.001235
      },
      "endCoords": {
        "latitude": 39.722494,
        "longitude": -104.938055
      },
      "distanceMeters": 41897.7,
      "durationMs": 7620000,
      "drivingDurationMs": 6396155,
      "idlingDurationMs": 1223845,
      "fuelConsumedMl": 5326,
      "fuelConsumedGallons": 1.407,
      "maxSpeedMph": 34.5,
      "averageSpeedMph": 12.3,
      "safetyEvents": [],
      "_no_driver_login": false,
      "_fuel_note": ""
    },
    {
      "id": "trip_48291004_20250612_001",
      "vehicleId": "48291004",
      "driverId": "22831003",
      "startMs": 1749723240000,
      "endMs": 1749726575171,
      "startLocation": {
        "latitude": 39.762394,
        "longitude": -104.953822
      },
      "endLocation": {
        "latitude": 39.716796,
        "longitude": -104.918744
      },
      "startAddress": "7091 Christine Plains",
      "endAddress": "8757 Morgan Springs Suite 487",
      "startCoords": {
        "latitude": 39.803429,
        "longitude": -104.923496
      },
      "endCoords": {
        "latitude": 39.725764,
        "longitude": -104.91137
      },
      "distanceMeters": 18147.0,
      "durationMs": 3335171,
      "drivingDurationMs": 2929460,
      "idlingDurationMs": 405712,
      "fuelConsumedMl": 2309,
      "fuelConsumedGallons": 0.61,
      "maxSpeedMph": 30.6,
      "averageSpeedMph": 12.2,
      "safetyEvents": [],
      "_no_driver_login": false,
      "_fuel_note": "QUIRK 5: fuelConsumedGallons is in US gallons. Multiply by 3.785 for litres. Samsara does not link fuel to specific Onfleet tasks."
    },
    {
      "id": "trip_48291004_20250612_002",
      "vehicleId": "48291004",
      "driverId": "22831003",
      "startMs": 1749724800000,
      "endMs": 1749734846827,
      "startLocation": {
        "latitude": 39.781698,
        "longitude": -105.009806
      },
      "endLocation": {
        "latitude": 39.791347,
        "longitude": -104.90484
      },
      "startAddress": "973 Jordan Corner Apt. 819",
      "endAddress": "656 Knight Loop Suite 941",
      "startCoords": {
        "latitude": 39.717625,
        "longitude": -104.988364
      },
      "endCoords": {
        "latitude": 39.800528,
        "longitude": -104.972844
      },
      "distanceMeters": 52694.2,
      "durationMs": 10046828,
      "drivingDurationMs": 8275900,
      "idlingDurationMs": 1770927,
      "fuelConsumedMl": 6700,
      "fuelConsumedGallons": 1.77,
      "maxSpeedMph": 61.5,
      "averageSpeedMph": 11.7,
      "safetyEvents": [],
      "_no_driver_login": false,
      "_fuel_note": ""
    },
    {
      "id": "trip_48291004_20250612_003",
      "vehicleId": "48291004",
      "driverId": "22831003",
      "startMs": 1749726480000,
      "endMs": 1749735072589,
      "startLocation": {
        "latitude": 39.802725,
        "longitude": -105.013892
      },
      "endLocation": {
        "latitude": 39.686116,
        "longitude": -105.026272
      },
      "startAddress": "5774 Mark Viaduct",
      "endAddress": "5517 David Parkway Suite 347",
      "startCoords": {
        "latitude": 39.78789,
        "longitude": -104.906074
      },
      "endCoords": {
        "latitude": 39.766672,
        "longitude": -105.057464
      },
      "distanceMeters": 67112.5,
      "durationMs": 8592589,
      "drivingDurationMs": 7667768,
      "idlingDurationMs": 924821,
      "fuelConsumedMl": 8532,
      "fuelConsumedGallons": 2.254,
      "maxSpeedMph": 37.1,
      "averageSpeedMph": 17.5,
      "safetyEvents": [],
      "_no_driver_login": false,
      "_fuel_note": ""
    },
    {
      "id": "trip_48291004_20250612_004",
      "vehicleId": "48291004",
      "driverId": null,
      "startMs": 1749729960000,
      "endMs": 1749745329773,
      "startLocation": {
        "latitude": 39.747198,
        "longitude": -104.902195
      },
      "endLocation": {
        "latitude": 39.762493,
        "longitude": -104.9947
      },
      "startAddress": "2655 Mcintosh Estates Apt. 116",
      "endAddress": "26345 Jose Mills",
      "startCoords": {
        "latitude": 39.696593,
        "longitude": -105.004641
      },
      "endCoords": {
        "latitude": 39.694183,
        "longitude": -105.031344
      },
      "distanceMeters": 79442.0,
      "durationMs": 15369773,
      "drivingDurationMs": 15094509,
      "idlingDurationMs": 275264,
      "fuelConsumedMl": 10099,
      "fuelConsumedGallons": 2.668,
      "maxSpeedMph": 65.4,
      "averageSpeedMph": 11.6,
      "safetyEvents": [
        {
          "type": "speeding",
          "startMs": 1749738600000,
          "maxSpeedMph": 65.4
        }
      ],
      "_no_driver_login": true,
      "_fuel_note": ""
    },
    {
      "id": "trip_48291004_20250612_005",
      "vehicleId": "48291004",
      "driverId": "22831003",
      "startMs": 1749751740000,
      "endMs": 1749756931248,
      "startLocation": {
        "latitude": 39.716362,
        "longitude": -104.992149
      },
      "endLocation": {
        "latitude": 39.741736,
        "longitude": -105.013161
      },
      "startAddress": "411 Ponce Lodge",
      "endAddress": "3996 Brooks Turnpike",
      "startCoords": {
        "latitude": 39.749908,
        "longitude": -105.037184
      },
      "endCoords": {
        "latitude": 39.785832,
        "longitude": -104.954118
      },
      "distanceMeters": 26441.7,
      "durationMs": 5191249,
      "drivingDurationMs": 4969634,
      "idlingDurationMs": 221615,
      "fuelConsumedMl": 3361,
      "fuelConsumedGallons": 0.888,
      "maxSpeedMph": 65.2,
      "averageSpeedMph": 11.4,
      "safetyEvents": [
        {
          "type": "speeding",
          "startMs": 1749753660000,
          "maxSpeedMph": 65.2
        }
      ],
      "_no_driver_login": false,
      "_fuel_note": ""
    },
    {
      "id": "trip_48291004_20250612_006",
      "vehicleId": "48291004",
      "driverId": "22831003",
      "startMs": 1749736260000,
      "endMs": 1749740707693,
      "startLocation": {
        "latitude": 39.813953,
        "longitude": -104.98353
      },
      "endLocation": {
        "latitude": 39.805171,
        "longitude": -105.082172
      },
      "startAddress": "1521 Rodney Manors",
      "endAddress": "12050 Hill Coves",
      "startCoords": {
        "latitude": 39.765422,
        "longitude": -104.996626
      },
      "endCoords": {
        "latitude": 39.812932,
        "longitude": -105.085441
      },
      "distanceMeters": 31859.5,
      "durationMs": 4447694,
      "drivingDurationMs": 4160572,
      "idlingDurationMs": 287122,
      "fuelConsumedMl": 4050,
      "fuelConsumedGallons": 1.07,
      "maxSpeedMph": 33.6,
      "averageSpeedMph": 16.0,
      "safetyEvents": [],
      "_no_driver_login": false,
      "_fuel_note": ""
    },
    {
      "id": "trip_48291004_20250613_001",
      "vehicleId": "48291004",
      "driverId": "22831003",
      "startMs": 1749795840000,
      "endMs": 1749804771212,
      "startLocation": {
        "latitude": 39.758632,
        "longitude": -105.024306
      },
      "endLocation": {
        "latitude": 39.756541,
        "longitude": -104.948938
      },
      "startAddress": "0486 Billy Gardens Apt. 607",
      "endAddress": "80494 Lisa Viaduct Suite 765",
      "startCoords": {
        "latitude": 39.744446,
        "longitude": -105.027593
      },
      "endCoords": {
        "latitude": 39.742094,
        "longitude": -104.972249
      },
      "distanceMeters": 51776.7,
      "durationMs": 8931212,
      "drivingDurationMs": 7846831,
      "idlingDurationMs": 1084381,
      "fuelConsumedMl": 6583,
      "fuelConsumedGallons": 1.739,
      "maxSpeedMph": 59.7,
      "averageSpeedMph": 13.0,
      "safetyEvents": [],
      "_no_driver_login": false,
      "_fuel_note": "QUIRK 5: fuelConsumedGallons is in US gallons. Multiply by 3.785 for litres. Samsara does not link fuel to specific Onfleet tasks."
    },
    {
      "id": "trip_48291004_20250613_002",
      "vehicleId": "48291004",
      "driverId": "22831003",
      "startMs": 1749796140000,
      "endMs": 1749803686883,
      "startLocation": {
        "latitude": 39.774264,
        "longitude": -104.989829
      },
      "endLocation": {
        "latitude": 39.693159,
        "longitude": -105.007026
      },
      "startAddress": "41236 Willie Trace Apt. 513",
      "endAddress": "28100 Christopher Streets",
      "startCoords": {
        "latitude": 39.733696,
        "longitude": -105.062768
      },
      "endCoords": {
        "latitude": 39.687667,
        "longitude": -104.901846
      },
      "distanceMeters": 42138.5,
      "durationMs": 7546884,
      "drivingDurationMs": 6737647,
      "idlingDurationMs": 809237,
      "fuelConsumedMl": 5356,
      "fuelConsumedGallons": 1.415,
      "maxSpeedMph": 65.8,
      "averageSpeedMph": 12.5,
      "safetyEvents": [
        {
          "type": "speeding",
          "startMs": 1749799500000,
          "maxSpeedMph": 65.8
        }
      ],
      "_no_driver_login": false,
      "_fuel_note": ""
    },
    {
      "id": "trip_48291004_20250614_001",
      "vehicleId": "48291004",
      "driverId": null,
      "startMs": 1749917580000,
      "endMs": 1749919251023,
      "startLocation": {
        "latitude": 39.716142,
        "longitude": -105.087163
      },
      "endLocation": {
        "latitude": 39.7928,
        "longitude": -105.084535
      },
      "startAddress": "3233 Sarah Orchard Apt. 442",
      "endAddress": "89756 Martin Fords",
      "startCoords": {
        "latitude": 39.731873,
        "longitude": -104.919779
      },
      "endCoords": {
        "latitude": 39.804967,
        "longitude": -105.028305
      },
      "distanceMeters": 8181.2,
      "durationMs": 1671023,
      "drivingDurationMs": 1384404,
      "idlingDurationMs": 286620,
      "fuelConsumedMl": 1041,
      "fuelConsumedGallons": 0.275,
      "maxSpeedMph": 42.1,
      "averageSpeedMph": 11.0,
      "safetyEvents": [],
      "_no_driver_login": true,
      "_fuel_note": "QUIRK 5: fuelConsumedGallons is in US gallons. Multiply by 3.785 for litres. Samsara does not link fuel to specific Onfleet tasks."
    },
    {
      "id": "trip_48291004_20250614_002",
      "vehicleId": "48291004",
      "driverId": "22831003",
      "startMs": 1749919980000,
      "endMs": 1749923502018,
      "startLocation": {
        "latitude": 39.69859,
        "longitude": -104.95524
      },
      "endLocation": {
        "latitude": 39.806188,
        "longitude": -105.002173
      },
      "startAddress": "17473 Aaron Roads Suite 523",
      "endAddress": "16545 Russo Passage",
      "startCoords": {
        "latitude": 39.76839,
        "longitude": -105.080134
      },
      "endCoords": {
        "latitude": 39.796423,
        "longitude": -105.006011
      },
      "distanceMeters": 21207.6,
      "durationMs": 3522019,
      "drivingDurationMs": 2950221,
      "idlingDurationMs": 571798,
      "fuelConsumedMl": 2695,
      "fuelConsumedGallons": 0.712,
      "maxSpeedMph": 51.2,
      "averageSpeedMph": 13.5,
      "safetyEvents": [],
      "_no_driver_login": false,
      "_fuel_note": ""
    },
    {
      "id": "trip_48291004_20250614_003",
      "vehicleId": "48291004",
      "driverId": "22831003",
      "startMs": 1749905160000,
      "endMs": 1749916210379,
      "startLocation": {
        "latitude": 39.691317,
        "longitude": -105.086458
      },
      "endLocation": {
        "latitude": 39.747915,
        "longitude": -104.941786
      },
      "startAddress": "2040 Miller Keys Apt. 096",
      "endAddress": "226 Brown Crossing Suite 778",
      "startCoords": {
        "latitude": 39.727872,
        "longitude": -104.921829
      },
      "endCoords": {
        "latitude": 39.772901,
        "longitude": -105.03295
      },
      "distanceMeters": 60311.5,
      "durationMs": 11050380,
      "drivingDurationMs": 10827335,
      "idlingDurationMs": 223045,
      "fuelConsumedMl": 7669,
      "fuelConsumedGallons": 2.026,
      "maxSpeedMph": 30.8,
      "averageSpeedMph": 12.2,
      "safetyEvents": [],
      "_no_driver_login": false,
      "_fuel_note": ""
    },
    {
      "id": "trip_48291004_20250614_004",
      "vehicleId": "48291004",
      "driverId": "22831003",
      "startMs": 1749911760000,
      "endMs": 1749921790422,
      "startLocation": {
        "latitude": 39.688418,
        "longitude": -104.994855
      },
      "endLocation": {
        "latitude": 39.770594,
        "longitude": -105.084216
      },
      "startAddress": "478 Nash Isle Suite 618",
      "endAddress": "5622 Eric Roads",
      "startCoords": {
        "latitude": 39.751912,
        "longitude": -105.023981
      },
      "endCoords": {
        "latitude": 39.737186,
        "longitude": -104.937802
      },
      "distanceMeters": 53994.8,
      "durationMs": 10030422,
      "drivingDurationMs": 8547736,
      "idlingDurationMs": 1482686,
      "fuelConsumedMl": 6867,
      "fuelConsumedGallons": 1.814,
      "maxSpeedMph": 39.3,
      "averageSpeedMph": 12.0,
      "safetyEvents": [],
      "_no_driver_login": false,
      "_fuel_note": ""
    },
    {
      "id": "trip_48291004_20250615_001",
      "vehicleId": "48291004",
      "driverId": "22831003",
      "startMs": 1750005600000,
      "endMs": 1750010485169,
      "startLocation": {
        "latitude": 39.762204,
        "longitude": -105.013746
      },
      "endLocation": {
        "latitude": 39.80004,
        "longitude": -105.00863
      },
      "startAddress": "454 Joyce Branch Apt. 549",
      "endAddress": "930 Stevenson Canyon",
      "startCoords": {
        "latitude": 39.796941,
        "longitude": -104.92241
      },
      "endCoords": {
        "latitude": 39.779385,
        "longitude": -105.047476
      },
      "distanceMeters": 23451.1,
      "durationMs": 4885170,
      "drivingDurationMs": 4333909,
      "idlingDurationMs": 551261,
      "fuelConsumedMl": 2983,
      "fuelConsumedGallons": 0.788,
      "maxSpeedMph": 55.0,
      "averageSpeedMph": 10.7,
      "safetyEvents": [],
      "_no_driver_login": false,
      "_fuel_note": "QUIRK 5: fuelConsumedGallons is in US gallons. Multiply by 3.785 for litres. Samsara does not link fuel to specific Onfleet tasks."
    },
    {
      "id": "trip_48291004_20250615_002",
      "vehicleId": "48291004",
      "driverId": "22831003",
      "startMs": 1749967800000,
      "endMs": 1749971386695,
      "startLocation": {
        "latitude": 39.689647,
        "longitude": -105.086322
      },
      "endLocation": {
        "latitude": 39.764314,
        "longitude": -104.931701
      },
      "startAddress": "881 Reed Mountains Apt. 013",
      "endAddress": "60437 Stacey Vista",
      "startCoords": {
        "latitude": 39.719466,
        "longitude": -105.01846
      },
      "endCoords": {
        "latitude": 39.77886,
        "longitude": -104.913033
      },
      "distanceMeters": 27716.9,
      "durationMs": 3586696,
      "drivingDurationMs": 3299488,
      "idlingDurationMs": 287208,
      "fuelConsumedMl": 3524,
      "fuelConsumedGallons": 0.931,
      "maxSpeedMph": 46.7,
      "averageSpeedMph": 17.3,
      "safetyEvents": [],
      "_no_driver_login": false,
      "_fuel_note": ""
    },
    {
      "id": "trip_48291004_20250616_001",
      "vehicleId": "48291004",
      "driverId": "22831003",
      "startMs": 1750086960000,
      "endMs": 1750097861064,
      "startLocation": {
        "latitude": 39.786901,
        "longitude": -105.015519
      },
      "endLocation": {
        "latitude": 39.701397,
        "longitude": -105.003483
      },
      "startAddress": "4012 Guerra Shores Suite 136",
      "endAddress": "7194 Eric Road",
      "startCoords": {
        "latitude": 39.733708,
        "longitude": -105.058112
      },
      "endCoords": {
        "latitude": 39.707862,
        "longitude": -104.905046
      },
      "distanceMeters": 82982.1,
      "durationMs": 10901065,
      "drivingDurationMs": 9976084,
      "idlingDurationMs": 924980,
      "fuelConsumedMl": 10550,
      "fuelConsumedGallons": 2.787,
      "maxSpeedMph": 52.7,
      "averageSpeedMph": 17.0,
      "safetyEvents": [],
      "_no_driver_login": false,
      "_fuel_note": "QUIRK 5: fuelConsumedGallons is in US gallons. Multiply by 3.785 for litres. Samsara does not link fuel to specific Onfleet tasks."
    },
    {
      "id": "trip_48291004_20250616_002",
      "vehicleId": "48291004",
      "driverId": "22831003",
      "startMs": 1750076340000,
      "endMs": 1750080029456,
      "startLocation": {
        "latitude": 39.712361,
        "longitude": -104.976642
      },
      "endLocation": {
        "latitude": 39.731998,
        "longitude": -104.958348
      },
      "startAddress": "94096 Flynn Avenue",
      "endAddress": "77650 Stephen Loop Suite 957",
      "startCoords": {
        "latitude": 39.685736,
        "longitude": -105.000017
      },
      "endCoords": {
        "latitude": 39.761544,
        "longitude": -104.946948
      },
      "distanceMeters": 22198.4,
      "durationMs": 3689457,
      "drivingDurationMs": 3346302,
      "idlingDurationMs": 343155,
      "fuelConsumedMl": 2824,
      "fuelConsumedGallons": 0.746,
      "maxSpeedMph": 51.1,
      "averageSpeedMph": 13.5,
      "safetyEvents": [],
      "_no_driver_login": false,
      "_fuel_note": ""
    },
    {
      "id": "trip_48291004_20250617_001",
      "vehicleId": "48291004",
      "driverId": "22831003",
      "startMs": 1750163760000,
      "endMs": 1750166683486,
      "startLocation": {
        "latitude": 39.754743,
        "longitude": -105.053019
      },
      "endLocation": {
        "latitude": 39.825603,
        "longitude": -104.986992
      },
      "startAddress": "7677 Murphy Courts Suite 179",
      "endAddress": "13524 Peterson Crossroad",
      "startCoords": {
        "latitude": 39.804476,
        "longitude": -105.068503
      },
      "endCoords": {
        "latitude": 39.758603,
        "longitude": -104.986543
      },
      "distanceMeters": 17623.2,
      "durationMs": 2923487,
      "drivingDurationMs": 2537943,
      "idlingDurationMs": 385544,
      "fuelConsumedMl": 2241,
      "fuelConsumedGallons": 0.592,
      "maxSpeedMph": 53.6,
      "averageSpeedMph": 13.5,
      "safetyEvents": [],
      "_no_driver_login": false,
      "_fuel_note": "QUIRK 5: fuelConsumedGallons is in US gallons. Multiply by 3.785 for litres. Samsara does not link fuel to specific Onfleet tasks."
    },
    {
      "id": "trip_48291004_20250617_002",
      "vehicleId": "48291004",
      "driverId": "22831003",
      "startMs": 1750145340000,
      "endMs": 1750161705513,
      "startLocation": {
        "latitude": 39.742484,
        "longitude": -104.916191
      },
      "endLocation": {
        "latitude": 39.790276,
        "longitude": -105.010783
      },
      "startAddress": "333 David Fall Suite 359",
      "endAddress": "835 Francis Islands Suite 554",
      "startCoords": {
        "latitude": 39.768245,
        "longitude": -105.086186
      },
      "endCoords": {
        "latitude": 39.739253,
        "longitude": -105.082988
      },
      "distanceMeters": 81563.0,
      "durationMs": 16365513,
      "drivingDurationMs": 15647802,
      "idlingDurationMs": 717711,
      "fuelConsumedMl": 10372,
      "fuelConsumedGallons": 2.74,
      "maxSpeedMph": 41.9,
      "averageSpeedMph": 11.1,
      "safetyEvents": [],
      "_no_driver_login": false,
      "_fuel_note": ""
    },
    {
      "id": "trip_48291004_20250617_003",
      "vehicleId": "48291004",
      "driverId": "22831003",
      "startMs": 1750180320000,
      "endMs": 1750187774025,
      "startLocation": {
        "latitude": 39.782433,
        "longitude": -105.016589
      },
      "endLocation": {
        "latitude": 39.733789,
        "longitude": -105.008748
      },
      "startAddress": "604 Li Avenue",
      "endAddress": "3660 Diane Estates Apt. 959",
      "startCoords": {
        "latitude": 39.689619,
        "longitude": -105.08547
      },
      "endCoords": {
        "latitude": 39.81414,
        "longitude": -105.01839
      },
      "distanceMeters": 39085.3,
      "durationMs": 7454026,
      "drivingDurationMs": 6239061,
      "idlingDurationMs": 1214964,
      "fuelConsumedMl": 4970,
      "fuelConsumedGallons": 1.313,
      "maxSpeedMph": 68.6,
      "averageSpeedMph": 11.7,
      "safetyEvents": [
        {
          "type": "speeding",
          "startMs": 1750186020000,
          "maxSpeedMph": 68.6
        }
      ],
      "_no_driver_login": false,
      "_fuel_note": ""
    },
    {
      "id": "trip_48291004_20250617_004",
      "vehicleId": "48291004",
      "driverId": "22831003",
      "startMs": 1750147440000,
      "endMs": 1750164196978,
      "startLocation": {
        "latitude": 39.743513,
        "longitude": -105.040371
      },
      "endLocation": {
        "latitude": 39.811514,
        "longitude": -105.009725
      },
      "startAddress": "330 Hughes Track",
      "endAddress": "500 Burnett Place Apt. 971",
      "startCoords": {
        "latitude": 39.826862,
        "longitude": -104.903342
      },
      "endCoords": {
        "latitude": 39.819628,
        "longitude": -105.068214
      },
      "distanceMeters": 78776.8,
      "durationMs": 16756978,
      "drivingDurationMs": 14016443,
      "idlingDurationMs": 2740535,
      "fuelConsumedMl": 10016,
      "fuelConsumedGallons": 2.646,
      "maxSpeedMph": 53.4,
      "averageSpeedMph": 10.5,
      "safetyEvents": [],
      "_no_driver_login": false,
      "_fuel_note": ""
    },
    {
      "id": "trip_48291004_20250618_001",
      "vehicleId": "48291004",
      "driverId": "22831003",
      "startMs": 1750241820000,
      "endMs": 1750255300099,
      "startLocation": {
        "latitude": 39.741373,
        "longitude": -105.074888
      },
      "endLocation": {
        "latitude": 39.771233,
        "longitude": -104.990178
      },
      "startAddress": "513 Zachary Grove",
      "endAddress": "3654 Robert Ridges",
      "startCoords": {
        "latitude": 39.826669,
        "longitude": -104.995894
      },
      "endCoords": {
        "latitude": 39.783365,
        "longitude": -105.002673
      },
      "distanceMeters": 68131.5,
      "durationMs": 13480099,
      "drivingDurationMs": 12642500,
      "idlingDurationMs": 837600,
      "fuelConsumedMl": 8661,
      "fuelConsumedGallons": 2.288,
      "maxSpeedMph": 48.0,
      "averageSpeedMph": 11.3,
      "safetyEvents": [],
      "_no_driver_login": false,
      "_fuel_note": "QUIRK 5: fuelConsumedGallons is in US gallons. Multiply by 3.785 for litres. Samsara does not link fuel to specific Onfleet tasks."
    },
    {
      "id": "trip_48291004_20250618_002",
      "vehicleId": "48291004",
      "driverId": "22831003",
      "startMs": 1750227060000,
      "endMs": 1750237893087,
      "startLocation": {
        "latitude": 39.724229,
        "longitude": -104.983756
      },
      "endLocation": {
        "latitude": 39.731242,
        "longitude": -104.93695
      },
      "startAddress": "8369 Kemp Pass",
      "endAddress": "452 Margaret Cape",
      "startCoords": {
        "latitude": 39.785261,
        "longitude": -104.954712
      },
      "endCoords": {
        "latitude": 39.769557,
        "longitude": -105.021448
      },
      "distanceMeters": 50672.9,
      "durationMs": 10833087,
      "drivingDurationMs": 9754617,
      "idlingDurationMs": 1078470,
      "fuelConsumedMl": 6443,
      "fuelConsumedGallons": 1.702,
      "maxSpeedMph": 31.9,
      "averageSpeedMph": 10.5,
      "safetyEvents": [],
      "_no_driver_login": false,
      "_fuel_note": ""
    },
    {
      "id": "trip_48291004_20250618_003",
      "vehicleId": "48291004",
      "driverId": "22831003",
      "startMs": 1750251300000,
      "endMs": 1750256376367,
      "startLocation": {
        "latitude": 39.767189,
        "longitude": -104.959464
      },
      "endLocation": {
        "latitude": 39.77316,
        "longitude": -105.025661
      },
      "startAddress": "25569 Garcia Pike Apt. 676",
      "endAddress": "99602 Cox Islands Apt. 020",
      "startCoords": {
        "latitude": 39.77723,
        "longitude": -104.976567
      },
      "endCoords": {
        "latitude": 39.793747,
        "longitude": -104.990343
      },
      "distanceMeters": 35566.9,
      "durationMs": 5076368,
      "drivingDurationMs": 4397641,
      "idlingDurationMs": 678727,
      "fuelConsumedMl": 4524,
      "fuelConsumedGallons": 1.195,
      "maxSpeedMph": 51.3,
      "averageSpeedMph": 15.7,
      "safetyEvents": [],
      "_no_driver_login": false,
      "_fuel_note": ""
    },
    {
      "id": "trip_48291004_20250618_004",
      "vehicleId": "48291004",
      "driverId": "22831003",
      "startMs": 1750241700000,
      "endMs": 1750246196073,
      "startLocation": {
        "latitude": 39.734172,
        "longitude": -104.966746
      },
      "endLocation": {
        "latitude": 39.808197,
        "longitude": -104.993641
      },
      "startAddress": "26059 Simmons Ramp Apt. 949",
      "endAddress": "64505 Klein Flat Apt. 629",
      "startCoords": {
        "latitude": 39.796493,
        "longitude": -105.013125
      },
      "endCoords": {
        "latitude": 39.719381,
        "longitude": -105.021383
      },
      "distanceMeters": 31383.2,
      "durationMs": 4496074,
      "drivingDurationMs": 4060045,
      "idlingDurationMs": 436029,
      "fuelConsumedMl": 3990,
      "fuelConsumedGallons": 1.054,
      "maxSpeedMph": 70.3,
      "averageSpeedMph": 15.6,
      "safetyEvents": [
        {
          "type": "speeding",
          "startMs": 1750245840000,
          "maxSpeedMph": 70.3
        }
      ],
      "_no_driver_login": false,
      "_fuel_note": ""
    },
    {
      "id": "trip_48291004_20250619_001",
      "vehicleId": "48291004",
      "driverId": "22831003",
      "startMs": 1750341540000,
      "endMs": 1750349612506,
      "startLocation": {
        "latitude": 39.809388,
        "longitude": -105.081669
      },
      "endLocation": {
        "latitude": 39.800149,
        "longitude": -104.938456
      },
      "startAddress": "55789 Peters Drives",
      "endAddress": "45550 Caleb Dam",
      "startCoords": {
        "latitude": 39.788574,
        "longitude": -104.944767
      },
      "endCoords": {
        "latitude": 39.784631,
        "longitude": -104.979545
      },
      "distanceMeters": 65670.7,
      "durationMs": 8072506,
      "drivingDurationMs": 7409472,
      "idlingDurationMs": 663034,
      "fuelConsumedMl": 8351,
      "fuelConsumedGallons": 2.206,
      "maxSpeedMph": 60.4,
      "averageSpeedMph": 18.2,
      "safetyEvents": [],
      "_no_driver_login": false,
      "_fuel_note": "QUIRK 5: fuelConsumedGallons is in US gallons. Multiply by 3.785 for litres. Samsara does not link fuel to specific Onfleet tasks."
    },
    {
      "id": "trip_48291004_20250619_002",
      "vehicleId": "48291004",
      "driverId": "22831003",
      "startMs": 1750334640000,
      "endMs": 1750337954733,
      "startLocation": {
        "latitude": 39.751761,
        "longitude": -104.977652
      },
      "endLocation": {
        "latitude": 39.821374,
        "longitude": -105.049773
      },
      "startAddress": "4134 Melvin Ports",
      "endAddress": "332 Morrison Mountain",
      "startCoords": {
        "latitude": 39.750555,
        "longitude": -104.979163
      },
      "endCoords": {
        "latitude": 39.72671,
        "longitude": -105.002003
      },
      "distanceMeters": 22226.8,
      "durationMs": 3314733,
      "drivingDurationMs": 2665495,
      "idlingDurationMs": 649238,
      "fuelConsumedMl": 2828,
      "fuelConsumedGallons": 0.747,
      "maxSpeedMph": 59.4,
      "averageSpeedMph": 15.0,
      "safetyEvents": [],
      "_no_driver_login": false,
      "_fuel_note": ""
    },
    {
      "id": "trip_48291004_20250619_003",
      "vehicleId": "48291004",
      "driverId": "22831003",
      "startMs": 1750317540000,
      "endMs": 1750327126126,
      "startLocation": {
        "latitude": 39.688109,
        "longitude": -105.066639
      },
      "endLocation": {
        "latitude": 39.708983,
        "longitude": -104.944358
      },
      "startAddress": "55930 Lisa Spring",
      "endAddress": "34243 Saunders Place Suite 455",
      "startCoords": {
        "latitude": 39.823739,
        "longitude": -105.025051
      },
      "endCoords": {
        "latitude": 39.698117,
        "longitude": -104.995775
      },
      "distanceMeters": 68395.9,
      "durationMs": 9586127,
      "drivingDurationMs": 8179974,
      "idlingDurationMs": 1406153,
      "fuelConsumedMl": 8695,
      "fuelConsumedGallons": 2.297,
      "maxSpeedMph": 41.5,
      "averageSpeedMph": 16.0,
      "safetyEvents": [],
      "_no_driver_login": false,
      "_fuel_note": ""
    },
    {
      "id": "trip_48291004_20250619_004",
      "vehicleId": "48291004",
      "driverId": "22831003",
      "startMs": 1750342680000,
      "endMs": 1750345509634,
      "startLocation": {
        "latitude": 39.810633,
        "longitude": -104.97762
      },
      "endLocation": {
        "latitude": 39.700489,
        "longitude": -105.037377
      },
      "startAddress": "8265 Collins Flat",
      "endAddress": "573 Rodney Corner Apt. 169",
      "startCoords": {
        "latitude": 39.782545,
        "longitude": -104.946604
      },
      "endCoords": {
        "latitude": 39.804346,
        "longitude": -104.972761
      },
      "distanceMeters": 16586.6,
      "durationMs": 2829634,
      "drivingDurationMs": 2436058,
      "idlingDurationMs": 393576,
      "fuelConsumedMl": 2108,
      "fuelConsumedGallons": 0.557,
      "maxSpeedMph": 37.6,
      "averageSpeedMph": 13.1,
      "safetyEvents": [],
      "_no_driver_login": false,
      "_fuel_note": ""
    },
    {
      "id": "trip_48291004_20250620_001",
      "vehicleId": "48291004",
      "driverId": "22831003",
      "startMs": 1750420920000,
      "endMs": 1750421867023,
      "startLocation": {
        "latitude": 39.736869,
        "longitude": -104.965079
      },
      "endLocation": {
        "latitude": 39.802645,
        "longitude": -104.972546
      },
      "startAddress": "020 Matthews Stream",
      "endAddress": "5590 Moody Tunnel",
      "startCoords": {
        "latitude": 39.786902,
        "longitude": -105.059483
      },
      "endCoords": {
        "latitude": 39.796895,
        "longitude": -105.079823
      },
      "distanceMeters": 6744.0,
      "durationMs": 947023,
      "drivingDurationMs": 764415,
      "idlingDurationMs": 182608,
      "fuelConsumedMl": 859,
      "fuelConsumedGallons": 0.227,
      "maxSpeedMph": 61.9,
      "averageSpeedMph": 15.9,
      "safetyEvents": [],
      "_no_driver_login": false,
      "_fuel_note": "QUIRK 5: fuelConsumedGallons is in US gallons. Multiply by 3.785 for litres. Samsara does not link fuel to specific Onfleet tasks."
    },
    {
      "id": "trip_48291004_20250620_002",
      "vehicleId": "48291004",
      "driverId": "22831003",
      "startMs": 1750406220000,
      "endMs": 1750411589175,
      "startLocation": {
        "latitude": 39.807562,
        "longitude": -105.083853
      },
      "endLocation": {
        "latitude": 39.694224,
        "longitude": -105.055886
      },
      "startAddress": "034 Wagner Ridge Suite 768",
      "endAddress": "00010 Shields Field",
      "startCoords": {
        "latitude": 39.740718,
        "longitude": -105.026674
      },
      "endCoords": {
        "latitude": 39.70209,
        "longitude": -105.000001
      },
      "distanceMeters": 34296.7,
      "durationMs": 5369175,
      "drivingDurationMs": 4301853,
      "idlingDurationMs": 1067323,
      "fuelConsumedMl": 4361,
      "fuelConsumedGallons": 1.152,
      "maxSpeedMph": 56.1,
      "averageSpeedMph": 14.3,
      "safetyEvents": [],
      "_no_driver_login": false,
      "_fuel_note": ""
    },
    {
      "id": "trip_48291004_20250620_003",
      "vehicleId": "48291004",
      "driverId": "22831003",
      "startMs": 1750437540000,
      "endMs": 1750441910276,
      "startLocation": {
        "latitude": 39.711114,
        "longitude": -104.988129
      },
      "endLocation": {
        "latitude": 39.768271,
        "longitude": -104.917849
      },
      "startAddress": "5650 Carolyn Skyway",
      "endAddress": "19325 Cross Park Apt. 019",
      "startCoords": {
        "latitude": 39.788563,
        "longitude": -105.046267
      },
      "endCoords": {
        "latitude": 39.776015,
        "longitude": -104.951625
      },
      "distanceMeters": 31720.5,
      "durationMs": 4370276,
      "drivingDurationMs": 3704169,
      "idlingDurationMs": 666107,
      "fuelConsumedMl": 4031,
      "fuelConsumedGallons": 1.065,
      "maxSpeedMph": 32.2,
      "averageSpeedMph": 16.2,
      "safetyEvents": [],
      "_no_driver_login": false,
      "_fuel_note": ""
    },
    {
      "id": "trip_48291004_20250620_004",
      "vehicleId": "48291004",
      "driverId": "22831003",
      "startMs": 1750431300000,
      "endMs": 1750442575589,
      "startLocation": {
        "latitude": 39.716146,
        "longitude": -104.979447
      },
      "endLocation": {
        "latitude": 39.825959,
        "longitude": -105.081821
      },
      "startAddress": "64778 Kelly Flats",
      "endAddress": "78834 Tina Neck",
      "startCoords": {
        "latitude": 39.800346,
        "longitude": -104.909941
      },
      "endCoords": {
        "latitude": 39.685921,
        "longitude": -105.03639
      },
      "distanceMeters": 82996.3,
      "durationMs": 11275589,
      "drivingDurationMs": 10710336,
      "idlingDurationMs": 565253,
      "fuelConsumedMl": 10554,
      "fuelConsumedGallons": 2.788,
      "maxSpeedMph": 31.0,
      "averageSpeedMph": 16.5,
      "safetyEvents": [],
      "_no_driver_login": false,
      "_fuel_note": ""
    },
    {
      "id": "trip_48291004_20250620_005",
      "vehicleId": "48291004",
      "driverId": "22831003",
      "startMs": 1750437660000,
      "endMs": 1750445142784,
      "startLocation": {
        "latitude": 39.796923,
        "longitude": -104.933364
      },
      "endLocation": {
        "latitude": 39.76903,
        "longitude": -105.02789
      },
      "startAddress": "02823 Malone Hill",
      "endAddress": "2254 Deleon Springs Suite 715",
      "startCoords": {
        "latitude": 39.738715,
        "longitude": -104.964478
      },
      "endCoords": {
        "latitude": 39.69272,
        "longitude": -104.92069
      },
      "distanceMeters": 60801.4,
      "durationMs": 7482785,
      "drivingDurationMs": 6905268,
      "idlingDurationMs": 577517,
      "fuelConsumedMl": 7730,
      "fuelConsumedGallons": 2.042,
      "maxSpeedMph": 52.5,
      "averageSpeedMph": 18.2,
      "safetyEvents": [],
      "_no_driver_login": false,
      "_fuel_note": ""
    },
    {
      "id": "trip_48291004_20250621_001",
      "vehicleId": "48291004",
      "driverId": "22831003",
      "startMs": 1750512540000,
      "endMs": 1750521611644,
      "startLocation": {
        "latitude": 39.736299,
        "longitude": -104.914222
      },
      "endLocation": {
        "latitude": 39.785232,
        "longitude": -104.926151
      },
      "startAddress": "5180 Gary Drive",
      "endAddress": "253 Schultz Common",
      "startCoords": {
        "latitude": 39.810363,
        "longitude": -104.978954
      },
      "endCoords": {
        "latitude": 39.815098,
        "longitude": -104.958577
      },
      "distanceMeters": 59493.3,
      "durationMs": 9071644,
      "drivingDurationMs": 8223209,
      "idlingDurationMs": 848436,
      "fuelConsumedMl": 7563,
      "fuelConsumedGallons": 1.998,
      "maxSpeedMph": 44.4,
      "averageSpeedMph": 14.7,
      "safetyEvents": [],
      "_no_driver_login": false,
      "_fuel_note": "QUIRK 5: fuelConsumedGallons is in US gallons. Multiply by 3.785 for litres. Samsara does not link fuel to specific Onfleet tasks."
    },
    {
      "id": "trip_48291004_20250621_002",
      "vehicleId": "48291004",
      "driverId": "22831003",
      "startMs": 1750497360000,
      "endMs": 1750511156702,
      "startLocation": {
        "latitude": 39.779138,
        "longitude": -104.979404
      },
      "endLocation": {
        "latitude": 39.699694,
        "longitude": -105.042649
      },
      "startAddress": "075 Pollard Roads Suite 014",
      "endAddress": "6817 Timothy Union",
      "startCoords": {
        "latitude": 39.770153,
        "longitude": -104.933954
      },
      "endCoords": {
        "latitude": 39.782977,
        "longitude": -104.935302
      },
      "distanceMeters": 82665.0,
      "durationMs": 13796702,
      "drivingDurationMs": 12695165,
      "idlingDurationMs": 1101537,
      "fuelConsumedMl": 10512,
      "fuelConsumedGallons": 2.777,
      "maxSpeedMph": 37.2,
      "averageSpeedMph": 13.4,
      "safetyEvents": [],
      "_no_driver_login": false,
      "_fuel_note": ""
    },
    {
      "id": "trip_48291004_20250621_003",
      "vehicleId": "48291004",
      "driverId": "22831003",
      "startMs": 1750508580000,
      "endMs": 1750519509033,
      "startLocation": {
        "latitude": 39.701272,
        "longitude": -104.958276
      },
      "endLocation": {
        "latitude": 39.802187,
        "longitude": -104.970258
      },
      "startAddress": "13027 Anderson Harbors",
      "endAddress": "274 Kyle Brooks Apt. 850",
      "startCoords": {
        "latitude": 39.69972,
        "longitude": -105.078495
      },
      "endCoords": {
        "latitude": 39.69308,
        "longitude": -104.936941
      },
      "distanceMeters": 82256.4,
      "durationMs": 10929033,
      "drivingDurationMs": 9455860,
      "idlingDurationMs": 1473173,
      "fuelConsumedMl": 10459,
      "fuelConsumedGallons": 2.763,
      "maxSpeedMph": 49.7,
      "averageSpeedMph": 16.8,
      "safetyEvents": [],
      "_no_driver_login": false,
      "_fuel_note": ""
    },
    {
      "id": "trip_48291004_20250622_001",
      "vehicleId": "48291004",
      "driverId": "22831003",
      "startMs": 1750586400000,
      "endMs": 1750593689118,
      "startLocation": {
        "latitude": 39.754437,
        "longitude": -104.999867
      },
      "endLocation": {
        "latitude": 39.802747,
        "longitude": -105.03382
      },
      "startAddress": "002 Keith Ferry Apt. 988",
      "endAddress": "1809 Adams Dale",
      "startCoords": {
        "latitude": 39.792942,
        "longitude": -105.057704
      },
      "endCoords": {
        "latitude": 39.797132,
        "longitude": -104.954567
      },
      "distanceMeters": 48840.5,
      "durationMs": 7289119,
      "drivingDurationMs": 5985935,
      "idlingDurationMs": 1303184,
      "fuelConsumedMl": 6208,
      "fuelConsumedGallons": 1.64,
      "maxSpeedMph": 65.2,
      "averageSpeedMph": 15.0,
      "safetyEvents": [
        {
          "type": "speeding",
          "startMs": 1750587420000,
          "maxSpeedMph": 65.2
        }
      ],
      "_no_driver_login": false,
      "_fuel_note": "QUIRK 5: fuelConsumedGallons is in US gallons. Multiply by 3.785 for litres. Samsara does not link fuel to specific Onfleet tasks."
    },
    {
      "id": "trip_48291004_20250622_002",
      "vehicleId": "48291004",
      "driverId": "22831003",
      "startMs": 1750576440000,
      "endMs": 1750582714643,
      "startLocation": {
        "latitude": 39.690528,
        "longitude": -104.932543
      },
      "endLocation": {
        "latitude": 39.735447,
        "longitude": -104.941388
      },
      "startAddress": "0389 Cheryl Groves Suite 504",
      "endAddress": "43553 Leonard Ranch Suite 295",
      "startCoords": {
        "latitude": 39.816482,
        "longitude": -104.979437
      },
      "endCoords": {
        "latitude": 39.797171,
        "longitude": -105.040105
      },
      "distanceMeters": 40999.4,
      "durationMs": 6274644,
      "drivingDurationMs": 5839171,
      "idlingDurationMs": 435473,
      "fuelConsumedMl": 5213,
      "fuelConsumedGallons": 1.377,
      "maxSpeedMph": 53.8,
      "averageSpeedMph": 14.6,
      "safetyEvents": [],
      "_no_driver_login": false,
      "_fuel_note": ""
    },
    {
      "id": "trip_48291004_20250622_003",
      "vehicleId": "48291004",
      "driverId": "22831003",
      "startMs": 1750596060000,
      "endMs": 1750601239263,
      "startLocation": {
        "latitude": 39.795617,
        "longitude": -105.021869
      },
      "endLocation": {
        "latitude": 39.825433,
        "longitude": -105.013325
      },
      "startAddress": "36962 Jennifer Court",
      "endAddress": "0706 Brown Cape Suite 060",
      "startCoords": {
        "latitude": 39.744132,
        "longitude": -105.018017
      },
      "endCoords": {
        "latitude": 39.758772,
        "longitude": -104.949827
      },
      "distanceMeters": 27635.7,
      "durationMs": 5179264,
      "drivingDurationMs": 4935536,
      "idlingDurationMs": 243728,
      "fuelConsumedMl": 3513,
      "fuelConsumedGallons": 0.928,
      "maxSpeedMph": 56.1,
      "averageSpeedMph": 11.9,
      "safetyEvents": [],
      "_no_driver_login": false,
      "_fuel_note": ""
    },
    {
      "id": "trip_48291004_20250623_001",
      "vehicleId": "48291004",
      "driverId": "22831003",
      "startMs": 1750696560000,
      "endMs": 1750708642671,
      "startLocation": {
        "latitude": 39.75795,
        "longitude": -105.05501
      },
      "endLocation": {
        "latitude": 39.691665,
        "longitude": -105.047678
      },
      "startAddress": "7941 Madeline Gateway Apt. 400",
      "endAddress": "93108 Nguyen Creek Apt. 410",
      "startCoords": {
        "latitude": 39.748238,
        "longitude": -104.934839
      },
      "endCoords": {
        "latitude": 39.80459,
        "longitude": -105.035112
      },
      "distanceMeters": 76440.5,
      "durationMs": 12082672,
      "drivingDurationMs": 10101068,
      "idlingDurationMs": 1981604,
      "fuelConsumedMl": 9717,
      "fuelConsumedGallons": 2.567,
      "maxSpeedMph": 54.3,
      "averageSpeedMph": 14.2,
      "safetyEvents": [],
      "_no_driver_login": false,
      "_fuel_note": "QUIRK 5: fuelConsumedGallons is in US gallons. Multiply by 3.785 for litres. Samsara does not link fuel to specific Onfleet tasks."
    },
    {
      "id": "trip_48291004_20250623_002",
      "vehicleId": "48291004",
      "driverId": "22831003",
      "startMs": 1750658640000,
      "endMs": 1750665267540,
      "startLocation": {
        "latitude": 39.73001,
        "longitude": -104.961355
      },
      "endLocation": {
        "latitude": 39.68772,
        "longitude": -105.080093
      },
      "startAddress": "13055 Hall Inlet Suite 471",
      "endAddress": "2014 Jeffrey Fords Apt. 446",
      "startCoords": {
        "latitude": 39.751611,
        "longitude": -105.017788
      },
      "endCoords": {
        "latitude": 39.728674,
        "longitude": -105.050807
      },
      "distanceMeters": 54183.6,
      "durationMs": 6627541,
      "drivingDurationMs": 6209596,
      "idlingDurationMs": 417945,
      "fuelConsumedMl": 6889,
      "fuelConsumedGallons": 1.82,
      "maxSpeedMph": 62.8,
      "averageSpeedMph": 18.3,
      "safetyEvents": [],
      "_no_driver_login": false,
      "_fuel_note": ""
    },
    {
      "id": "trip_48291004_20250623_003",
      "vehicleId": "48291004",
      "driverId": "22831003",
      "startMs": 1750677600000,
      "endMs": 1750685493166,
      "startLocation": {
        "latitude": 39.760603,
        "longitude": -104.986635
      },
      "endLocation": {
        "latitude": 39.78278,
        "longitude": -105.054516
      },
      "startAddress": "81266 Williams Locks Apt. 969",
      "endAddress": "5970 Bartlett Divide",
      "startCoords": {
        "latitude": 39.700946,
        "longitude": -105.053028
      },
      "endCoords": {
        "latitude": 39.815172,
        "longitude": -104.925213
      },
      "distanceMeters": 50872.5,
      "durationMs": 7893167,
      "drivingDurationMs": 6405014,
      "idlingDurationMs": 1488153,
      "fuelConsumedMl": 6469,
      "fuelConsumedGallons": 1.709,
      "maxSpeedMph": 40.5,
      "averageSpeedMph": 14.4,
      "safetyEvents": [],
      "_no_driver_login": false,
      "_fuel_note": ""
    },
    {
      "id": "trip_48291004_20250623_004",
      "vehicleId": "48291004",
      "driverId": null,
      "startMs": 1750700220000,
      "endMs": 1750707192249,
      "startLocation": {
        "latitude": 39.796237,
        "longitude": -105.051225
      },
      "endLocation": {
        "latitude": 39.749363,
        "longitude": -105.07179
      },
      "startAddress": "15210 Lauren Stravenue",
      "endAddress": "9251 Fischer Tunnel",
      "startCoords": {
        "latitude": 39.764182,
        "longitude": -104.993755
      },
      "endCoords": {
        "latitude": 39.819336,
        "longitude": -105.053494
      },
      "distanceMeters": 48934.8,
      "durationMs": 6972249,
      "drivingDurationMs": 6384672,
      "idlingDurationMs": 587577,
      "fuelConsumedMl": 6223,
      "fuelConsumedGallons": 1.644,
      "maxSpeedMph": 31.2,
      "averageSpeedMph": 15.7,
      "safetyEvents": [],
      "_no_driver_login": true,
      "_fuel_note": ""
    },
    {
      "id": "trip_48291004_20250623_005",
      "vehicleId": "48291004",
      "driverId": "22831003",
      "startMs": 1750704120000,
      "endMs": 1750712400000,
      "startLocation": {
        "latitude": 39.709705,
        "longitude": -105.076917
      },
      "endLocation": {
        "latitude": 39.696978,
        "longitude": -104.922262
      },
      "startAddress": "75348 James Locks Apt. 514",
      "endAddress": "994 Carey Walks",
      "startCoords": {
        "latitude": 39.813211,
        "longitude": -104.939839
      },
      "endCoords": {
        "latitude": 39.720543,
        "longitude": -105.047911
      },
      "distanceMeters": 47652.7,
      "durationMs": 8280000,
      "drivingDurationMs": 6873165,
      "idlingDurationMs": 1406835,
      "fuelConsumedMl": 6060,
      "fuelConsumedGallons": 1.601,
      "maxSpeedMph": 69.4,
      "averageSpeedMph": 12.9,
      "safetyEvents": [
        {
          "type": "speeding",
          "startMs": 1750709340000,
          "maxSpeedMph": 69.4
        }
      ],
      "_no_driver_login": false,
      "_fuel_note": ""
    },
    {
      "id": "trip_48291004_20250623_006",
      "vehicleId": "48291004",
      "driverId": "22831003",
      "startMs": 1750700280000,
      "endMs": 1750701941979,
      "startLocation": {
        "latitude": 39.694373,
        "longitude": -105.0527
      },
      "endLocation": {
        "latitude": 39.697785,
        "longitude": -105.017617
      },
      "startAddress": "2428 Linda Harbors Apt. 814",
      "endAddress": "466 John Ramp",
      "startCoords": {
        "latitude": 39.69944,
        "longitude": -104.993937
      },
      "endCoords": {
        "latitude": 39.754416,
        "longitude": -104.988928
      },
      "distanceMeters": 11171.2,
      "durationMs": 1661980,
      "drivingDurationMs": 1367224,
      "idlingDurationMs": 294756,
      "fuelConsumedMl": 1420,
      "fuelConsumedGallons": 0.375,
      "maxSpeedMph": 35.9,
      "averageSpeedMph": 15.0,
      "safetyEvents": [],
      "_no_driver_login": false,
      "_fuel_note": ""
    },
    {
      "id": "trip_48291004_20250624_001",
      "vehicleId": "48291004",
      "driverId": "22831003",
      "startMs": 1750751400000,
      "endMs": 1750757818302,
      "startLocation": {
        "latitude": 39.788899,
        "longitude": -105.000572
      },
      "endLocation": {
        "latitude": 39.7934,
        "longitude": -105.023418
      },
      "startAddress": "6123 Timothy Hills Apt. 146",
      "endAddress": "9305 Summer Wells Suite 995",
      "startCoords": {
        "latitude": 39.75005,
        "longitude": -104.918191
      },
      "endCoords": {
        "latitude": 39.689842,
        "longitude": -104.945275
      },
      "distanceMeters": 48851.2,
      "durationMs": 6418303,
      "drivingDurationMs": 5758035,
      "idlingDurationMs": 660268,
      "fuelConsumedMl": 6212,
      "fuelConsumedGallons": 1.641,
      "maxSpeedMph": 48.4,
      "averageSpeedMph": 17.0,
      "safetyEvents": [],
      "_no_driver_login": false,
      "_fuel_note": "QUIRK 5: fuelConsumedGallons is in US gallons. Multiply by 3.785 for litres. Samsara does not link fuel to specific Onfleet tasks."
    },
    {
      "id": "trip_48291004_20250624_002",
      "vehicleId": "48291004",
      "driverId": "22831003",
      "startMs": 1750770120000,
      "endMs": 1750775763079,
      "startLocation": {
        "latitude": 39.822085,
        "longitude": -104.941379
      },
      "endLocation": {
        "latitude": 39.760027,
        "longitude": -104.970775
      },
      "startAddress": "42710 Stacey Lodge",
      "endAddress": "874 Amy Center",
      "startCoords": {
        "latitude": 39.719659,
        "longitude": -104.992172
      },
      "endCoords": {
        "latitude": 39.801779,
        "longitude": -105.023809
      },
      "distanceMeters": 37334.5,
      "durationMs": 5643079,
      "drivingDurationMs": 4662648,
      "idlingDurationMs": 980431,
      "fuelConsumedMl": 4747,
      "fuelConsumedGallons": 1.254,
      "maxSpeedMph": 46.5,
      "averageSpeedMph": 14.8,
      "safetyEvents": [],
      "_no_driver_login": false,
      "_fuel_note": ""
    },
    {
      "id": "trip_48291004_20250625_001",
      "vehicleId": "48291004",
      "driverId": null,
      "startMs": 1750833300000,
      "endMs": 1750849207457,
      "startLocation": {
        "latitude": 39.769427,
        "longitude": -104.97026
      },
      "endLocation": {
        "latitude": 39.748383,
        "longitude": -104.953809
      },
      "startAddress": "15198 Tara Junction Suite 736",
      "endAddress": "86553 Nathan Pines Apt. 478",
      "startCoords": {
        "latitude": 39.735765,
        "longitude": -104.982793
      },
      "endCoords": {
        "latitude": 39.709099,
        "longitude": -104.914476
      },
      "distanceMeters": 82547.9,
      "durationMs": 15907458,
      "drivingDurationMs": 15039447,
      "idlingDurationMs": 868011,
      "fuelConsumedMl": 10497,
      "fuelConsumedGallons": 2.773,
      "maxSpeedMph": 49.1,
      "averageSpeedMph": 11.6,
      "safetyEvents": [],
      "_no_driver_login": true,
      "_fuel_note": "QUIRK 5: fuelConsumedGallons is in US gallons. Multiply by 3.785 for litres. Samsara does not link fuel to specific Onfleet tasks."
    },
    {
      "id": "trip_48291004_20250625_002",
      "vehicleId": "48291004",
      "driverId": "22831003",
      "startMs": 1750874940000,
      "endMs": 1750880098683,
      "startLocation": {
        "latitude": 39.819327,
        "longitude": -105.05379
      },
      "endLocation": {
        "latitude": 39.792917,
        "longitude": -104.902338
      },
      "startAddress": "5467 Danielle Manor Apt. 176",
      "endAddress": "50985 Antonio Centers",
      "startCoords": {
        "latitude": 39.71051,
        "longitude": -105.010583
      },
      "endCoords": {
        "latitude": 39.7235,
        "longitude": -105.01718
      },
      "distanceMeters": 25711.9,
      "durationMs": 5158684,
      "drivingDurationMs": 4581742,
      "idlingDurationMs": 576941,
      "fuelConsumedMl": 3271,
      "fuelConsumedGallons": 0.864,
      "maxSpeedMph": 29.8,
      "averageSpeedMph": 11.1,
      "safetyEvents": [],
      "_no_driver_login": false,
      "_fuel_note": ""
    },
    {
      "id": "trip_48291004_20250625_003",
      "vehicleId": "48291004",
      "driverId": "22831003",
      "startMs": 1750841280000,
      "endMs": 1750844489068,
      "startLocation": {
        "latitude": 39.792551,
        "longitude": -105.064473
      },
      "endLocation": {
        "latitude": 39.739087,
        "longitude": -105.058851
      },
      "startAddress": "1008 Henry Corners",
      "endAddress": "61576 Morgan Spring Apt. 708",
      "startCoords": {
        "latitude": 39.728375,
        "longitude": -104.908433
      },
      "endCoords": {
        "latitude": 39.73403,
        "longitude": -104.948855
      },
      "distanceMeters": 14504.1,
      "durationMs": 3209069,
      "drivingDurationMs": 2696022,
      "idlingDurationMs": 513047,
      "fuelConsumedMl": 1843,
      "fuelConsumedGallons": 0.487,
      "maxSpeedMph": 41.3,
      "averageSpeedMph": 10.1,
      "safetyEvents": [],
      "_no_driver_login": false,
      "_fuel_note": ""
    },
    {
      "id": "trip_48291004_20250626_001",
      "vehicleId": "48291004",
      "driverId": "22831003",
      "startMs": 1750921920000,
      "endMs": 1750933443092,
      "startLocation": {
        "latitude": 39.788169,
        "longitude": -105.084911
      },
      "endLocation": {
        "latitude": 39.740113,
        "longitude": -104.984463
      },
      "startAddress": "7727 Crystal Islands Suite 169",
      "endAddress": "3296 Ian Fort Apt. 477",
      "startCoords": {
        "latitude": 39.685237,
        "longitude": -105.081788
      },
      "endCoords": {
        "latitude": 39.721281,
        "longitude": -104.9958
      },
      "distanceMeters": 62857.7,
      "durationMs": 11523092,
      "drivingDurationMs": 9961724,
      "idlingDurationMs": 1561368,
      "fuelConsumedMl": 7991,
      "fuelConsumedGallons": 2.111,
      "maxSpeedMph": 60.6,
      "averageSpeedMph": 12.2,
      "safetyEvents": [],
      "_no_driver_login": false,
      "_fuel_note": "QUIRK 5: fuelConsumedGallons is in US gallons. Multiply by 3.785 for litres. Samsara does not link fuel to specific Onfleet tasks."
    },
    {
      "id": "trip_48291004_20250626_002",
      "vehicleId": "48291004",
      "driverId": "22831003",
      "startMs": 1750935900000,
      "endMs": 1750949483520,
      "startLocation": {
        "latitude": 39.732663,
        "longitude": -105.079988
      },
      "endLocation": {
        "latitude": 39.807182,
        "longitude": -105.00491
      },
      "startAddress": "433 Morgan Vista",
      "endAddress": "1444 Melissa Oval Suite 904",
      "startCoords": {
        "latitude": 39.688467,
        "longitude": -104.949193
      },
      "endCoords": {
        "latitude": 39.754629,
        "longitude": -105.02409
      },
      "distanceMeters": 72936.8,
      "durationMs": 13583521,
      "drivingDurationMs": 12970141,
      "idlingDurationMs": 613380,
      "fuelConsumedMl": 9274,
      "fuelConsumedGallons": 2.45,
      "maxSpeedMph": 49.5,
      "averageSpeedMph": 12.0,
      "safetyEvents": [],
      "_no_driver_login": false,
      "_fuel_note": ""
    },
    {
      "id": "trip_48291004_20250626_003",
      "vehicleId": "48291004",
      "driverId": "22831003",
      "startMs": 1750919700000,
      "endMs": 1750933515239,
      "startLocation": {
        "latitude": 39.686434,
        "longitude": -105.009518
      },
      "endLocation": {
        "latitude": 39.78945,
        "longitude": -104.917448
      },
      "startAddress": "7661 Lori Islands Apt. 962",
      "endAddress": "995 Nichols Landing Suite 676",
      "startCoords": {
        "latitude": 39.748111,
        "longitude": -104.977382
      },
      "endCoords": {
        "latitude": 39.763487,
        "longitude": -105.046891
      },
      "distanceMeters": 81713.7,
      "durationMs": 13815240,
      "drivingDurationMs": 11904568,
      "idlingDurationMs": 1910672,
      "fuelConsumedMl": 10391,
      "fuelConsumedGallons": 2.745,
      "maxSpeedMph": 70.9,
      "averageSpeedMph": 13.2,
      "safetyEvents": [
        {
          "type": "speeding",
          "startMs": 1750932060000,
          "maxSpeedMph": 70.9
        }
      ],
      "_no_driver_login": false,
      "_fuel_note": ""
    },
    {
      "id": "trip_48291004_20250626_004",
      "vehicleId": "48291004",
      "driverId": "22831003",
      "startMs": 1750953120000,
      "endMs": 1750956492634,
      "startLocation": {
        "latitude": 39.789142,
        "longitude": -104.935223
      },
      "endLocation": {
        "latitude": 39.761311,
        "longitude": -104.924382
      },
      "startAddress": "1062 Amber Burgs Apt. 152",
      "endAddress": "995 Lopez Ridge Suite 752",
      "startCoords": {
        "latitude": 39.691601,
        "longitude": -105.043121
      },
      "endCoords": {
        "latitude": 39.684892,
        "longitude": -105.034898
      },
      "distanceMeters": 16115.5,
      "durationMs": 3372634,
      "drivingDurationMs": 2889249,
      "idlingDurationMs": 483386,
      "fuelConsumedMl": 2048,
      "fuelConsumedGallons": 0.541,
      "maxSpeedMph": 31.4,
      "averageSpeedMph": 10.7,
      "safetyEvents": [],
      "_no_driver_login": false,
      "_fuel_note": ""
    },
    {
      "id": "trip_48291004_20250626_005",
      "vehicleId": "48291004",
      "driverId": "22831003",
      "startMs": 1750926840000,
      "endMs": 1750941943868,
      "startLocation": {
        "latitude": 39.688437,
        "longitude": -105.078322
      },
      "endLocation": {
        "latitude": 39.790299,
        "longitude": -104.988947
      },
      "startAddress": "65820 Michael Via",
      "endAddress": "201 Lisa Stravenue Suite 419",
      "startCoords": {
        "latitude": 39.713265,
        "longitude": -105.028083
      },
      "endCoords": {
        "latitude": 39.795227,
        "longitude": -105.010765
      },
      "distanceMeters": 77018.5,
      "durationMs": 15103869,
      "drivingDurationMs": 14096730,
      "idlingDurationMs": 1007138,
      "fuelConsumedMl": 9793,
      "fuelConsumedGallons": 2.587,
      "maxSpeedMph": 31.7,
      "averageSpeedMph": 11.4,
      "safetyEvents": [],
      "_no_driver_login": false,
      "_fuel_note": ""
    },
    {
      "id": "trip_48291004_20250627_001",
      "vehicleId": "48291004",
      "driverId": "22831003",
      "startMs": 1751048400000,
      "endMs": 1751056593052,
      "startLocation": {
        "latitude": 39.819343,
        "longitude": -104.907704
      },
      "endLocation": {
        "latitude": 39.751584,
        "longitude": -104.964731
      },
      "startAddress": "3807 Torres Rue",
      "endAddress": "53166 Amy Row Apt. 522",
      "startCoords": {
        "latitude": 39.684416,
        "longitude": -105.085218
      },
      "endCoords": {
        "latitude": 39.698698,
        "longitude": -104.931018
      },
      "distanceMeters": 39705.7,
      "durationMs": 8193053,
      "drivingDurationMs": 6591669,
      "idlingDurationMs": 1601384,
      "fuelConsumedMl": 5050,
      "fuelConsumedGallons": 1.334,
      "maxSpeedMph": 68.2,
      "averageSpeedMph": 10.8,
      "safetyEvents": [
        {
          "type": "speeding",
          "startMs": 1751049000000,
          "maxSpeedMph": 68.2
        }
      ],
      "_no_driver_login": false,
      "_fuel_note": "QUIRK 5: fuelConsumedGallons is in US gallons. Multiply by 3.785 for litres. Samsara does not link fuel to specific Onfleet tasks."
    },
    {
      "id": "trip_48291004_20250627_002",
      "vehicleId": "48291004",
      "driverId": "22831003",
      "startMs": 1751030640000,
      "endMs": 1751036736406,
      "startLocation": {
        "latitude": 39.735308,
        "longitude": -104.973726
      },
      "endLocation": {
        "latitude": 39.827292,
        "longitude": -104.958533
      },
      "startAddress": "36251 Seth Fall",
      "endAddress": "5497 Williams Lodge Suite 670",
      "startCoords": {
        "latitude": 39.738263,
        "longitude": -104.981244
      },
      "endCoords": {
        "latitude": 39.809159,
        "longitude": -105.079036
      },
      "distanceMeters": 36946.5,
      "durationMs": 6096407,
      "drivingDurationMs": 5069532,
      "idlingDurationMs": 1026875,
      "fuelConsumedMl": 4698,
      "fuelConsumedGallons": 1.241,
      "maxSpeedMph": 61.8,
      "averageSpeedMph": 13.6,
      "safetyEvents": [],
      "_no_driver_login": false,
      "_fuel_note": ""
    },
    {
      "id": "trip_48291004_20250628_001",
      "vehicleId": "48291004",
      "driverId": "22831003",
      "startMs": 1751123700000,
      "endMs": 1751137168481,
      "startLocation": {
        "latitude": 39.694236,
        "longitude": -105.067432
      },
      "endLocation": {
        "latitude": 39.779835,
        "longitude": -105.028916
      },
      "startAddress": "112 Stephen Crescent Apt. 588",
      "endAddress": "60117 West Trail Apt. 183",
      "startCoords": {
        "latitude": 39.739328,
        "longitude": -104.969802
      },
      "endCoords": {
        "latitude": 39.764857,
        "longitude": -104.91425
      },
      "distanceMeters": 80446.8,
      "durationMs": 13468482,
      "drivingDurationMs": 12098803,
      "idlingDurationMs": 1369678,
      "fuelConsumedMl": 10228,
      "fuelConsumedGallons": 2.702,
      "maxSpeedMph": 44.5,
      "averageSpeedMph": 13.4,
      "safetyEvents": [],
      "_no_driver_login": false,
      "_fuel_note": "QUIRK 5: fuelConsumedGallons is in US gallons. Multiply by 3.785 for litres. Samsara does not link fuel to specific Onfleet tasks."
    },
    {
      "id": "trip_48291004_20250628_002",
      "vehicleId": "48291004",
      "driverId": "22831003",
      "startMs": 1751130120000,
      "endMs": 1751140971777,
      "startLocation": {
        "latitude": 39.710908,
        "longitude": -104.987225
      },
      "endLocation": {
        "latitude": 39.765343,
        "longitude": -104.967295
      },
      "startAddress": "9594 Sutton Turnpike Apt. 322",
      "endAddress": "577 Holt Streets",
      "startCoords": {
        "latitude": 39.779316,
        "longitude": -105.008206
      },
      "endCoords": {
        "latitude": 39.75333,
        "longitude": -104.93076
      },
      "distanceMeters": 72330.9,
      "durationMs": 10851778,
      "drivingDurationMs": 9301995,
      "idlingDurationMs": 1549783,
      "fuelConsumedMl": 9195,
      "fuelConsumedGallons": 2.429,
      "maxSpeedMph": 39.0,
      "averageSpeedMph": 14.9,
      "safetyEvents": [],
      "_no_driver_login": false,
      "_fuel_note": ""
    },
    {
      "id": "trip_48291004_20250628_003",
      "vehicleId": "48291004",
      "driverId": "22831003",
      "startMs": 1751124780000,
      "endMs": 1751126010980,
      "startLocation": {
        "latitude": 39.709013,
        "longitude": -105.087204
      },
      "endLocation": {
        "latitude": 39.737072,
        "longitude": -105.050631
      },