{
  "vehicleId": "48291016",
  "vehicleName": "DEN-MOT-03",
  "month": "2025_06",
  "pagination": {
    "endCursor": "trip_48291016_20250630_015",
    "hasNextPage": false
  },
  "trips": [
    {
      "id": "trip_48291016_20250602_001",
      "vehicleId": "48291016",
      "driverId": "22831015",
      "startMs": 1748863320000,
      "endMs": 1748864877264,
      "startLocation": {
        "latitude": 39.697187,
        "longitude": -104.911294
      },
      "endLocation": {
        "latitude": 39.748276,
        "longitude": -105.039308
      },
      "startAddress": "942 David Wall",
      "endAddress": "721 Beverly Centers Apt. 154",
      "startCoords": {
        "latitude": 39.722332,
        "longitude": -104.931699
      },
      "endCoords": {
        "latitude": 39.771698,
        "longitude": -105.022977
      },
      "distanceMeters": 11996.2,
      "durationMs": 1557265,
      "drivingDurationMs": 1358924,
      "idlingDurationMs": 198341,
      "fuelConsumedMl": 541,
      "fuelConsumedGallons": 0.143,
      "maxSpeedMph": 47.4,
      "averageSpeedMph": 17.2,
      "safetyEvents": [],
      "_no_driver_login": false,
      "_fuel_note": "QUIRK 5: fuelConsumedGallons is in US gallons. Multiply by 3.785 for litres. Samsara does not link fuel to specific Onfleet tasks."
    },
    {
      "id": "trip_48291016_20250602_002",
      "vehicleId": "48291016",
      "driverId": "22831015",
      "startMs": 1748857320000,
      "endMs": 1748860536059,
      "startLocation": {
        "latitude": 39.792016,
        "longitude": -105.077252
      },
      "endLocation": {
        "latitude": 39.779619,
        "longitude": -105.057778
      },
      "startAddress": "80478 Sherry Isle",
      "endAddress": "907 Jacobs Place Suite 875",
      "startCoords": {
        "latitude": 39.729417,
        "longitude": -104.965437
      },
      "endCoords": {
        "latitude": 39.782732,
        "longitude": -105.065111
      },
      "distanceMeters": 20054.2,
      "durationMs": 3216059,
      "drivingDurationMs": 2871309,
      "idlingDurationMs": 344750,
      "fuelConsumedMl": 908,
      "fuelConsumedGallons": 0.24,
      "maxSpeedMph": 62.8,
      "averageSpeedMph": 13.9,
      "safetyEvents": [],
      "_no_driver_login": false,
      "_fuel_note": ""
    },
    {
      "id": "trip_48291016_20250602_003",
      "vehicleId": "48291016",
      "driverId": "22831015",
      "startMs": 1748861400000,
      "endMs": 1748862711248,
      "startLocation": {
        "latitude": 39.822418,
        "longitude": -105.028811
      },
      "endLocation": {
        "latitude": 39.802613,
        "longitude": -105.010824
      },
      "startAddress": "5217 Joseph Valley",
      "endAddress": "510 Guzman Forges",
      "startCoords": {
        "latitude": 39.791661,
        "longitude": -104.903047
      },
      "endCoords": {
        "latitude": 39.686494,
        "longitude": -105.055418
      },
      "distanceMeters": 8524.6,
      "durationMs": 1311249,
      "drivingDurationMs": 1091727,
      "idlingDurationMs": 219522,
      "fuelConsumedMl": 386,
      "fuelConsumedGallons": 0.102,
      "maxSpeedMph": 31.3,
      "averageSpeedMph": 14.5,
      "safetyEvents": [],
      "_no_driver_login": false,
      "_fuel_note": ""
    },
    {
      "id": "trip_48291016_20250602_004",
      "vehicleId": "48291016",
      "driverId": "22831015",
      "startMs": 1748859480000,
      "endMs": 1748860305455,
      "startLocation": {
        "latitude": 39.699812,
        "longitude": -105.067722
      },
      "endLocation": {
        "latitude": 39.709372,
        "longitude": -105.032867
      },
      "startAddress": "7034 Graham Ridges Apt. 100",
      "endAddress": "6463 Reed Crescent",
      "startCoords": {
        "latitude": 39.760406,
        "longitude": -105.040825
      },
      "endCoords": {
        "latitude": 39.815555,
        "longitude": -105.073224
      },
      "distanceMeters": 5845.0,
      "durationMs": 825456,
      "drivingDurationMs": 651166,
      "idlingDurationMs": 174289,
      "fuelConsumedMl": 265,
      "fuelConsumedGallons": 0.07,
      "maxSpeedMph": 43.5,
      "averageSpeedMph": 15.8,
      "safetyEvents": [],
      "_no_driver_login": false,
      "_fuel_note": ""
    },
    {
      "id": "trip_48291016_20250602_005",
      "vehicleId": "48291016",
      "driverId": "22831015",
      "startMs": 1748890140000,
      "endMs": 1748892223511,
      "startLocation": {
        "latitude": 39.739415,
        "longitude": -104.902017
      },
      "endLocation": {
        "latitude": 39.790807,
        "longitude": -104.972233
      },
      "startAddress": "2340 Cannon Gardens Suite 359",
      "endAddress": "8165 Collins Bridge Suite 108",
      "startCoords": {
        "latitude": 39.818645,
        "longitude": -105.041808
      },
      "endCoords": {
        "latitude": 39.812822,
        "longitude": -105.025658
      },
      "distanceMeters": 15677.9,
      "durationMs": 2083511,
      "drivingDurationMs": 1848515,
      "idlingDurationMs": 234997,
      "fuelConsumedMl": 708,
      "fuelConsumedGallons": 0.187,
      "maxSpeedMph": 53.4,
      "averageSpeedMph": 16.8,
      "safetyEvents": [],
      "_no_driver_login": false,
      "_fuel_note": ""
    },
    {
      "id": "trip_48291016_20250602_006",
      "vehicleId": "48291016",
      "driverId": null,
      "startMs": 1748868960000,
      "endMs": 1748870365852,
      "startLocation": {
        "latitude": 39.766937,
        "longitude": -104.966941
      },
      "endLocation": {
        "latitude": 39.692759,
        "longitude": -105.012218
      },
      "startAddress": "661 Ellis Mill Suite 429",
      "endAddress": "7971 Luis Point Apt. 429",
      "startCoords": {
        "latitude": 39.723199,
        "longitude": -105.005652
      },
      "endCoords": {
        "latitude": 39.695592,
        "longitude": -105.032009
      },
      "distanceMeters": 9245.2,
      "durationMs": 1405853,
      "drivingDurationMs": 1149818,
      "idlingDurationMs": 256035,
      "fuelConsumedMl": 416,
      "fuelConsumedGallons": 0.11,
      "maxSpeedMph": 39.7,
      "averageSpeedMph": 14.7,
      "safetyEvents": [],
      "_no_driver_login": true,
      "_fuel_note": ""
    },
    {
      "id": "trip_48291016_20250602_007",
      "vehicleId": "48291016",
      "driverId": "22831015",
      "startMs": 1748862060000,
      "endMs": 1748863521310,
      "startLocation": {
        "latitude": 39.821889,
        "longitude": -104.959464
      },
      "endLocation": {
        "latitude": 39.813115,
        "longitude": -105.056742
      },
      "startAddress": "2834 Thomas Walk Apt. 757",
      "endAddress": "458 Parker Island",
      "startCoords": {
        "latitude": 39.700362,
        "longitude": -105.078606
      },
      "endCoords": {
        "latitude": 39.773492,
        "longitude": -104.972468
      },
      "distanceMeters": 9855.4,
      "durationMs": 1461310,
      "drivingDurationMs": 1257428,
      "idlingDurationMs": 203882,
      "fuelConsumedMl": 447,
      "fuelConsumedGallons": 0.118,
      "maxSpeedMph": 64.4,
      "averageSpeedMph": 15.1,
      "safetyEvents": [],
      "_no_driver_login": false,
      "_fuel_note": ""
    },
    {
      "id": "trip_48291016_20250602_008",
      "vehicleId": "48291016",
      "driverId": "22831015",
      "startMs": 1748874300000,
      "endMs": 1748878886040,
      "startLocation": {
        "latitude": 39.824083,
        "longitude": -104.987711
      },
      "endLocation": {
        "latitude": 39.757322,
        "longitude": -104.917352
      },
      "startAddress": "373 Allison Fork",
      "endAddress": "360 Hall Dam",
      "startCoords": {
        "latitude": 39.730136,
        "longitude": -105.070555
      },
      "endCoords": {
        "latitude": 39.705184,
        "longitude": -104.94028
      },
      "distanceMeters": 24134.0,
      "durationMs": 4586040,
      "drivingDurationMs": 3751456,
      "idlingDurationMs": 834584,
      "fuelConsumedMl": 1090,
      "fuelConsumedGallons": 0.288,
      "maxSpeedMph": 39.5,
      "averageSpeedMph": 11.8,
      "safetyEvents": [],
      "_no_driver_login": false,
      "_fuel_note": ""
    },
    {
      "id": "trip_48291016_20250602_009",
      "vehicleId": "48291016",
      "driverId": "22831015",
      "startMs": 1748856660000,
      "endMs": 1748859524443,
      "startLocation": {
        "latitude": 39.776661,
        "longitude": -104.968967
      },
      "endLocation": {
        "latitude": 39.808973,
        "longitude": -104.905696
      },
      "startAddress": "56977 Morgan Key Apt. 710",
      "endAddress": "064 Lucas Turnpike",
      "startCoords": {
        "latitude": 39.750737,
        "longitude": -105.058616
      },
      "endCoords": {
        "latitude": 39.708939,
        "longitude": -105.083106
      },
      "distanceMeters": 22503.0,
      "durationMs": 2864443,
      "drivingDurationMs": 2662037,
      "idlingDurationMs": 202406,
      "fuelConsumedMl": 1018,
      "fuelConsumedGallons": 0.269,
      "maxSpeedMph": 67.9,
      "averageSpeedMph": 17.6,
      "safetyEvents": [
        {
          "type": "speeding",
          "startMs": 1748857260000,
          "maxSpeedMph": 67.9
        }
      ],
      "_no_driver_login": false,
      "_fuel_note": ""
    },
    {
      "id": "trip_48291016_20250602_010",
      "vehicleId": "48291016",
      "driverId": "22831015",
      "startMs": 1748870820000,
      "endMs": 1748872503508,
      "startLocation": {
        "latitude": 39.771937,
        "longitude": -105.011327
      },
      "endLocation": {
        "latitude": 39.745877,
        "longitude": -105.051909
      },
      "startAddress": "5923 Barbara Courts Suite 296",
      "endAddress": "51154 Harry Centers",
      "startCoords": {
        "latitude": 39.803389,
        "longitude": -104.923779
      },
      "endCoords": {
        "latitude": 39.766887,
        "longitude": -105.033131
      },
      "distanceMeters": 14038.1,
      "durationMs": 1683508,
      "drivingDurationMs": 1470274,
      "idlingDurationMs": 213234,
      "fuelConsumedMl": 636,
      "fuelConsumedGallons": 0.168,
      "maxSpeedMph": 56.0,
      "averageSpeedMph": 18.7,
      "safetyEvents": [],
      "_no_driver_login": false,
      "_fuel_note": ""
    },
    {
      "id": "trip_48291016_20250602_011",
      "vehicleId": "48291016",
      "driverId": "22831015",
      "startMs": 1748886900000,
      "endMs": 1748890419147,
      "startLocation": {
        "latitude": 39.791798,
        "longitude": -105.009833
      },
      "endLocation": {
        "latitude": 39.739079,
        "longitude": -105.005213
      },
      "startAddress": "9959 Janet Keys Suite 777",
      "endAddress": "403 Hoover Corner",
      "startCoords": {
        "latitude": 39.704092,
        "longitude": -105.000919
      },
      "endCoords": {
        "latitude": 39.693628,
        "longitude": -105.059321
      },
      "distanceMeters": 19454.7,
      "durationMs": 3519148,
      "drivingDurationMs": 3147058,
      "idlingDurationMs": 372090,
      "fuelConsumedMl": 878,
      "fuelConsumedGallons": 0.232,
      "maxSpeedMph": 64.2,
      "averageSpeedMph": 12.4,
      "safetyEvents": [],
      "_no_driver_login": false,
      "_fuel_note": ""
    },
    {
      "id": "trip_48291016_20250602_012",
      "vehicleId": "48291016",
      "driverId": "22831015",
      "startMs": 1748859780000,
      "endMs": 1748861479445,
      "startLocation": {
        "latitude": 39.775408,
        "longitude": -105.068007
      },
      "endLocation": {
        "latitude": 39.757527,
        "longitude": -104.902813
      },
      "startAddress": "4320 Perez Hills Apt. 588",
      "endAddress": "734 Vanessa Crest Apt. 134",
      "startCoords": {
        "latitude": 39.696688,
        "longitude": -105.02012
      },
      "endCoords": {
        "latitude": 39.728735,
        "longitude": -105.057361
      },
      "distanceMeters": 11371.9,
      "durationMs": 1699446,
      "drivingDurationMs": 1413898,
      "idlingDurationMs": 285547,
      "fuelConsumedMl": 515,
      "fuelConsumedGallons": 0.136,
      "maxSpeedMph": 42.0,
      "averageSpeedMph": 15.0,
      "safetyEvents": [],
      "_no_driver_login": false,
      "_fuel_note": ""
    },
    {
      "id": "trip_48291016_20250602_013",
      "vehicleId": "48291016",
      "driverId": "22831015",
      "startMs": 1748882640000,
      "endMs": 1748886407046,
      "startLocation": {
        "latitude": 39.796891,
        "longitude": -104.983096
      },
      "endLocation": {
        "latitude": 39.689939,
        "longitude": -104.912803
      },
      "startAddress": "2356 James Field",
      "endAddress": "04645 Johnson Ford",
      "startCoords": {
        "latitude": 39.693558,
        "longitude": -105.064247
      },
      "endCoords": {
        "latitude": 39.760609,
        "longitude": -104.921922
      },
      "distanceMeters": 22575.1,
      "durationMs": 3767046,
      "drivingDurationMs": 3024419,
      "idlingDurationMs": 742627,
      "fuelConsumedMl": 1022,
      "fuelConsumedGallons": 0.27,
      "maxSpeedMph": 36.2,
      "averageSpeedMph": 13.4,
      "safetyEvents": [],
      "_no_driver_login": false,
      "_fuel_note": ""
    },
    {
      "id": "trip_48291016_20250602_014",
      "vehicleId": "48291016",
      "driverId": "22831015",
      "startMs": 1748887380000,
      "endMs": 1748887986363,
      "startLocation": {
        "latitude": 39.693533,
        "longitude": -105.034206
      },
      "endLocation": {
        "latitude": 39.746635,
        "longitude": -105.060736
      },
      "startAddress": "948 Bond Crossing Suite 244",
      "endAddress": "336 Hayden Shoals",
      "startCoords": {
        "latitude": 39.767983,
        "longitude": -105.057134
      },
      "endCoords": {
        "latitude": 39.741023,
        "longitude": -104.906385
      },
      "distanceMeters": 4744.3,
      "durationMs": 606363,
      "drivingDurationMs": 454151,
      "idlingDurationMs": 152213,
      "fuelConsumedMl": 216,
      "fuelConsumedGallons": 0.057,
      "maxSpeedMph": 51.3,
      "averageSpeedMph": 17.5,
      "safetyEvents": [],
      "_no_driver_login": false,
      "_fuel_note": ""
    },
    {
      "id": "trip_48291016_20250602_015",
      "vehicleId": "48291016",
      "driverId": "22831015",
      "startMs": 1748885520000,
      "endMs": 1748888034339,
      "startLocation": {
        "latitude": 39.730767,
        "longitude": -104.959232
      },
      "endLocation": {
        "latitude": 39.788106,
        "longitude": -105.033906
      },
      "startAddress": "94631 Logan Lodge",
      "endAddress": "44621 Sherri Port Suite 562",
      "startCoords": {
        "latitude": 39.718517,
        "longitude": -105.027895
      },
      "endCoords": {
        "latitude": 39.746755,
        "longitude": -104.928388
      },
      "distanceMeters": 18062.5,
      "durationMs": 2514339,
      "drivingDurationMs": 2101296,
      "idlingDurationMs": 413044,
      "fuelConsumedMl": 818,
      "fuelConsumedGallons": 0.216,
      "maxSpeedMph": 52.4,
      "averageSpeedMph": 16.1,
      "safetyEvents": [],
      "_no_driver_login": false,
      "_fuel_note": ""
    },
    {
      "id": "trip_48291016_20250602_016",
      "vehicleId": "48291016",
      "driverId": "22831015",
      "startMs": 1748850000000,
      "endMs": 1748852429578,
      "startLocation": {
        "latitude": 39.687254,
        "longitude": -104.994494
      },
      "endLocation": {
        "latitude": 39.767217,
        "longitude": -104.929525
      },
      "startAddress": "488 Alexandra Spurs Apt. 266",
      "endAddress": "611 Tammy Spur",
      "startCoords": {
        "latitude": 39.812326,
        "longitude": -104.959333
      },
      "endCoords": {
        "latitude": 39.818567,
        "longitude": -104.931302
      },
      "distanceMeters": 19971.5,
      "durationMs": 2429579,
      "drivingDurationMs": 1989104,
      "idlingDurationMs": 440475,
      "fuelConsumedMl": 905,
      "fuelConsumedGallons": 0.239,
      "maxSpeedMph": 45.7,
      "averageSpeedMph": 18.4,
      "safetyEvents": [],
      "_no_driver_login": false,
      "_fuel_note": ""
    },
    {
      "id": "trip_48291016_20250602_017",
      "vehicleId": "48291016",
      "driverId": "22831015",
      "startMs": 1748854140000,
      "endMs": 1748856570884,
      "startLocation": {
        "latitude": 39.71818,
        "longitude": -104.922251
      },
      "endLocation": {
        "latitude": 39.803679,
        "longitude": -105.047286
      },
      "startAddress": "9833 Christy Highway Apt. 613",
      "endAddress": "538 Jennifer Manors",
      "startCoords": {
        "latitude": 39.81895,
        "longitude": -105.046939
      },
      "endCoords": {
        "latitude": 39.787018,
        "longitude": -105.040415
      },
      "distanceMeters": 18842.6,
      "durationMs": 2430884,
      "drivingDurationMs": 2112794,
      "idlingDurationMs": 318091,
      "fuelConsumedMl": 852,
      "fuelConsumedGallons": 0.225,
      "maxSpeedMph": 52.2,
      "averageSpeedMph": 17.3,
      "safetyEvents": [],
      "_no_driver_login": false,
      "_fuel_note": ""
    },
    {
      "id": "trip_48291016_20250602_018",
      "vehicleId": "48291016",
      "driverId": "22831015",
      "startMs": 1748882220000,
      "endMs": 1748885938276,
      "startLocation": {
        "latitude": 39.798645,
        "longitude": -105.051455
      },
      "endLocation": {
        "latitude": 39.767016,
        "longitude": -104.968952
      },
      "startAddress": "09317 Margaret Port",
      "endAddress": "81185 Simpson Meadows Apt. 712",
      "startCoords": {
        "latitude": 39.685193,
        "longitude": -105.086463
      },
      "endCoords": {
        "latitude": 39.700812,
        "longitude": -105.038861
      },
      "distanceMeters": 22119.0,
      "durationMs": 3718276,
      "drivingDurationMs": 3496873,
      "idlingDurationMs": 221403,
      "fuelConsumedMl": 999,
      "fuelConsumedGallons": 0.264,
      "maxSpeedMph": 55.3,
      "averageSpeedMph": 13.3,
      "safetyEvents": [],
      "_no_driver_login": false,
      "_fuel_note": ""
    },
    {
      "id": "trip_48291016_20250603_001",
      "vehicleId": "48291016",
      "driverId": "22831015",
      "startMs": 1748946300000,
      "endMs": 1748948237044,
      "startLocation": {
        "latitude": 39.731219,
        "longitude": -104.917806
      },
      "endLocation": {
        "latitude": 39.700304,
        "longitude": -104.966431
      },
      "startAddress": "9250 Erin Views Apt. 510",
      "endAddress": "89553 Michele Port Suite 951",
      "startCoords": {
        "latitude": 39.708411,
        "longitude": -104.953772
      },
      "endCoords": {
        "latitude": 39.770317,
        "longitude": -104.912571
      },
      "distanceMeters": 14119.1,
      "durationMs": 1937044,
      "drivingDurationMs": 1650877,
      "idlingDurationMs": 286168,
      "fuelConsumedMl": 640,
      "fuelConsumedGallons": 0.169,
      "maxSpeedMph": 68.3,
      "averageSpeedMph": 16.3,
      "safetyEvents": [
        {
          "type": "speeding",
          "startMs": 1748946600000,
          "maxSpeedMph": 68.3
        }
      ],
      "_no_driver_login": false,
      "_fuel_note": "QUIRK 5: fuelConsumedGallons is in US gallons. Multiply by 3.785 for litres. Samsara does not link fuel to specific Onfleet tasks."
    },
    {
      "id": "trip_48291016_20250603_002",
      "vehicleId": "48291016",
      "driverId": "22831015",
      "startMs": 1748942760000,
      "endMs": 1748943180623,
      "startLocation": {
        "latitude": 39.716182,
        "longitude": -104.969548
      },
      "endLocation": {
        "latitude": 39.705461,
        "longitude": -104.927353
      },
      "startAddress": "18929 Bell Court Suite 007",
      "endAddress": "97100 Laura Viaduct",
      "startCoords": {
        "latitude": 39.824507,
        "longitude": -105.051839
      },
      "endCoords": {
        "latitude": 39.729946,
        "longitude": -104.92095
      },
      "distanceMeters": 3204.4,
      "durationMs": 420623,
      "drivingDurationMs": 335566,
      "idlingDurationMs": 85057,
      "fuelConsumedMl": 144,
      "fuelConsumedGallons": 0.038,
      "maxSpeedMph": 50.0,
      "averageSpeedMph": 17.0,
      "safetyEvents": [],
      "_no_driver_login": false,
      "_fuel_note": ""
    },
    {
      "id": "trip_48291016_20250603_003",
      "vehicleId": "48291016",
      "driverId": "22831015",
      "startMs": 1748976720000,
      "endMs": 1748979718207,
      "startLocation": {
        "latitude": 39.685291,
        "longitude": -104.90665
      },
      "endLocation": {
        "latitude": 39.770252,
        "longitude": -105.081175
      },
      "startAddress": "689 Smith Springs",
      "endAddress": "8506 Potts Lodge",
      "startCoords": {
        "latitude": 39.761002,
        "longitude": -104.972733
      },
      "endCoords": {
        "latitude": 39.755378,
        "longitude": -105.054435
      },
      "distanceMeters": 20038.4,
      "durationMs": 2998208,
      "drivingDurationMs": 2525036,
      "idlingDurationMs": 473172,
      "fuelConsumedMl": 905,
      "fuelConsumedGallons": 0.239,
      "maxSpeedMph": 28.1,
      "averageSpeedMph": 15.0,
      "safetyEvents": [],
      "_no_driver_login": false,
      "_fuel_note": ""
    },
    {
      "id": "trip_48291016_20250603_004",
      "vehicleId": "48291016",
      "driverId": "22831015",
      "startMs": 1748957520000,
      "endMs": 1748958500899,
      "startLocation": {
        "latitude": 39.811785,
        "longitude": -105.083156
      },
      "endLocation": {
        "latitude": 39.688886,
        "longitude": -104.966687
      },
      "startAddress": "6234 Wolf Forest",
      "endAddress": "72359 Frazier Rapid",
      "startCoords": {
        "latitude": 39.740279,
        "longitude": -105.086253
      },
      "endCoords": {
        "latitude": 39.755528,
        "longitude": -104.992187
      },
      "distanceMeters": 7075.8,
      "durationMs": 980900,
      "drivingDurationMs": 797678,
      "idlingDurationMs": 183221,
      "fuelConsumedMl": 322,
      "fuelConsumedGallons": 0.085,
      "maxSpeedMph": 38.9,
      "averageSpeedMph": 16.1,
      "safetyEvents": [],
      "_no_driver_login": false,
      "_fuel_note": ""
    },
    {
      "id": "trip_48291016_20250603_005",
      "vehicleId": "48291016",
      "driverId": "22831015",
      "startMs": 1748952540000,
      "endMs": 1748955772396,
      "startLocation": {
        "latitude": 39.713014,
        "longitude": -104.968249
      },
      "endLocation": {
        "latitude": 39.749974,
        "longitude": -104.970665
      },
      "startAddress": "75327 Kelly Mission",
      "endAddress": "1379 Elaine Parkways Apt. 645",
      "startCoords": {
        "latitude": 39.695159,
        "longitude": -105.05315
      },
      "endCoords": {
        "latitude": 39.684963,
        "longitude": -105.027047
      },
      "distanceMeters": 20522.4,
      "durationMs": 3232396,
      "drivingDurationMs": 2875436,
      "idlingDurationMs": 356961,
      "fuelConsumedMl": 927,
      "fuelConsumedGallons": 0.245,
      "maxSpeedMph": 53.7,
      "averageSpeedMph": 14.2,
      "safetyEvents": [],
      "_no_driver_login": false,
      "_fuel_note": ""
    },
    {
      "id": "trip_48291016_20250603_006",
      "vehicleId": "48291016",
      "driverId": "22831015",
      "startMs": 1748962140000,
      "endMs": 1748964244597,
      "startLocation": {
        "latitude": 39.785164,
        "longitude": -105.054691
      },
      "endLocation": {
        "latitude": 39.762133,
        "longitude": -104.920926
      },
      "startAddress": "02911 Brandy Roads Suite 739",
      "endAddress": "66535 Escobar Pines Suite 349",
      "startCoords": {
        "latitude": 39.697345,
        "longitude": -105.004794
      },
      "endCoords": {
        "latitude": 39.768854,
        "longitude": -105.06403
      },
      "distanceMeters": 11091.7,
      "durationMs": 2104598,
      "drivingDurationMs": 1717426,
      "idlingDurationMs": 387172,
      "fuelConsumedMl": 503,
      "fuelConsumedGallons": 0.133,
      "maxSpeedMph": 46.9,
      "averageSpeedMph": 11.8,
      "safetyEvents": [],
      "_no_driver_login": false,
      "_fuel_note": ""
    },
    {
      "id": "trip_48291016_20250603_007",
      "vehicleId": "48291016",
      "driverId": "22831015",
      "startMs": 1748967900000,
      "endMs": 1748968658207,
      "startLocation": {
        "latitude": 39.781999,
        "longitude": -105.062827
      },
      "endLocation": {
        "latitude": 39.735818,
        "longitude": -105.020637
      },
      "startAddress": "651 Salinas Ramp",
      "endAddress": "337 Edwards Rue Apt. 913",
      "startCoords": {
        "latitude": 39.809013,
        "longitude": -105.079729
      },
      "endCoords": {
        "latitude": 39.752184,
        "longitude": -104.970002
      },
      "distanceMeters": 5486.0,
      "durationMs": 758208,
      "drivingDurationMs": 605497,
      "idlingDurationMs": 152711,
      "fuelConsumedMl": 250,
      "fuelConsumedGallons": 0.066,
      "maxSpeedMph": 49.9,
      "averageSpeedMph": 16.2,
      "safetyEvents": [],
      "_no_driver_login": false,
      "_fuel_note": ""
    },
    {
      "id": "trip_48291016_20250603_008",
      "vehicleId": "48291016",
      "driverId": "22831015",
      "startMs": 1748965800000,
      "endMs": 1748968605849,
      "startLocation": {
        "latitude": 39.713304,
        "longitude": -105.04332
      },
      "endLocation": {
        "latitude": 39.693109,
        "longitude": -104.929587
      },
      "startAddress": "369 Davis Route Suite 124",
      "endAddress": "913 Peters Trail Suite 117",
      "startCoords": {
        "latitude": 39.804045,
        "longitude": -104.910137
      },
      "endCoords": {
        "latitude": 39.767352,
        "longitude": -104.988603
      },
      "distanceMeters": 21106.7,
      "durationMs": 2805849,
      "drivingDurationMs": 2460094,
      "idlingDurationMs": 345756,
      "fuelConsumedMl": 954,
      "fuelConsumedGallons": 0.252,
      "maxSpeedMph": 46.4,
      "averageSpeedMph": 16.8,
      "safetyEvents": [],
      "_no_driver_login": false,
      "_fuel_note": ""
    },
    {
      "id": "trip_48291016_20250603_009",
      "vehicleId": "48291016",
      "driverId": "22831015",
      "startMs": 1748934420000,
      "endMs": 1748937959086,
      "startLocation": {
        "latitude": 39.78763,
        "longitude": -105.048689
      },
      "endLocation": {
        "latitude": 39.754384,
        "longitude": -105.074467
      },
      "startAddress": "2835 Joshua Route Suite 791",
      "endAddress": "08215 Jason Gateway Apt. 593",
      "startCoords": {
        "latitude": 39.766544,
        "longitude": -104.973665
      },
      "endCoords": {
        "latitude": 39.805957,
        "longitude": -104.899951
      },
      "distanceMeters": 20125.4,
      "durationMs": 3539087,
      "drivingDurationMs": 2891260,
      "idlingDurationMs": 647827,
      "fuelConsumedMl": 908,
      "fuelConsumedGallons": 0.24,
      "maxSpeedMph": 55.2,
      "averageSpeedMph": 12.7,
      "safetyEvents": [],
      "_no_driver_login": false,
      "_fuel_note": ""
    },
    {
      "id": "trip_48291016_20250603_010",
      "vehicleId": "48291016",
      "driverId": "22831015",
      "startMs": 1748973300000,
      "endMs": 1748975576535,
      "startLocation": {
        "latitude": 39.790065,
        "longitude": -105.050226
      },
      "endLocation": {
        "latitude": 39.716222,
        "longitude": -104.910528
      },
      "startAddress": "40562 Erik Vista Apt. 283",
      "endAddress": "684 Duncan Greens Suite 640",
      "startCoords": {
        "latitude": 39.701695,
        "longitude": -104.924844
      },
      "endCoords": {
        "latitude": 39.749148,
        "longitude": -104.933706
      },
      "distanceMeters": 17367.8,
      "durationMs": 2276535,
      "drivingDurationMs": 1975860,
      "idlingDurationMs": 300675,
      "fuelConsumedMl": 787,
      "fuelConsumedGallons": 0.208,
      "maxSpeedMph": 58.4,
      "averageSpeedMph": 17.1,
      "safetyEvents": [],
      "_no_driver_login": false,
      "_fuel_note": ""
    },
    {
      "id": "trip_48291016_20250603_011",
      "vehicleId": "48291016",
      "driverId": "22831015",
      "startMs": 1748946240000,
      "endMs": 1748949676368,
      "startLocation": {
        "latitude": 39.75704,
        "longitude": -105.053258
      },
      "endLocation": {
        "latitude": 39.771024,
        "longitude": -104.981339
      },
      "startAddress": "27009 Mata Station",
      "endAddress": "6876 Jonathan Island Suite 800",
      "startCoords": {
        "latitude": 39.74686,
        "longitude": -104.927025
      },
      "endCoords": {
        "latitude": 39.702816,
        "longitude": -104.919867
      },
      "distanceMeters": 20663.1,
      "durationMs": 3436369,
      "drivingDurationMs": 2987452,
      "idlingDurationMs": 448917,
      "fuelConsumedMl": 935,
      "fuelConsumedGallons": 0.247,
      "maxSpeedMph": 66.5,
      "averageSpeedMph": 13.5,
      "safetyEvents": [
        {
          "type": "speeding",
          "startMs": 1748948760000,
          "maxSpeedMph": 66.5
        }
      ],
      "_no_driver_login": false,
      "_fuel_note": ""
    },
    {
      "id": "trip_48291016_20250603_012",
      "vehicleId": "48291016",
      "driverId": "22831015",
      "startMs": 1748945640000,
      "endMs": 1748946241890,
      "startLocation": {
        "latitude": 39.81519,
        "longitude": -105.042037
      },
      "endLocation": {
        "latitude": 39.814256,
        "longitude": -105.065738
      },
      "startAddress": "17171 Meyer Keys Apt. 218",
      "endAddress": "04990 Adams Trail Suite 076",
      "startCoords": {
        "latitude": 39.740848,
        "longitude": -104.96372
      },
      "endCoords": {
        "latitude": 39.76158,
        "longitude": -105.070437
      },
      "distanceMeters": 3332.5,
      "durationMs": 601890,
      "drivingDurationMs": 453804,
      "idlingDurationMs": 148086,
      "fuelConsumedMl": 151,
      "fuelConsumedGallons": 0.04,
      "maxSpeedMph": 28.6,
      "averageSpeedMph": 12.4,
      "safetyEvents": [],
      "_no_driver_login": false,
      "_fuel_note": ""
    },
    {
      "id": "trip_48291016_20250603_013",
      "vehicleId": "48291016",
      "driverId": "22831015",
      "startMs": 1748968440000,
      "endMs": 1748969972215,
      "startLocation": {
        "latitude": 39.727024,
        "longitude": -104.942823
      },
      "endLocation": {
        "latitude": 39.757505,
        "longitude": -105.028233
      },
      "startAddress": "950 Reed Locks Suite 048",
      "endAddress": "3289 Merritt Junctions",
      "startCoords": {
        "latitude": 39.708612,
        "longitude": -104.984743
      },
      "endCoords": {
        "latitude": 39.694707,
        "longitude": -104.972868
      },
      "distanceMeters": 10787.6,
      "durationMs": 1532216,
      "drivingDurationMs": 1277914,
      "idlingDurationMs": 254302,
      "fuelConsumedMl": 488,
      "fuelConsumedGallons": 0.129,
      "maxSpeedMph": 65.0,
      "averageSpeedMph": 15.7,
      "safetyEvents": [],
      "_no_driver_login": false,
      "_fuel_note": ""
    },
    {
      "id": "trip_48291016_20250603_014",
      "vehicleId": "48291016",
      "driverId": "22831015",
      "startMs": 1748930760000,
      "endMs": 1748932246561,
      "startLocation": {
        "latitude": 39.70934,
        "longitude": -104.956485
      },
      "endLocation": {
        "latitude": 39.777754,
        "longitude": -105.05801
      },
      "startAddress": "3804 Alexandra Lock",
      "endAddress": "056 Thomas Camp",
      "startCoords": {
        "latitude": 39.748877,
        "longitude": -104.949663
      },
      "endCoords": {
        "latitude": 39.691088,
        "longitude": -105.016536
      },
      "distanceMeters": 7981.3,
      "durationMs": 1486562,
      "drivingDurationMs": 1207798,
      "idlingDurationMs": 278763,
      "fuelConsumedMl": 360,
      "fuelConsumedGallons": 0.095,
      "maxSpeedMph": 35.4,
      "averageSpeedMph": 12.0,
      "safetyEvents": [],
      "_no_driver_login": false,
      "_fuel_note": ""
    },
    {
      "id": "trip_48291016_20250603_015",
      "vehicleId": "48291016",
      "driverId": "22831015",
      "startMs": 1748940240000,
      "endMs": 1748940713599,
      "startLocation": {
        "latitude": 39.800045,
        "longitude": -105.000392
      },
      "endLocation": {
        "latitude": 39.742901,
        "longitude": -104.9406
      },
      "startAddress": "482 Jenkins Forges Suite 023",
      "endAddress": "3640 Erik Shoal Apt. 507",
      "startCoords": {
        "latitude": 39.697477,
        "longitude": -105.000712
      },
      "endCoords": {
        "latitude": 39.79659,
        "longitude": -105.067421
      },
      "distanceMeters": 3768.7,
      "durationMs": 473600,
      "drivingDurationMs": 358072,
      "idlingDurationMs": 115528,
      "fuelConsumedMl": 170,
      "fuelConsumedGallons": 0.045,
      "maxSpeedMph": 68.0,
      "averageSpeedMph": 17.8,
      "safetyEvents": [
        {
          "type": "speeding",
          "startMs": 1748940360000,
          "maxSpeedMph": 68.0
        }
      ],
      "_no_driver_login": false,
      "_fuel_note": ""
    },
    {
      "id": "trip_48291016_20250603_016",
      "vehicleId": "48291016",
      "driverId": "22831015",
      "startMs": 1748951040000,
      "endMs": 1748954307047,
      "startLocation": {
        "latitude": 39.748762,
        "longitude": -105.021094
      },
      "endLocation": {
        "latitude": 39.787182,
        "longitude": -105.025093
      },
      "startAddress": "16924 Jones Springs Apt. 678",
      "endAddress": "369 Jennifer Expressway Suite 721",
      "startCoords": {
        "latitude": 39.792075,
        "longitude": -105.068917
      },
      "endCoords": {
        "latitude": 39.685589,
        "longitude": -104.989603
      },
      "distanceMeters": 22704.9,
      "durationMs": 3267047,
      "drivingDurationMs": 2761370,
      "idlingDurationMs": 505677,
      "fuelConsumedMl": 1026,
      "fuelConsumedGallons": 0.271,
      "maxSpeedMph": 64.1,
      "averageSpeedMph": 15.5,
      "safetyEvents": [],
      "_no_driver_login": false,
      "_fuel_note": ""
    },
    {
      "id": "trip_48291016_20250604_001",
      "vehicleId": "48291016",
      "driverId": "22831015",
      "startMs": 1749056580000,
      "endMs": 1749060612409,
      "startLocation": {
        "latitude": 39.719927,
        "longitude": -104.986448
      },
      "endLocation": {
        "latitude": 39.779202,
        "longitude": -104.925513
      },
      "startAddress": "5206 Ruiz Drive",
      "endAddress": "480 Valerie Courts",
      "startCoords": {
        "latitude": 39.704394,
        "longitude": -105.080016
      },
      "endCoords": {
        "latitude": 39.74009,
        "longitude": -105.065438
      },
      "distanceMeters": 23646.5,
      "durationMs": 4032410,
      "drivingDurationMs": 3380547,
      "idlingDurationMs": 651862,
      "fuelConsumedMl": 1071,
      "fuelConsumedGallons": 0.283,
      "maxSpeedMph": 43.5,
      "averageSpeedMph": 13.1,
      "safetyEvents": [],
      "_no_driver_login": false,
      "_fuel_note": "QUIRK 5: fuelConsumedGallons is in US gallons. Multiply by 3.785 for litres. Samsara does not link fuel to specific Onfleet tasks."
    },
    {
      "id": "trip_48291016_20250604_002",
      "vehicleId": "48291016",
      "driverId": "22831015",
      "startMs": 1749049800000,
      "endMs": 1749052107279,
      "startLocation": {
        "latitude": 39.764474,
        "longitude": -104.971046
      },
      "endLocation": {
        "latitude": 39.776185,
        "longitude": -104.942499
      },
      "startAddress": "92635 Tina Station",
      "endAddress": "66324 Kimberly Terrace Apt. 959",
      "startCoords": {
        "latitude": 39.704699,
        "longitude": -105.059234
      },
      "endCoords": {
        "latitude": 39.75478,
        "longitude": -105.044222
      },
      "distanceMeters": 16663.4,
      "durationMs": 2307280,
      "drivingDurationMs": 2071248,
      "idlingDurationMs": 236032,
      "fuelConsumedMl": 753,
      "fuelConsumedGallons": 0.199,
      "maxSpeedMph": 65.4,
      "averageSpeedMph": 16.2,
      "safetyEvents": [
        {
          "type": "speeding",
          "startMs": 1749051300000,
          "maxSpeedMph": 65.4
        }
      ],
      "_no_driver_login": false,
      "_fuel_note": ""
    },
    {
      "id": "trip_48291016_20250604_003",
      "vehicleId": "48291016",
      "driverId": "22831015",
      "startMs": 1749017100000,
      "endMs": 1749017801936,
      "startLocation": {
        "latitude": 39.693042,
        "longitude": -105.030926
      },
      "endLocation": {
        "latitude": 39.793069,
        "longitude": -104.946833
      },
      "startAddress": "8698 Robbins Fork",
      "endAddress": "70127 Cheryl Pass Apt. 065",
      "startCoords": {
        "latitude": 39.745872,
        "longitude": -104.943251
      },
      "endCoords": {
        "latitude": 39.79843,
        "longitude": -104.980103
      },
      "distanceMeters": 3971.3,
      "durationMs": 701937,
      "drivingDurationMs": 522315,
      "idlingDurationMs": 179622,
      "fuelConsumedMl": 178,
      "fuelConsumedGallons": 0.047,
      "maxSpeedMph": 59.8,
      "averageSpeedMph": 12.7,
      "safetyEvents": [],
      "_no_driver_login": false,
      "_fuel_note": ""
    },
    {
      "id": "trip_48291016_20250604_004",
      "vehicleId": "48291016",
      "driverId": "22831015",
      "startMs": 1749050700000,
      "endMs": 1749052649384,
      "startLocation": {
        "latitude": 39.777736,
        "longitude": -105.003598
      },
      "endLocation": {
        "latitude": 39.794132,
        "longitude": -104.968111
      },
      "startAddress": "84190 Lewis Springs",
      "endAddress": "2896 Lorraine Mills Suite 446",
      "startCoords": {
        "latitude": 39.688333,
        "longitude": -105.062663
      },
      "endCoords": {
        "latitude": 39.773589,
        "longitude": -105.043541
      },
      "distanceMeters": 13775.1,
      "durationMs": 1949384,
      "drivingDurationMs": 1593642,
      "idlingDurationMs": 355743,
      "fuelConsumedMl": 625,
      "fuelConsumedGallons": 0.165,
      "maxSpeedMph": 58.7,
      "averageSpeedMph": 15.8,
      "safetyEvents": [],
      "_no_driver_login": false,
      "_fuel_note": ""
    },
    {
      "id": "trip_48291016_20250604_005",
      "vehicleId": "48291016",
      "driverId": "22831015",
      "startMs": 1749063360000,
      "endMs": 1749065090628,
      "startLocation": {
        "latitude": 39.770763,
        "longitude": -105.017612
      },
      "endLocation": {
        "latitude": 39.801895,
        "longitude": -104.948321
      },
      "startAddress": "542 Sherman Extensions Apt. 489",
      "endAddress": "870 Dustin Curve",
      "startCoords": {
        "latitude": 39.703772,
        "longitude": -105.002271
      },
      "endCoords": {
        "latitude": 39.790249,
        "longitude": -104.960316
      },
      "distanceMeters": 12619.6,
      "durationMs": 1730628,
      "drivingDurationMs": 1520678,
      "idlingDurationMs": 209950,
      "fuelConsumedMl": 572,
      "fuelConsumedGallons": 0.151,
      "maxSpeedMph": 44.3,
      "averageSpeedMph": 16.3,
      "safetyEvents": [],
      "_no_driver_login": false,
      "_fuel_note": ""
    },
    {
      "id": "trip_48291016_20250604_006",
      "vehicleId": "48291016",
      "driverId": "22831015",
      "startMs": 1749032640000,
      "endMs": 1749036186450,
      "startLocation": {
        "latitude": 39.762898,
        "longitude": -105.010924
      },
      "endLocation": {
        "latitude": 39.824668,
        "longitude": -104.954035
      },
      "startAddress": "0844 Benjamin Drives",
      "endAddress": "418 Dana Points",
      "startCoords": {
        "latitude": 39.719235,
        "longitude": -105.04064
      },
      "endCoords": {
        "latitude": 39.810525,
        "longitude": -105.068925
      },
      "distanceMeters": 21832.9,
      "durationMs": 3546451,
      "drivingDurationMs": 3050510,
      "idlingDurationMs": 495941,
      "fuelConsumedMl": 988,
      "fuelConsumedGallons": 0.261,
      "maxSpeedMph": 66.0,
      "averageSpeedMph": 13.8,
      "safetyEvents": [
        {
          "type": "speeding",
          "startMs": 1749033300000,
          "maxSpeedMph": 66.0
        }
      ],
      "_no_driver_login": false,
      "_fuel_note": ""
    },
    {
      "id": "trip_48291016_20250604_007",
      "vehicleId": "48291016",
      "driverId": "22831015",
      "startMs": 1749023880000,
      "endMs": 1749025890319,
      "startLocation": {
        "latitude": 39.824074,
        "longitude": -105.03324
      },
      "endLocation": {
        "latitude": 39.703394,
        "longitude": -105.048607
      },
      "startAddress": "130 Nguyen Trail Apt. 692",
      "endAddress": "008 Walter Rest",
      "startCoords": {
        "latitude": 39.757662,
        "longitude": -104.969088
      },
      "endCoords": {
        "latitude": 39.802849,
        "longitude": -104.909952
      },
      "distanceMeters": 16767.8,
      "durationMs": 2010319,
      "drivingDurationMs": 1739563,
      "idlingDurationMs": 270756,
      "fuelConsumedMl": 757,
      "fuelConsumedGallons": 0.2,
      "maxSpeedMph": 40.6,
      "averageSpeedMph": 18.7,
      "safetyEvents": [],
      "_no_driver_login": false,
      "_fuel_note": ""
    },
    {
      "id": "trip_48291016_20250604_008",
      "vehicleId": "48291016",
      "driverId": "22831015",
      "startMs": 1749020040000,
      "endMs": 1749022268875,
      "startLocation": {
        "latitude": 39.821346,
        "longitude": -105.073097
      },
      "endLocation": {
        "latitude": 39.821278,
        "longitude": -105.004208
      },
      "startAddress": "0922 Joshua Village",
      "endAddress": "9498 Michelle Flat",
      "startCoords": {
        "latitude": 39.716418,
        "longitude": -104.948405
      },
      "endCoords": {
        "latitude": 39.784559,
        "longitude": -104.960408
      },
      "distanceMeters": 19133.0,
      "durationMs": 2228875,
      "drivingDurationMs": 1881494,
      "idlingDurationMs": 347381,
      "fuelConsumedMl": 867,
      "fuelConsumedGallons": 0.229,
      "maxSpeedMph": 65.1,
      "averageSpeedMph": 19.2,
      "safetyEvents": [
        {
          "type": "speeding",
          "startMs": 1749021000000,
          "maxSpeedMph": 65.1
        }
      ],
      "_no_driver_login": false,
      "_fuel_note": ""
    },
    {
      "id": "trip_48291016_20250604_009",
      "vehicleId": "48291016",
      "driverId": "22831015",
      "startMs": 1749032640000,
      "endMs": 1749035826881,
      "startLocation": {
        "latitude": 39.751544,
        "longitude": -105.064919
      },
      "endLocation": {
        "latitude": 39.746431,
        "longitude": -104.932153
      },
      "startAddress": "4968 Harris Vista Suite 631",
      "endAddress": "2513 Timothy Court",
      "startCoords": {
        "latitude": 39.755598,
        "longitude": -104.995608
      },
      "endCoords": {
        "latitude": 39.785721,
        "longitude": -104.938169
      },
      "distanceMeters": 19592.4,
      "durationMs": 3186881,
      "drivingDurationMs": 2741411,
      "idlingDurationMs": 445470,
      "fuelConsumedMl": 886,
      "fuelConsumedGallons": 0.234,
      "maxSpeedMph": 60.5,
      "averageSpeedMph": 13.8,
      "safetyEvents": [],
      "_no_driver_login": false,
      "_fuel_note": ""
    },
    {
      "id": "trip_48291016_20250604_010",
      "vehicleId": "48291016",
      "driverId": "22831015",
      "startMs": 1749055200000,
      "endMs": 1749057131902,
      "startLocation": {
        "latitude": 39.76792,
        "longitude": -105.020089
      },
      "endLocation": {
        "latitude": 39.687176,
        "longitude": -104.995379
      },
      "startAddress": "2428 Cox Causeway Apt. 567",
      "endAddress": "45253 Christopher Ranch Suite 345",
      "startCoords": {
        "latitude": 39.745837,
        "longitude": -105.039488
      },
      "endCoords": {
        "latitude": 39.801089,
        "longitude": -104.976899
      },
      "distanceMeters": 13403.2,
      "durationMs": 1931903,
      "drivingDurationMs": 1554141,
      "idlingDurationMs": 377762,
      "fuelConsumedMl": 606,
      "fuelConsumedGallons": 0.16,
      "maxSpeedMph": 67.1,
      "averageSpeedMph": 15.5,
      "safetyEvents": [
        {
          "type": "speeding",
          "startMs": 1749056640000,
          "maxSpeedMph": 67.1
        }
      ],
      "_no_driver_login": false,
      "_fuel_note": ""
    },
    {
      "id": "trip_48291016_20250604_011",
      "vehicleId": "48291016",
      "driverId": "22831015",
      "startMs": 1749028500000,
      "endMs": 1749030994672,
      "startLocation": {
        "latitude": 39.699465,
        "longitude": -104.909274
      },
      "endLocation": {
        "latitude": 39.771341,
        "longitude": -104.919879
      },
      "startAddress": "858 Gordon Flats",
      "endAddress": "476 Alexandra Skyway Suite 156",
      "startCoords": {
        "latitude": 39.764905,
        "longitude": -104.943335
      },
      "endCoords": {
        "latitude": 39.75029,
        "longitude": -104.926057
      },
      "distanceMeters": 17863.0,
      "durationMs": 2494673,
      "drivingDurationMs": 2216413,
      "idlingDurationMs": 278260,
      "fuelConsumedMl": 806,
      "fuelConsumedGallons": 0.213,
      "maxSpeedMph": 51.5,
      "averageSpeedMph": 16.0,
      "safetyEvents": [],
      "_no_driver_login": false,
      "_fuel_note": ""
    },
    {
      "id": "trip_48291016_20250605_001",
      "vehicleId": "48291016",
      "driverId": "22831015",
      "startMs": 1749133500000,
      "endMs": 1749136621708,
      "startLocation": {
        "latitude": 39.695066,
        "longitude": -105.062041
      },
      "endLocation": {
        "latitude": 39.82388,
        "longitude": -104.911821
      },
      "startAddress": "037 Pennington Mills",
      "endAddress": "872 Ronnie Island Suite 580",
      "startCoords": {
        "latitude": 39.717374,
        "longitude": -105.00683
      },
      "endCoords": {
        "latitude": 39.758112,
        "longitude": -105.018338
      },
      "distanceMeters": 20738.1,
      "durationMs": 3121709,
      "drivingDurationMs": 2584559,
      "idlingDurationMs": 537150,
      "fuelConsumedMl": 939,
      "fuelConsumedGallons": 0.248,
      "maxSpeedMph": 28.4,
      "averageSpeedMph": 14.9,
      "safetyEvents": [],
      "_no_driver_login": false,
      "_fuel_note": "QUIRK 5: fuelConsumedGallons is in US gallons. Multiply by 3.785 for litres. Samsara does not link fuel to specific Onfleet tasks."
    },
    {
      "id": "trip_48291016_20250605_002",
      "vehicleId": "48291016",
      "driverId": "22831015",
      "startMs": 1749113040000,
      "endMs": 1749116373129,
      "startLocation": {
        "latitude": 39.756079,
        "longitude": -105.065538
      },
      "endLocation": {
        "latitude": 39.732119,
        "longitude": -104.920026
      },
      "startAddress": "85743 Cynthia Pike",
      "endAddress": "3523 Nancy Summit Suite 624",
      "startCoords": {
        "latitude": 39.717639,
        "longitude": -104.994045
      },
      "endCoords": {
        "latitude": 39.691323,
        "longitude": -105.081865
      },
      "distanceMeters": 22494.6,
      "durationMs": 3333129,
      "drivingDurationMs": 3084005,
      "idlingDurationMs": 249124,
      "fuelConsumedMl": 1018,
      "fuelConsumedGallons": 0.269,
      "maxSpeedMph": 52.3,
      "averageSpeedMph": 15.1,
      "safetyEvents": [],
      "_no_driver_login": false,
      "_fuel_note": ""
    },
    {
      "id": "trip_48291016_20250605_003",
      "vehicleId": "48291016",
      "driverId": "22831015",
      "startMs": 1749134040000,
      "endMs": 1749136899621,
      "startLocation": {
        "latitude": 39.735491,
        "longitude": -104.949807
      },
      "endLocation": {
        "latitude": 39.777305,
        "longitude": -105.063483
      },
      "startAddress": "579 Black Light Suite 546",
      "endAddress": "3929 Edward Gardens Apt. 276",
      "startCoords": {
        "latitude": 39.761081,
        "longitude": -104.953173
      },
      "endCoords": {
        "latitude": 39.718203,
        "longitude": -105.037987
      },
      "distanceMeters": 20203.2,
      "durationMs": 2859622,
      "drivingDurationMs": 2390520,
      "idlingDurationMs": 469102,
      "fuelConsumedMl": 912,
      "fuelConsumedGallons": 0.241,
      "maxSpeedMph": 35.1,
      "averageSpeedMph": 15.8,
      "safetyEvents": [],
      "_no_driver_login": false,
      "_fuel_note": ""
    },
    {
      "id": "trip_48291016_20250605_004",
      "vehicleId": "48291016",
      "driverId": "22831015",
      "startMs": 1749134280000,
      "endMs": 1749136856700,
      "startLocation": {
        "latitude": 39.741108,
        "longitude": -104.974467
      },
      "endLocation": {
        "latitude": 39.702039,
        "longitude": -104.966325
      },
      "startAddress": "4595 Carter Junctions",
      "endAddress": "110 Jesus Lock",
      "startCoords": {
        "latitude": 39.764891,
        "longitude": -104.919087
      },
      "endCoords": {
        "latitude": 39.726916,
        "longitude": -104.945113
      },
      "distanceMeters": 21714.8,
      "durationMs": 2576700,
      "drivingDurationMs": 2325338,
      "idlingDurationMs": 251362,
      "fuelConsumedMl": 980,
      "fuelConsumedGallons": 0.259,
      "maxSpeedMph": 48.8,
      "averageSpeedMph": 18.9,
      "safetyEvents": [],
      "_no_driver_login": false,
      "_fuel_note": ""
    },
    {
      "id": "trip_48291016_20250605_005",
      "vehicleId": "48291016",
      "driverId": "22831015",
      "startMs": 1749134640000,
      "endMs": 1749136319379,
      "startLocation": {
        "latitude": 39.696689,
        "longitude": -104.973116
      },
      "endLocation": {
        "latitude": 39.737146,
        "longitude": -104.997256
      },
      "startAddress": "189 Melissa Loop",
      "endAddress": "110 Mitchell Pines Suite 457",
      "startCoords": {
        "latitude": 39.797598,
        "longitude": -104.940203
      },
      "endCoords": {
        "latitude": 39.707478,
        "longitude": -105.049426
      },
      "distanceMeters": 11389.9,
      "durationMs": 1679380,
      "drivingDurationMs": 1486420,
      "idlingDurationMs": 192960,
      "fuelConsumedMl": 515,
      "fuelConsumedGallons": 0.136,
      "maxSpeedMph": 48.6,
      "averageSpeedMph": 15.2,
      "safetyEvents": [],
      "_no_driver_login": false,
      "_fuel_note": ""
    },
    {
      "id": "trip_48291016_20250605_006",
      "vehicleId": "48291016",
      "driverId": "22831015",
      "startMs": 1749113640000,
      "endMs": 1749115898638,
      "startLocation": {
        "latitude": 39.793888,
        "longitude": -105.006339
      },
      "endLocation": {
        "latitude": 39.730645,
        "longitude": -104.918169
      },
      "startAddress": "796 Gabrielle Bypass",
      "endAddress": "688 Allen Valley Apt. 528",
      "startCoords": {
        "latitude": 39.782439,
        "longitude": -105.057299
      },
      "endCoords": {
        "latitude": 39.762282,
        "longitude": -104.988899
      },
      "distanceMeters": 17738.8,
      "durationMs": 2258639,
      "drivingDurationMs": 1861803,
      "idlingDurationMs": 396835,
      "fuelConsumedMl": 803,
      "fuelConsumedGallons": 0.212,
      "maxSpeedMph": 48.4,
      "averageSpeedMph": 17.6,
      "safetyEvents": [],
      "_no_driver_login": false,
      "_fuel_note": ""
    },
    {
      "id": "trip_48291016_20250605_007",
      "vehicleId": "48291016",
      "driverId": "22831015",
      "startMs": 1749141720000,
      "endMs": 1749145487752,
      "startLocation": {
        "latitude": 39.746872,
        "longitude": -104.959015
      },
      "endLocation": {
        "latitude": 39.748793,
        "longitude": -105.083904
      },
      "startAddress": "10564 Kenneth Shoals Apt. 122",
      "endAddress": "1757 Rivera Points",
      "startCoords": {
        "latitude": 39.804954,
        "longitude": -105.047328
      },
      "endCoords": {
        "latitude": 39.806846,
        "longitude": -105.004272
      },
      "distanceMeters": 22473.6,
      "durationMs": 3767753,
      "drivingDurationMs": 3026737,
      "idlingDurationMs": 741016,
      "fuelConsumedMl": 1018,
      "fuelConsumedGallons": 0.269,
      "maxSpeedMph": 61.1,
      "averageSpeedMph": 13.3,
      "safetyEvents": [],
      "_no_driver_login": false,
      "_fuel_note": ""
    },
    {
      "id": "trip_48291016_20250606_001",
      "vehicleId": "48291016",
      "driverId": "22831015",
      "startMs": 1749204540000,
      "endMs": 1749205623971,
      "startLocation": {
        "latitude": 39.766458,
        "longitude": -104.979758
      },
      "endLocation": {
        "latitude": 39.722843,
        "longitude": -104.935902
      },
      "startAddress": "257 Williams Junctions",
      "endAddress": "7260 Elizabeth Bridge",
      "startCoords": {
        "latitude": 39.758838,
        "longitude": -104.968368
      },
      "endCoords": {
        "latitude": 39.75237,
        "longitude": -104.94568
      },
      "distanceMeters": 9371.5,
      "durationMs": 1083971,
      "drivingDurationMs": 902508,
      "idlingDurationMs": 181463,
      "fuelConsumedMl": 424,
      "fuelConsumedGallons": 0.112,
      "maxSpeedMph": 46.3,
      "averageSpeedMph": 19.3,
      "safetyEvents": [],
      "_no_driver_login": false,
      "_fuel_note": "QUIRK 5: fuelConsumedGallons is in US gallons. Multiply by 3.785 for litres. Samsara does not link fuel to specific Onfleet tasks."
    },
    {
      "id": "trip_48291016_20250606_002",
      "vehicleId": "48291016",
      "driverId": "22831015",
      "startMs": 1749223980000,
      "endMs": 1749226004121,
      "startLocation": {
        "latitude": 39.810963,
        "longitude": -105.071254
      },
      "endLocation": {
        "latitude": 39.781731,
        "longitude": -104.943162
      },
      "startAddress": "4798 Michael Lights Apt. 247",
      "endAddress": "4552 Meyer Village",
      "startCoords": {
        "latitude": 39.749826,
        "longitude": -105.054797
      },
      "endCoords": {
        "latitude": 39.714355,
        "longitude": -104.932224
      },
      "distanceMeters": 13639.5,
      "durationMs": 2024121,
      "drivingDurationMs": 1634569,
      "idlingDurationMs": 389553,
      "fuelConsumedMl": 617,
      "fuelConsumedGallons": 0.163,
      "maxSpeedMph": 48.3,
      "averageSpeedMph": 15.1,
      "safetyEvents": [],
      "_no_driver_login": false,
      "_fuel_note": ""
    },
    {
      "id": "trip_48291016_20250606_003",
      "vehicleId": "48291016",
      "driverId": "22831015",
      "startMs": 1749207780000,
      "endMs": 1749211232791,
      "startLocation": {
        "latitude": 39.761294,
        "longitude": -105.006243
      },
      "endLocation": {
        "latitude": 39.701157,
        "longitude": -104.914369
      },
      "startAddress": "881 Zuniga Square Suite 538",
      "endAddress": "51428 Pennington Shores Apt. 211",
      "startCoords": {
        "latitude": 39.804663,
        "longitude": -105.034309
      },
      "endCoords": {
        "latitude": 39.810805,
        "longitude": -105.071099
      },
      "distanceMeters": 24188.6,
      "durationMs": 3452792,
      "drivingDurationMs": 2825695,
      "idlingDurationMs": 627096,
      "fuelConsumedMl": 1094,
      "fuelConsumedGallons": 0.289,
      "maxSpeedMph": 38.2,
      "averageSpeedMph": 15.7,
      "safetyEvents": [],
      "_no_driver_login": false,
      "_fuel_note": ""
    },
    {
      "id": "trip_48291016_20250606_004",
      "vehicleId": "48291016",
      "driverId": "22831015",
      "startMs": 1749204900000,
      "endMs": 1749205919838,
      "startLocation": {
        "latitude": 39.776884,
        "longitude": -105.034405
      },
      "endLocation": {
        "latitude": 39.803237,
        "longitude": -104.937098
      },
      "startAddress": "01345 James Cape Suite 497",
      "endAddress": "6744 Russell Mews",
      "startCoords": {
        "latitude": 39.810694,
        "longitude": -104.972756
      },
      "endCoords": {
        "latitude": 39.727613,
        "longitude": -105.003481
      },
      "distanceMeters": 7601.9,
      "durationMs": 1019838,
      "drivingDurationMs": 825369,
      "idlingDurationMs": 194469,
      "fuelConsumedMl": 344,
      "fuelConsumedGallons": 0.091,
      "maxSpeedMph": 70.0,
      "averageSpeedMph": 16.7,
      "safetyEvents": [
        {
          "type": "speeding",
          "startMs": 1749205020000,
          "maxSpeedMph": 70.0
        }
      ],
      "_no_driver_login": false,
      "_fuel_note": ""
    },
    {
      "id": "trip_48291016_20250606_005",
      "vehicleId": "48291016",
      "driverId": "22831015",
      "startMs": 1749209640000,
      "endMs": 1749210767622,
      "startLocation": {
        "latitude": 39.781681,
        "longitude": -104.929987
      },
      "endLocation": {
        "latitude": 39.741796,
        "longitude": -105.003897
      },
      "startAddress": "254 Lowe Parks Suite 034",
      "endAddress": "73198 Nelson Station",
      "startCoords": {
        "latitude": 39.76233,
        "longitude": -104.993726
      },
      "endCoords": {
        "latitude": 39.771003,
        "longitude": -105.032126
      },
      "distanceMeters": 8116.0,
      "durationMs": 1127623,
      "drivingDurationMs": 934589,
      "idlingDurationMs": 193033,
      "fuelConsumedMl": 367,
      "fuelConsumedGallons": 0.097,
      "maxSpeedMph": 40.9,
      "averageSpeedMph": 16.1,
      "safetyEvents": [],
      "_no_driver_login": false,
      "_fuel_note": ""
    },
    {
      "id": "trip_48291016_20250606_006",
      "vehicleId": "48291016",
      "driverId": "22831015",
      "startMs": 1749208380000,
      "endMs": 1749211077959,
      "startLocation": {
        "latitude": 39.707397,
        "longitude": -105.062773
      },
      "endLocation": {
        "latitude": 39.740422,
        "longitude": -104.968022
      },
      "startAddress": "08108 Lorraine Shores",
      "endAddress": "379 Thomas Shoals",
      "startCoords": {
        "latitude": 39.718396,
        "longitude": -105.014229
      },
      "endCoords": {
        "latitude": 39.742863,
        "longitude": -105.000219
      },
      "distanceMeters": 20129.8,
      "durationMs": 2697960,
      "drivingDurationMs": 2445968,
      "idlingDurationMs": 251992,
      "fuelConsumedMl": 912,
      "fuelConsumedGallons": 0.241,
      "maxSpeedMph": 64.8,
      "averageSpeedMph": 16.7,
      "safetyEvents": [],
      "_no_driver_login": false,
      "_fuel_note": ""
    },
    {
      "id": "trip_48291016_20250606_007",
      "vehicleId": "48291016",
      "driverId": "22831015",
      "startMs": 1749215400000,
      "endMs": 1749216572992,
      "startLocation": {
        "latitude": 39.816238,
        "longitude": -104.953025
      },
      "endLocation": {
        "latitude": 39.773481,
        "longitude": -104.907467
      },
      "startAddress": "0973 Krista Inlet",
      "endAddress": "11098 Michael Ways Apt. 254",
      "startCoords": {
        "latitude": 39.730937,
        "longitude": -104.942631
      },
      "endCoords": {
        "latitude": 39.786314,
        "longitude": -104.940985
      },
      "distanceMeters": 7860.6,
      "durationMs": 1172992,
      "drivingDurationMs": 954856,
      "idlingDurationMs": 218137,
      "fuelConsumedMl": 356,
      "fuelConsumedGallons": 0.094,
      "maxSpeedMph": 53.7,
      "averageSpeedMph": 15.0,
      "safetyEvents": [],
      "_no_driver_login": false,
      "_fuel_note": ""
    },
    {
      "id": "trip_48291016_20250606_008",
      "vehicleId": "48291016",
      "driverId": "22831015",
      "startMs": 1749203940000,
      "endMs": 1749205111996,
      "startLocation": {
        "latitude": 39.724641,
        "longitude": -105.041724
      },
      "endLocation": {
        "latitude": 39.818312,
        "longitude": -104.946671
      },
      "startAddress": "804 Eric Corner",
      "endAddress": "6294 Rivera Green Suite 881",
      "startCoords": {
        "latitude": 39.714365,
        "longitude": -104.953048
      },
      "endCoords": {
        "latitude": 39.81082,
        "longitude": -104.93235
      },
      "distanceMeters": 9548.4,
      "durationMs": 1171997,
      "drivingDurationMs": 943369,
      "idlingDurationMs": 228628,
      "fuelConsumedMl": 432,
      "fuelConsumedGallons": 0.114,
      "maxSpeedMph": 28.5,
      "averageSpeedMph": 18.2,
      "safetyEvents": [],
      "_no_driver_login": false,
      "_fuel_note": ""
    },
    {
      "id": "trip_48291016_20250606_009",
      "vehicleId": "48291016",
      "driverId": "22831015",
      "startMs": 1749222660000,
      "endMs": 1749224709461,
      "startLocation": {
        "latitude": 39.717665,
        "longitude": -105.004745
      },
      "endLocation": {
        "latitude": 39.76323,
        "longitude": -104.976813
      },
      "startAddress": "0361 Brandon Inlet Suite 717",
      "endAddress": "62584 Ward Drive",
      "startCoords": {
        "latitude": 39.755426,
        "longitude": -105.083258
      },
      "endCoords": {
        "latitude": 39.740004,
        "longitude": -105.018673
      },
      "distanceMeters": 14416.7,
      "durationMs": 2049462,
      "drivingDurationMs": 1650300,
      "idlingDurationMs": 399161,
      "fuelConsumedMl": 651,
      "fuelConsumedGallons": 0.172,
      "maxSpeedMph": 51.0,
      "averageSpeedMph": 15.7,
      "safetyEvents": [],
      "_no_driver_login": false,
      "_fuel_note": ""
    },
    {
      "id": "trip_48291016_20250606_010",
      "vehicleId": "48291016",
      "driverId": "22831015",
      "startMs": 1749226980000,
      "endMs": 1749228477448,
      "startLocation": {
        "latitude": 39.790213,
        "longitude": -104.943003
      },
      "endLocation": {
        "latitude": 39.694359,
        "longitude": -105.043832
      },
      "startAddress": "1598 Lucas Cape",
      "endAddress": "2604 Hill Fields",
      "startCoords": {
        "latitude": 39.719523,
        "longitude": -104.92732
      },
      "endCoords": {
        "latitude": 39.779388,
        "longitude": -104.937418
      },
      "distanceMeters": 12571.2,
      "durationMs": 1497449,
      "drivingDurationMs": 1275567,
      "idlingDurationMs": 221881,
      "fuelConsumedMl": 568,
      "fuelConsumedGallons": 0.15,
      "maxSpeedMph": 59.1,
      "averageSpeedMph": 18.8,
      "safetyEvents": [],
      "_no_driver_login": false,
      "_fuel_note": ""
    },
    {
      "id": "trip_48291016_20250607_001",
      "vehicleId": "48291016",
      "driverId": "22831015",
      "startMs": 1749298440000,
      "endMs": 1749301038714,
      "startLocation": {
        "latitude": 39.777324,
        "longitude": -105.077583
      },
      "endLocation": {
        "latitude": 39.710991,
        "longitude": -104.935641
      },
      "startAddress": "9661 Robert Bypass Apt. 472",
      "endAddress": "545 Ramos Shores",
      "startCoords": {
        "latitude": 39.686158,
        "longitude": -104.9102
      },
      "endCoords": {
        "latitude": 39.753336,
        "longitude": -105.05053
      },
      "distanceMeters": 21343.8,
      "durationMs": 2598714,
      "drivingDurationMs": 2120378,
      "idlingDurationMs": 478336,
      "fuelConsumedMl": 965,
      "fuelConsumedGallons": 0.255,
      "maxSpeedMph": 42.9,
      "averageSpeedMph": 18.4,
      "safetyEvents": [],
      "_no_driver_login": false,
      "_fuel_note": "QUIRK 5: fuelConsumedGallons is in US gallons. Multiply by 3.785 for litres. Samsara does not link fuel to specific Onfleet tasks."
    },
    {
      "id": "trip_48291016_20250607_002",
      "vehicleId": "48291016",
      "driverId": "22831015",
      "startMs": 1749304440000,
      "endMs": 1749307082240,
      "startLocation": {
        "latitude": 39.776367,
        "longitude": -105.071397
      },
      "endLocation": {
        "latitude": 39.806801,
        "longitude": -105.053304
      },
      "startAddress": "8607 Harrison Lane Apt. 984",
      "endAddress": "2988 Martin Valleys",
      "startCoords": {
        "latitude": 39.771726,
        "longitude": -104.920795
      },
      "endCoords": {
        "latitude": 39.793902,
        "longitude": -104.905594
      },
      "distanceMeters": 20434.9,
      "durationMs": 2642240,
      "drivingDurationMs": 2281257,
      "idlingDurationMs": 360983,
      "fuelConsumedMl": 924,
      "fuelConsumedGallons": 0.244,
      "maxSpeedMph": 37.1,
      "averageSpeedMph": 17.3,
      "safetyEvents": [],
      "_no_driver_login": false,
      "_fuel_note": ""
    },
    {
      "id": "trip_48291016_20250607_003",
      "vehicleId": "48291016",
      "driverId": "22831015",
      "startMs": 1749294600000,
      "endMs": 1749295457801,
      "startLocation": {
        "latitude": 39.822918,
        "longitude": -104.96591
      },
      "endLocation": {
        "latitude": 39.794799,
        "longitude": -105.07297
      },
      "startAddress": "15707 Bradford Drive Apt. 878",
      "endAddress": "5452 Kim Camp",
      "startCoords": {
        "latitude": 39.71461,
        "longitude": -105.044562
      },
      "endCoords": {
        "latitude": 39.787562,
        "longitude": -104.963457
      },
      "distanceMeters": 7016.7,
      "durationMs": 857801,
      "drivingDurationMs": 678218,
      "idlingDurationMs": 179583,
      "fuelConsumedMl": 318,
      "fuelConsumedGallons": 0.084,
      "maxSpeedMph": 34.4,
      "averageSpeedMph": 18.3,
      "safetyEvents": [],
      "_no_driver_login": false,
      "_fuel_note": ""
    },
    {
      "id": "trip_48291016_20250607_004",
      "vehicleId": "48291016",
      "driverId": "22831015",
      "startMs": 1749281520000,
      "endMs": 1749284375605,
      "startLocation": {
        "latitude": 39.820542,
        "longitude": -104.948652
      },
      "endLocation": {
        "latitude": 39.720588,
        "longitude": -104.916616
      },
      "startAddress": "38878 Pamela Plains",
      "endAddress": "09696 Myers Points",
      "startCoords": {
        "latitude": 39.81707,
        "longitude": -105.024405
      },
      "endCoords": {
        "latitude": 39.791613,
        "longitude": -104.94023
      },
      "distanceMeters": 14415.5,
      "durationMs": 2855605,
      "drivingDurationMs": 2353491,
      "idlingDurationMs": 502115,
      "fuelConsumedMl": 651,
      "fuelConsumedGallons": 0.172,
      "maxSpeedMph": 28.6,
      "averageSpeedMph": 11.3,
      "safetyEvents": [],
      "_no_driver_login": false,
      "_fuel_note": ""
    },
    {
      "id": "trip_48291016_20250607_005",
      "vehicleId": "48291016",
      "driverId": "22831015",
      "startMs": 1749322260000,
      "endMs": 1749326073730,
      "startLocation": {
        "latitude": 39.720647,
        "longitude": -105.059148
      },
      "endLocation": {
        "latitude": 39.730956,
        "longitude": -104.933413
      },
      "startAddress": "139 Renee Turnpike Suite 791",
      "endAddress": "636 Tamara Unions Suite 628",
      "startCoords": {
        "latitude": 39.740029,
        "longitude": -105.013518
      },
      "endCoords": {
        "latitude": 39.772703,
        "longitude": -104.987897
      },
      "distanceMeters": 24108.7,
      "durationMs": 3813730,
      "drivingDurationMs": 3394562,
      "idlingDurationMs": 419168,
      "fuelConsumedMl": 1090,
      "fuelConsumedGallons": 0.288,
      "maxSpeedMph": 35.1,
      "averageSpeedMph": 14.1,
      "safetyEvents": [],
      "_no_driver_login": false,
      "_fuel_note": ""
    },
    {
      "id": "trip_48291016_20250607_006",
      "vehicleId": "48291016",
      "driverId": "22831015",
      "startMs": 1749315060000,
      "endMs": 1749317586359,
      "startLocation": {
        "latitude": 39.764663,
        "longitude": -105.029603
      },
      "endLocation": {
        "latitude": 39.792955,
        "longitude": -105.03215
      },
      "startAddress": "0189 Delgado Club",
      "endAddress": "73376 Roberts Rapid",
      "startCoords": {
        "latitude": 39.812401,
        "longitude": -105.077603
      },
      "endCoords": {
        "latitude": 39.705059,
        "longitude": -104.990435
      },
      "distanceMeters": 24529.3,
      "durationMs": 2526360,
      "drivingDurationMs": 2331397,
      "idlingDurationMs": 194963,
      "fuelConsumedMl": 1109,
      "fuelConsumedGallons": 0.293,
      "maxSpeedMph": 70.2,
      "averageSpeedMph": 21.7,
      "safetyEvents": [
        {
          "type": "speeding",
          "startMs": 1749316800000,
          "maxSpeedMph": 70.2
        }
      ],
      "_no_driver_login": false,
      "_fuel_note": ""
    },
    {
      "id": "trip_48291016_20250607_007",
      "vehicleId": "48291016",
      "driverId": "22831015",
      "startMs": 1749301260000,
      "endMs": 1749302822647,
      "startLocation": {
        "latitude": 39.732132,
        "longitude": -105.024446
      },
      "endLocation": {
        "latitude": 39.789494,
        "longitude": -104.974693
      },
      "startAddress": "8556 Raymond Radial Apt. 746",
      "endAddress": "0173 Gibson Lodge",
      "startCoords": {
        "latitude": 39.752833,
        "longitude": -104.952201
      },
      "endCoords": {
        "latitude": 39.722327,
        "longitude": -104.983249
      },
      "distanceMeters": 12194.9,
      "durationMs": 1562648,
      "drivingDurationMs": 1332829,
      "idlingDurationMs": 229819,
      "fuelConsumedMl": 553,
      "fuelConsumedGallons": 0.146,
      "maxSpeedMph": 58.1,
      "averageSpeedMph": 17.5,
      "safetyEvents": [],
      "_no_driver_login": false,
      "_fuel_note": ""
    },
    {
      "id": "trip_48291016_20250607_008",
      "vehicleId": "48291016",
      "driverId": "22831015",
      "startMs": 1749291360000,
      "endMs": 1749293708255,
      "startLocation": {
        "latitude": 39.704244,
        "longitude": -105.053867
      },
      "endLocation": {
        "latitude": 39.731103,
        "longitude": -105.0823
      },
      "startAddress": "52469 Hall Via",
      "endAddress": "6864 Lucas Harbor",
      "startCoords": {
        "latitude": 39.82565,
        "longitude": -104.906008
      },
      "endCoords": {
        "latitude": 39.717749,
        "longitude": -105.059718
      },
      "distanceMeters": 17990.1,
      "durationMs": 2348255,
      "drivingDurationMs": 1901960,
      "idlingDurationMs": 446295,
      "fuelConsumedMl": 814,
      "fuelConsumedGallons": 0.215,
      "maxSpeedMph": 35.8,
      "averageSpeedMph": 17.1,
      "safetyEvents": [],
      "_no_driver_login": false,
      "_fuel_note": ""
    },
    {
      "id": "trip_48291016_20250607_009",
      "vehicleId": "48291016",
      "driverId": "22831015",
      "startMs": 1749288600000,
      "endMs": 1749290974475,
      "startLocation": {
        "latitude": 39.803193,
        "longitude": -105.026376
      },
      "endLocation": {
        "latitude": 39.734409,
        "longitude": -104.904
      },
      "startAddress": "127 Christian Lakes",
      "endAddress": "926 Alexander Groves",
      "startCoords": {
        "latitude": 39.73322,
        "longitude": -104.969462
      },
      "endCoords": {
        "latitude": 39.698733,
        "longitude": -105.022578
      },
      "distanceMeters": 18324.0,
      "durationMs": 2374475,
      "drivingDurationMs": 2157595,
      "idlingDurationMs": 216880,
      "fuelConsumedMl": 829,
      "fuelConsumedGallons": 0.219,
      "maxSpeedMph": 60.3,
      "averageSpeedMph": 17.3,
      "safetyEvents": [],
      "_no_driver_login": false,
      "_fuel_note": ""
    },
    {
      "id": "trip_48291016_20250607_010",
      "vehicleId": "48291016",
      "driverId": "22831015",
      "startMs": 1749281580000,
      "endMs": 1749284879039,
      "startLocation": {
        "latitude": 39.714469,
        "longitude": -104.9987
      },
      "endLocation": {
        "latitude": 39.811888,
        "longitude": -104.941545
      },
      "startAddress": "2448 Robert Manor Suite 094",
      "endAddress": "9665 Phillips Islands Apt. 655",
      "startCoords": {
        "latitude": 39.714434,
        "longitude": -104.957272
      },
      "endCoords": {
        "latitude": 39.694486,
        "longitude": -104.970156
      },
      "distanceMeters": 21013.6,
      "durationMs": 3299040,
      "drivingDurationMs": 2856133,
      "idlingDurationMs": 442907,
      "fuelConsumedMl": 950,
      "fuelConsumedGallons": 0.251,
      "maxSpeedMph": 70.8,
      "averageSpeedMph": 14.2,
      "safetyEvents": [
        {
          "type": "speeding",
          "startMs": 1749282720000,
          "maxSpeedMph": 70.8
        }
      ],
      "_no_driver_login": false,
      "_fuel_note": ""
    },
    {
      "id": "trip_48291016_20250607_011",
      "vehicleId": "48291016",
      "driverId": "22831015",
      "startMs": 1749309840000,
      "endMs": 1749312865967,
      "startLocation": {
        "latitude": 39.800473,
        "longitude": -104.963797
      },
      "endLocation": {
        "latitude": 39.824233,
        "longitude": -104.932327
      },
      "startAddress": "4341 Johnson Highway Suite 349",
      "endAddress": "627 Cohen Brook",
      "startCoords": {
        "latitude": 39.759083,
        "longitude": -105.005274
      },
      "endCoords": {
        "latitude": 39.712013,
        "longitude": -104.947845
      },
      "distanceMeters": 18799.0,
      "durationMs": 3025967,
      "drivingDurationMs": 2803599,
      "idlingDurationMs": 222369,
      "fuelConsumedMl": 852,
      "fuelConsumedGallons": 0.225,
      "maxSpeedMph": 46.7,
      "averageSpeedMph": 13.9,
      "safetyEvents": [],
      "_no_driver_login": false,
      "_fuel_note": ""
    },
    {
      "id": "trip_48291016_20250607_012",
      "vehicleId": "48291016",
      "driverId": "22831015",
      "startMs": 1749285300000,
      "endMs": 1749286421927,
      "startLocation": {
        "latitude": 39.800544,
        "longitude": -105.007962
      },
      "endLocation": {
        "latitude": 39.806445,
        "longitude": -105.062986
      },
      "startAddress": "43105 Johnson Summit Suite 131",
      "endAddress": "0072 Gordon Isle",
      "startCoords": {
        "latitude": 39.766445,
        "longitude": -105.074386
      },
      "endCoords": {
        "latitude": 39.744272,
        "longitude": -105.051749
      },
      "distanceMeters": 8003.6,
      "durationMs": 1121927,
      "drivingDurationMs": 902301,
      "idlingDurationMs": 219626,
      "fuelConsumedMl": 363,
      "fuelConsumedGallons": 0.096,
      "maxSpeedMph": 30.7,
      "averageSpeedMph": 16.0,
      "safetyEvents": [],
      "_no_driver_login": false,
      "_fuel_note": ""
    },
    {
      "id": "trip_48291016_20250607_013",
      "vehicleId": "48291016",
      "driverId": "22831015",
      "startMs": 1749301440000,
      "endMs": 1749303736681,
      "startLocation": {
        "latitude": 39.744475,
        "longitude": -104.925467
      },
      "endLocation": {
        "latitude": 39.684677,
        "longitude": -105.022581
      },
      "startAddress": "323 Hamilton Field Apt. 178",
      "endAddress": "9522 Glenn Ridges Apt. 675",
      "startCoords": {
        "latitude": 39.750403,
        "longitude": -104.962368
      },
      "endCoords": {
        "latitude": 39.801496,
        "longitude": -104.92811
      },
      "distanceMeters": 18215.6,
      "durationMs": 2296681,
      "drivingDurationMs": 2068702,
      "idlingDurationMs": 227979,
      "fuelConsumedMl": 825,
      "fuelConsumedGallons": 0.218,
      "maxSpeedMph": 62.9,
      "averageSpeedMph": 17.7,
      "safetyEvents": [],
      "_no_driver_login": false,
      "_fuel_note": ""
    },
    {
      "id": "trip_48291016_20250607_014",
      "vehicleId": "48291016",
      "driverId": "22831015",
      "startMs": 1749313980000,
      "endMs": 1749314522102,
      "startLocation": {
        "latitude": 39.789566,
        "longitude": -105.026367
      },
      "endLocation": {
        "latitude": 39.78604,
        "longitude": -104.97888
      },
      "startAddress": "59096 James Trace",
      "endAddress": "509 Brown Station",
      "startCoords": {
        "latitude": 39.738137,
        "longitude": -105.017377
      },
      "endCoords": {
        "latitude": 39.749501,
        "longitude": -105.054906
      },
      "distanceMeters": 3413.3,
      "durationMs": 542102,
      "drivingDurationMs": 418558,
      "idlingDurationMs": 123545,
      "fuelConsumedMl": 155,
      "fuelConsumedGallons": 0.041,
      "maxSpeedMph": 65.3,
      "averageSpeedMph": 14.1,
      "safetyEvents": [
        {
          "type": "speeding",
          "startMs": 1749314340000,
          "maxSpeedMph": 65.3
        }
      ],
      "_no_driver_login": false,
      "_fuel_note": ""
    },
    {
      "id": "trip_48291016_20250609_001",
      "vehicleId": "48291016",
      "driverId": "22831015",
      "startMs": 1749480360000,
      "endMs": 1749481314704,
      "startLocation": {
        "latitude": 39.75282,
        "longitude": -104.996753
      },
      "endLocation": {
        "latitude": 39.706283,
        "longitude": -104.925334
      },
      "startAddress": "7874 Williams Orchard",
      "endAddress": "759 Robinson Turnpike Suite 237",
      "startCoords": {
        "latitude": 39.740786,
        "longitude": -105.065432
      },
      "endCoords": {
        "latitude": 39.814754,
        "longitude": -105.040631
      },
      "distanceMeters": 7422.3,
      "durationMs": 954704,
      "drivingDurationMs": 765663,
      "idlingDurationMs": 189041,
      "fuelConsumedMl": 337,
      "fuelConsumedGallons": 0.089,
      "maxSpeedMph": 61.1,
      "averageSpeedMph": 17.4,
      "safetyEvents": [],
      "_no_driver_login": false,
      "_fuel_note": "QUIRK 5: fuelConsumedGallons is in US gallons. Multiply by 3.785 for litres. Samsara does not link fuel to specific Onfleet tasks."
    },
    {
      "id": "trip_48291016_20250609_002",
      "vehicleId": "48291016",
      "driverId": "22831015",
      "startMs": 1749495120000,
      "endMs": 1749496700902,
      "startLocation": {
        "latitude": 39.707728,
        "longitude": -105.027044
      },
      "endLocation": {
        "latitude": 39.820961,
        "longitude": -104.913008
      },
      "startAddress": "00287 April Lake Suite 367",
      "endAddress": "09637 Kim Junctions Suite 031",
      "startCoords": {
        "latitude": 39.768989,
        "longitude": -105.073777
      },
      "endCoords": {
        "latitude": 39.699282,
        "longitude": -105.051573
      },
      "distanceMeters": 8778.6,
      "durationMs": 1580902,
      "drivingDurationMs": 1301493,
      "idlingDurationMs": 279409,
      "fuelConsumedMl": 397,
      "fuelConsumedGallons": 0.105,
      "maxSpeedMph": 29.1,
      "averageSpeedMph": 12.4,
      "safetyEvents": [],
      "_no_driver_login": false,
      "_fuel_note": ""
    },
    {
      "id": "trip_48291016_20250609_003",
      "vehicleId": "48291016",
      "driverId": "22831015",
      "startMs": 1749461940000,
      "endMs": 1749465239902,
      "startLocation": {
        "latitude": 39.734571,
        "longitude": -105.020496
      },
      "endLocation": {
        "latitude": 39.771808,
        "longitude": -105.039519
      },
      "startAddress": "202 Jamie Stravenue",
      "endAddress": "272 James Ridge Suite 506",
      "startCoords": {
        "latitude": 39.713539,
        "longitude": -105.082443
      },
      "endCoords": {
        "latitude": 39.724379,
        "longitude": -104.922327
      },
      "distanceMeters": 22007.0,
      "durationMs": 3299903,
      "drivingDurationMs": 2641556,
      "idlingDurationMs": 658347,
      "fuelConsumedMl": 996,
      "fuelConsumedGallons": 0.263,
      "maxSpeedMph": 41.4,
      "averageSpeedMph": 14.9,
      "safetyEvents": [],
      "_no_driver_login": false,
      "_fuel_note": ""
    },
    {
      "id": "trip_48291016_20250609_004",
      "vehicleId": "48291016",
      "driverId": "22831015",
      "startMs": 1749467880000,
      "endMs": 1749469960053,
      "startLocation": {
        "latitude": 39.788072,
        "longitude": -104.908148
      },
      "endLocation": {
        "latitude": 39.713927,
        "longitude": -105.072324
      },
      "startAddress": "630 Ashley Brooks Suite 147",
      "endAddress": "626 Makayla Station Apt. 039",
      "startCoords": {
        "latitude": 39.793378,
        "longitude": -104.960947
      },
      "endCoords": {
        "latitude": 39.706041,
        "longitude": -104.937053
      },
      "distanceMeters": 12228.7,
      "durationMs": 2080053,
      "drivingDurationMs": 1793285,
      "idlingDurationMs": 286768,
      "fuelConsumedMl": 553,
      "fuelConsumedGallons": 0.146,
      "maxSpeedMph": 68.5,
      "averageSpeedMph": 13.2,
      "safetyEvents": [
        {
          "type": "speeding",
          "startMs": 1749469500000,
          "maxSpeedMph": 68.5
        }
      ],
      "_no_driver_login": false,
      "_fuel_note": ""
    },
    {
      "id": "trip_48291016_20250609_005",
      "vehicleId": "48291016",
      "driverId": "22831015",
      "startMs": 1749481800000,
      "endMs": 1749484935291,
      "startLocation": {
        "latitude": 39.723425,
        "longitude": -105.068018
      },
      "endLocation": {
        "latitude": 39.82497,
        "longitude": -105.038386
      },
      "startAddress": "68298 Howard Plaza Apt. 628",
      "endAddress": "387 Washington Forest Apt. 759",
      "startCoords": {
        "latitude": 39.787949,
        "longitude": -104.966696
      },
      "endCoords": {
        "latitude": 39.77961,
        "longitude": -104.990987
      },
      "distanceMeters": 20343.9,
      "durationMs": 3135291,
      "drivingDurationMs": 2527969,
      "idlingDurationMs": 607323,
      "fuelConsumedMl": 920,
      "fuelConsumedGallons": 0.243,
      "maxSpeedMph": 46.5,
      "averageSpeedMph": 14.5,
      "safetyEvents": [],
      "_no_driver_login": false,
      "_fuel_note": ""
    },
    {
      "id": "trip_48291016_20250609_006",
      "vehicleId": "48291016",
      "driverId": "22831015",
      "startMs": 1749449160000,
      "endMs": 1749451335126,
      "startLocation": {
        "latitude": 39.759536,
        "longitude": -104.920321
      },
      "endLocation": {
        "latitude": 39.705283,
        "longitude": -105.057367
      },
      "startAddress": "39699 Darius Lake Apt. 379",
      "endAddress": "927 Roger Union",
      "startCoords": {
        "latitude": 39.798228,
        "longitude": -104.934316
      },
      "endCoords": {
        "latitude": 39.817871,
        "longitude": -105.055012
      },
      "distanceMeters": 19889.4,
      "durationMs": 2175127,
      "drivingDurationMs": 1909248,
      "idlingDurationMs": 265878,
      "fuelConsumedMl": 901,
      "fuelConsumedGallons": 0.238,
      "maxSpeedMph": 58.3,
      "averageSpeedMph": 20.5,
      "safetyEvents": [],
      "_no_driver_login": false,
      "_fuel_note": ""
    },
    {
      "id": "trip_48291016_20250609_007",
      "vehicleId": "48291016",
      "driverId": "22831015",
      "startMs": 1749457260000,
      "endMs": 1749457565987,
      "startLocation": {
        "latitude": 39.795727,
        "longitude": -104.93613
      },
      "endLocation": {
        "latitude": 39.687534,
        "longitude": -105.010847
      },
      "startAddress": "349 Rodriguez Divide Suite 954",
      "endAddress": "89687 Mercer Hill Apt. 015",
      "startCoords": {
        "latitude": 39.776422,
        "longitude": -105.051128
      },
      "endCoords": {
        "latitude": 39.687377,
        "longitude": -105.029241
      },
      "distanceMeters": 2097.8,
      "durationMs": 305987,
      "drivingDurationMs": 243578,
      "idlingDurationMs": 62409,
      "fuelConsumedMl": 95,
      "fuelConsumedGallons": 0.025,
      "maxSpeedMph": 55.5,
      "averageSpeedMph": 15.3,
      "safetyEvents": [],
      "_no_driver_login": false,
      "_fuel_note": ""
    },
    {
      "id": "trip_48291016_20250609_008",
      "vehicleId": "48291016",
      "driverId": "22831015",
      "startMs": 1749483840000,
      "endMs": 1749484453509,
      "startLocation": {
        "latitude": 39.751223,
        "longitude": -105.010388
      },
      "endLocation": {
        "latitude": 39.825176,
        "longitude": -104.995877
      },
      "startAddress": "494 Jody Points",
      "endAddress": "2347 Smith Loop",
      "startCoords": {
        "latitude": 39.756766,
        "longitude": -105.03364
      },
      "endCoords": {
        "latitude": 39.733008,
        "longitude": -104.960835
      },
      "distanceMeters": 4273.0,
      "durationMs": 613509,
      "drivingDurationMs": 482865,
      "idlingDurationMs": 130645,
      "fuelConsumedMl": 193,
      "fuelConsumedGallons": 0.051,
      "maxSpeedMph": 58.7,
      "averageSpeedMph": 15.6,
      "safetyEvents": [],
      "_no_driver_login": false,
      "_fuel_note": ""
    },
    {
      "id": "trip_48291016_20250609_009",
      "vehicleId": "48291016",
      "driverId": "22831015",
      "startMs": 1749474420000,
      "endMs": 1749476700771,
      "startLocation": {
        "latitude": 39.787969,
        "longitude": -105.072487
      },
      "endLocation": {
        "latitude": 39.725478,
        "longitude": -105.056677
      },
      "startAddress": "2231 Sherri Valleys Suite 253",
      "endAddress": "609 Cassandra Mission Apt. 268",
      "startCoords": {
        "latitude": 39.744391,
        "longitude": -104.952681
      },
      "endCoords": {
        "latitude": 39.776973,
        "longitude": -105.084273
      },
      "distanceMeters": 11735.2,
      "durationMs": 2280771,
      "drivingDurationMs": 1851208,
      "idlingDurationMs": 429563,
      "fuelConsumedMl": 530,
      "fuelConsumedGallons": 0.14,
      "maxSpeedMph": 64.4,
      "averageSpeedMph": 11.5,
      "safetyEvents": [],
      "_no_driver_login": false,
      "_fuel_note": ""
    },
    {
      "id": "trip_48291016_20250609_010",
      "vehicleId": "48291016",
      "driverId": "22831015",
      "startMs": 1749479100000,
      "endMs": 1749480617375,
      "startLocation": {
        "latitude": 39.79335,
        "longitude": -105.068674
      },
      "endLocation": {
        "latitude": 39.730607,
        "longitude": -105.062777
      },
      "startAddress": "26468 Wheeler Mountain Apt. 132",
      "endAddress": "4821 Teresa Villages",
      "startCoords": {
        "latitude": 39.725086,
        "longitude": -104.944831
      },
      "endCoords": {
        "latitude": 39.694289,
        "longitude": -104.96691
      },
      "distanceMeters": 10579.6,
      "durationMs": 1517376,
      "drivingDurationMs": 1262915,
      "idlingDurationMs": 254461,
      "fuelConsumedMl": 477,
      "fuelConsumedGallons": 0.126,
      "maxSpeedMph": 51.6,
      "averageSpeedMph": 15.6,
      "safetyEvents": [],
      "_no_driver_login": false,
      "_fuel_note": ""
    },
    {
      "id": "trip_48291016_20250609_011",
      "vehicleId": "48291016",
      "driverId": "22831015",
      "startMs": 1749449460000,
      "endMs": 1749449867689,
      "startLocation": {
        "latitude": 39.815525,
        "longitude": -105.021425
      },
      "endLocation": {
        "latitude": 39.730029,
        "longitude": -104.908881
      },
      "startAddress": "1223 Craig Mall",
      "endAddress": "906 Alicia Knoll",
      "startCoords": {
        "latitude": 39.737326,
        "longitude": -104.924961
      },
      "endCoords": {
        "latitude": 39.778685,
        "longitude": -105.041461
      },
      "distanceMeters": 2891.6,
      "durationMs": 407690,
      "drivingDurationMs": 301805,
      "idlingDurationMs": 105885,
      "fuelConsumedMl": 132,
      "fuelConsumedGallons": 0.035,
      "maxSpeedMph": 58.0,
      "averageSpeedMph": 15.9,
      "safetyEvents": [],
      "_no_driver_login": false,
      "_fuel_note": ""
    },
    {
      "id": "trip_48291016_20250609_012",
      "vehicleId": "48291016",
      "driverId": "22831015",
      "startMs": 1749460440000,
      "endMs": 1749462549927,
      "startLocation": {
        "latitude": 39.784225,
        "longitude": -104.960461
      },
      "endLocation": {
        "latitude": 39.793021,
        "longitude": -105.083664
      },
      "startAddress": "0570 Craig Locks",
      "endAddress": "99071 Johnson Union",
      "startCoords": {
        "latitude": 39.737522,
        "longitude": -105.056249
      },
      "endCoords": {
        "latitude": 39.695623,
        "longitude": -104.904688
      },
      "distanceMeters": 14385.1,
      "durationMs": 2109927,
      "drivingDurationMs": 1848119,
      "idlingDurationMs": 261808,
      "fuelConsumedMl": 651,
      "fuelConsumedGallons": 0.172,
      "maxSpeedMph": 42.5,
      "averageSpeedMph": 15.3,
      "safetyEvents": [],
      "_no_driver_login": false,
      "_fuel_note": ""
    },
    {
      "id": "trip_48291016_20250609_013",
      "vehicleId": "48291016",
      "driverId": "22831015",
      "startMs": 1749463860000,
      "endMs": 1749466965538,
      "startLocation": {
        "latitude": 39.813131,
        "longitude": -105.0706
      },
      "endLocation": {
        "latitude": 39.781718,
        "longitude": -104.934854
      },
      "startAddress": "5663 Jason Wall",
      "endAddress": "503 Jason Orchard",
      "startCoords": {
        "latitude": 39.685754,
        "longitude": -104.994234
      },
      "endCoords": {
        "latitude": 39.805943,
        "longitude": -105.0674
      },
      "distanceMeters": 23518.2,
      "durationMs": 3105539,
      "drivingDurationMs": 2523626,
      "idlingDurationMs": 581912,
      "fuelConsumedMl": 1064,
      "fuelConsumedGallons": 0.281,
      "maxSpeedMph": 49.2,
      "averageSpeedMph": 16.9,
      "safetyEvents": [],
      "_no_driver_login": false,
      "_fuel_note": ""
    },
    {
      "id": "trip_48291016_20250609_014",
      "vehicleId": "48291016",
      "driverId": "22831015",
      "startMs": 1749470520000,
      "endMs": 1749471794130,
      "startLocation": {
        "latitude": 39.731233,
        "longitude": -105.06601
      },
      "endLocation": {
        "latitude": 39.691155,
        "longitude": -104.923245
      },
      "startAddress": "891 Hart Cove",
      "endAddress": "33009 Morrison Course",
      "startCoords": {
        "latitude": 39.775039,
        "longitude": -104.922091
      },
      "endCoords": {
        "latitude": 39.688115,
        "longitude": -105.059938
      },
      "distanceMeters": 11206.3,
      "durationMs": 1274131,
      "drivingDurationMs": 1081793,
      "idlingDurationMs": 192338,
      "fuelConsumedMl": 507,
      "fuelConsumedGallons": 0.134,
      "maxSpeedMph": 52.2,
      "averageSpeedMph": 19.7,
      "safetyEvents": [],
      "_no_driver_login": false,
      "_fuel_note": ""
    },
    {
      "id": "trip_48291016_20250610_001",
      "vehicleId": "48291016",
      "driverId": "22831015",
      "startMs": 1749553800000,
      "endMs": 1749556398573,
      "startLocation": {
        "latitude": 39.820621,
        "longitude": -105.033824
      },
      "endLocation": {
        "latitude": 39.813836,
        "longitude": -105.000882
      },
      "startAddress": "6943 Tami Pine Suite 147",
      "endAddress": "725 Rowe Turnpike",
      "startCoords": {
        "latitude": 39.758399,
        "longitude": -104.992133
      },
      "endCoords": {
        "latitude": 39.720043,
        "longitude": -105.084764
      },
      "distanceMeters": 17263.7,
      "durationMs": 2598574,
      "drivingDurationMs": 2326384,
      "idlingDurationMs": 272190,
      "fuelConsumedMl": 780,
      "fuelConsumedGallons": 0.206,
      "maxSpeedMph": 63.3,
      "averageSpeedMph": 14.9,
      "safetyEvents": [],
      "_no_driver_login": false,
      "_fuel_note": "QUIRK 5: fuelConsumedGallons is in US gallons. Multiply by 3.785 for litres. Samsara does not link fuel to specific Onfleet tasks."
    },
    {
      "id": "trip_48291016_20250610_002",
      "vehicleId": "48291016",
      "driverId": "22831015",
      "startMs": 1749541380000,
      "endMs": 1749541832471,
      "startLocation": {
        "latitude": 39.69709,
        "longitude": -105.033119
      },
      "endLocation": {
        "latitude": 39.755279,
        "longitude": -104.944609
      },
      "startAddress": "65706 Melissa Mountains",
      "endAddress": "75206 Johnson Fork Apt. 560",
      "startCoords": {
        "latitude": 39.786722,
        "longitude": -104.996332
      },
      "endCoords": {
        "latitude": 39.711437,
        "longitude": -104.944661
      },
      "distanceMeters": 2630.7,
      "durationMs": 452471,
      "drivingDurationMs": 328003,
      "idlingDurationMs": 124468,
      "fuelConsumedMl": 117,
      "fuelConsumedGallons": 0.031,
      "maxSpeedMph": 28.2,
      "averageSpeedMph": 13.0,
      "safetyEvents": [],
      "_no_driver_login": false,
      "_fuel_note": ""
    },
    {
      "id": "trip_48291016_20250610_003",
      "vehicleId": "48291016",
      "driverId": "22831015",
      "startMs": 1749579120000,
      "endMs": 1749582107805,
      "startLocation": {
        "latitude": 39.795998,
        "longitude": -104.933393
      },
      "endLocation": {
        "latitude": 39.774917,
        "longitude": -104.946543
      },
      "startAddress": "35042 Jackson Center Suite 914",
      "endAddress": "7847 Cynthia Port",
      "startCoords": {
        "latitude": 39.798872,
        "longitude": -104.920335
      },
      "endCoords": {
        "latitude": 39.805546,
        "longitude": -104.949854
      },
      "distanceMeters": 21550.1,
      "durationMs": 2987805,
      "drivingDurationMs": 2420084,
      "idlingDurationMs": 567721,
      "fuelConsumedMl": 977,
      "fuelConsumedGallons": 0.258,
      "maxSpeedMph": 70.4,
      "averageSpeedMph": 16.1,
      "safetyEvents": [
        {
          "type": "speeding",
          "startMs": 1749579960000,
          "maxSpeedMph": 70.4
        }
      ],
      "_no_driver_login": false,
      "_fuel_note": ""
    },
    {
      "id": "trip_48291016_20250610_004",
      "vehicleId": "48291016",
      "driverId": "22831015",
      "startMs": 1749539760000,
      "endMs": 1749540721498,
      "startLocation": {
        "latitude": 39.812043,
        "longitude": -105.020082
      },
      "endLocation": {
        "latitude": 39.804516,
        "longitude": -104.972877
      },
      "startAddress": "5690 Deborah Cliff Apt. 035",
      "endAddress": "54780 Katherine Path Suite 260",
      "startCoords": {
        "latitude": 39.751185,
        "longitude": -104.946609
      },
      "endCoords": {
        "latitude": 39.826842,
        "longitude": -105.058033
      },
      "distanceMeters": 5947.8,
      "durationMs": 961498,
      "drivingDurationMs": 774727,
      "idlingDurationMs": 186771,
      "fuelConsumedMl": 269,
      "fuelConsumedGallons": 0.071,
      "maxSpeedMph": 70.9,
      "averageSpeedMph": 13.8,
      "safetyEvents": [
        {
          "type": "speeding",
          "startMs": 1749539940000,
          "maxSpeedMph": 70.9
        }
      ],
      "_no_driver_login": false,
      "_fuel_note": ""
    },
    {
      "id": "trip_48291016_20250610_005",
      "vehicleId": "48291016",
      "driverId": "22831015",
      "startMs": 1749574320000,
      "endMs": 1749575468157,
      "startLocation": {
        "latitude": 39.806371,
        "longitude": -105.04599
      },
      "endLocation": {
        "latitude": 39.783226,
        "longitude": -105.053125
      },
      "startAddress": "530 Pierce Station",
      "endAddress": "01023 Amanda Springs Apt. 297",
      "startCoords": {
        "latitude": 39.780452,
        "longitude": -104.98017
      },
      "endCoords": {
        "latitude": 39.74468,
        "longitude": -105.068396
      },
      "distanceMeters": 9352.1,
      "durationMs": 1148157,
      "drivingDurationMs": 945190,
      "idlingDurationMs": 202968,
      "fuelConsumedMl": 424,
      "fuelConsumedGallons": 0.112,
      "maxSpeedMph": 54.1,
      "averageSpeedMph": 18.2,
      "safetyEvents": [],
      "_no_driver_login": false,
      "_fuel_note": ""
    },
    {
      "id": "trip_48291016_20250610_006",
      "vehicleId": "48291016",
      "driverId": "22831015",
      "startMs": 1749543000000,
      "endMs": 1749545709291,
      "startLocation": {
        "latitude": 39.688853,
        "longitude": -104.937955
      },
      "endLocation": {
        "latitude": 39.809001,
        "longitude": -104.935824
      },
      "startAddress": "72787 Melissa Coves",
      "endAddress": "775 Anthony Manor",
      "startCoords": {
        "latitude": 39.813516,
        "longitude": -104.975681
      },
      "endCoords": {
        "latitude": 39.713336,
        "longitude": -105.044086
      },
      "distanceMeters": 22087.6,
      "durationMs": 2709291,
      "drivingDurationMs": 2305045,
      "idlingDurationMs": 404246,
      "fuelConsumedMl": 999,
      "fuelConsumedGallons": 0.264,
      "maxSpeedMph": 66.4,
      "averageSpeedMph": 18.2,
      "safetyEvents": [
        {
          "type": "speeding",
          "startMs": 1749545160000,
          "maxSpeedMph": 66.4
        }
      ],
      "_no_driver_login": false,
      "_fuel_note": ""
    },
    {
      "id": "trip_48291016_20250610_007",
      "vehicleId": "48291016",
      "driverId": "22831015",
      "startMs": 1749554520000,
      "endMs": 1749555675637,
      "startLocation": {
        "latitude": 39.724141,
        "longitude": -104.960801
      },
      "endLocation": {
        "latitude": 39.720657,
        "longitude": -105.037553
      },
      "startAddress": "2560 Ellis Ranch",
      "endAddress": "488 Morgan Burg Apt. 173",
      "startCoords": {
        "latitude": 39.711198,
        "longitude": -105.068278
      },
      "endCoords": {
        "latitude": 39.812673,
        "longitude": -105.013387
      },
      "distanceMeters": 9603.9,
      "durationMs": 1155637,
      "drivingDurationMs": 942922,
      "idlingDurationMs": 212716,
      "fuelConsumedMl": 435,
      "fuelConsumedGallons": 0.115,
      "maxSpeedMph": 49.5,
      "averageSpeedMph": 18.6,
      "safetyEvents": [],
      "_no_driver_login": false,
      "_fuel_note": ""
    },
    {
      "id": "trip_48291016_20250610_008",
      "vehicleId": "48291016",
      "driverId": "22831015",
      "startMs": 1749574080000,
      "endMs": 1749574393803,
      "startLocation": {
        "latitude": 39.766163,
        "longitude": -105.025738
      },
      "endLocation": {
        "latitude": 39.714915,
        "longitude": -104.953586
      },
      "startAddress": "014 Johnson Parkways",
      "endAddress": "892 James Crossing Suite 014",
      "startCoords": {
        "latitude": 39.783555,
        "longitude": -104.953403
      },