{
  "vehicleId": "48291003",
  "vehicleName": "DEN-CAR-04",
  "month": "2025_06",
  "pagination": {
    "endCursor": "trip_48291003_20250630_003",
    "hasNextPage": false
  },
  "trips": [
    {
      "id": "trip_48291003_20250601_001",
      "vehicleId": "48291003",
      "driverId": "22831002",
      "startMs": 1748798880000,
      "endMs": 1748802473014,
      "startLocation": {
        "latitude": 39.718429,
        "longitude": -104.9444
      },
      "endLocation": {
        "latitude": 39.697449,
        "longitude": -104.967338
      },
      "startAddress": "03805 Jessica Mission",
      "endAddress": "470 Carl Village Apt. 625",
      "startCoords": {
        "latitude": 39.815012,
        "longitude": -104.906646
      },
      "endCoords": {
        "latitude": 39.795251,
        "longitude": -104.981817
      },
      "distanceMeters": 19295.4,
      "durationMs": 3593014,
      "drivingDurationMs": 3316520,
      "idlingDurationMs": 276494,
      "fuelConsumedMl": 2453,
      "fuelConsumedGallons": 0.648,
      "maxSpeedMph": 38.4,
      "averageSpeedMph": 12.0,
      "safetyEvents": [],
      "_no_driver_login": false,
      "_fuel_note": "QUIRK 5: fuelConsumedGallons is in US gallons. Multiply by 3.785 for litres. Samsara does not link fuel to specific Onfleet tasks."
    },
    {
      "id": "trip_48291003_20250601_002",
      "vehicleId": "48291003",
      "driverId": "22831002",
      "startMs": 1748763660000,
      "endMs": 1748765798753,
      "startLocation": {
        "latitude": 39.692716,
        "longitude": -104.996704
      },
      "endLocation": {
        "latitude": 39.811491,
        "longitude": -104.905126
      },
      "startAddress": "152 Moore Lane",
      "endAddress": "876 Day Burgs",
      "startCoords": {
        "latitude": 39.76291,
        "longitude": -105.065767
      },
      "endCoords": {
        "latitude": 39.75124,
        "longitude": -104.903153
      },
      "distanceMeters": 14346.2,
      "durationMs": 2138754,
      "drivingDurationMs": 1774616,
      "idlingDurationMs": 364138,
      "fuelConsumedMl": 1825,
      "fuelConsumedGallons": 0.482,
      "maxSpeedMph": 48.5,
      "averageSpeedMph": 15.0,
      "safetyEvents": [],
      "_no_driver_login": false,
      "_fuel_note": ""
    },
    {
      "id": "trip_48291003_20250601_003",
      "vehicleId": "48291003",
      "driverId": "22831002",
      "startMs": 1748796240000,
      "endMs": 1748805910418,
      "startLocation": {
        "latitude": 39.806652,
        "longitude": -105.021318
      },
      "endLocation": {
        "latitude": 39.697025,
        "longitude": -104.981934
      },
      "startAddress": "339 Lam Views",
      "endAddress": "0613 Spencer Village",
      "startCoords": {
        "latitude": 39.693933,
        "longitude": -104.974033
      },
      "endCoords": {
        "latitude": 39.797619,
        "longitude": -104.928413
      },
      "distanceMeters": 43844.6,
      "durationMs": 9670418,
      "drivingDurationMs": 8089405,
      "idlingDurationMs": 1581013,
      "fuelConsumedMl": 5576,
      "fuelConsumedGallons": 1.473,
      "maxSpeedMph": 55.6,
      "averageSpeedMph": 10.1,
      "safetyEvents": [],
      "_no_driver_login": false,
      "_fuel_note": ""
    },
    {
      "id": "trip_48291003_20250602_001",
      "vehicleId": "48291003",
      "driverId": "22831002",
      "startMs": 1748847300000,
      "endMs": 1748854580253,
      "startLocation": {
        "latitude": 39.698977,
        "longitude": -104.932391
      },
      "endLocation": {
        "latitude": 39.741637,
        "longitude": -105.062129
      },
      "startAddress": "430 Harris Heights Suite 960",
      "endAddress": "769 Terry Meadow Apt. 855",
      "startCoords": {
        "latitude": 39.694344,
        "longitude": -104.968352
      },
      "endCoords": {
        "latitude": 39.725909,
        "longitude": -104.971748
      },
      "distanceMeters": 52729.0,
      "durationMs": 7280254,
      "drivingDurationMs": 7078730,
      "idlingDurationMs": 201524,
      "fuelConsumedMl": 6704,
      "fuelConsumedGallons": 1.771,
      "maxSpeedMph": 57.1,
      "averageSpeedMph": 16.2,
      "safetyEvents": [],
      "_no_driver_login": false,
      "_fuel_note": "QUIRK 5: fuelConsumedGallons is in US gallons. Multiply by 3.785 for litres. Samsara does not link fuel to specific Onfleet tasks."
    },
    {
      "id": "trip_48291003_20250602_002",
      "vehicleId": "48291003",
      "driverId": "22831002",
      "startMs": 1748868420000,
      "endMs": 1748882546746,
      "startLocation": {
        "latitude": 39.749147,
        "longitude": -104.94423
      },
      "endLocation": {
        "latitude": 39.806413,
        "longitude": -104.942859
      },
      "startAddress": "42352 Willis Court",
      "endAddress": "69960 Perez Route Suite 226",
      "startCoords": {
        "latitude": 39.724629,
        "longitude": -105.010758
      },
      "endCoords": {
        "latitude": 39.722255,
        "longitude": -104.998881
      },
      "distanceMeters": 78730.6,
      "durationMs": 14126747,
      "drivingDurationMs": 13071862,
      "idlingDurationMs": 1054885,
      "fuelConsumedMl": 10009,
      "fuelConsumedGallons": 2.644,
      "maxSpeedMph": 42.3,
      "averageSpeedMph": 12.5,
      "safetyEvents": [],
      "_no_driver_login": false,
      "_fuel_note": ""
    },
    {
      "id": "trip_48291003_20250602_003",
      "vehicleId": "48291003",
      "driverId": "22831002",
      "startMs": 1748885940000,
      "endMs": 1748898000000,
      "startLocation": {
        "latitude": 39.805011,
        "longitude": -104.942787
      },
      "endLocation": {
        "latitude": 39.799712,
        "longitude": -105.064871
      },
      "startAddress": "635 Adams Ford Apt. 297",
      "endAddress": "3200 Susan Loop Suite 252",
      "startCoords": {
        "latitude": 39.743481,
        "longitude": -104.94983
      },
      "endCoords": {
        "latitude": 39.732853,
        "longitude": -105.029975
      },
      "distanceMeters": 60922.7,
      "durationMs": 12060000,
      "drivingDurationMs": 11310506,
      "idlingDurationMs": 749494,
      "fuelConsumedMl": 7745,
      "fuelConsumedGallons": 2.046,
      "maxSpeedMph": 40.8,
      "averageSpeedMph": 11.3,
      "safetyEvents": [],
      "_no_driver_login": false,
      "_fuel_note": ""
    },
    {
      "id": "trip_48291003_20250602_004",
      "vehicleId": "48291003",
      "driverId": "22831002",
      "startMs": 1748865960000,
      "endMs": 1748879041934,
      "startLocation": {
        "latitude": 39.734744,
        "longitude": -105.010355
      },
      "endLocation": {
        "latitude": 39.687293,
        "longitude": -105.054909
      },
      "startAddress": "18147 Murray Spring Apt. 156",
      "endAddress": "5470 Kristin Spur Suite 252",
      "startCoords": {
        "latitude": 39.723609,
        "longitude": -104.969685
      },
      "endCoords": {
        "latitude": 39.760112,
        "longitude": -104.990858
      },
      "distanceMeters": 60862.1,
      "durationMs": 13081935,
      "drivingDurationMs": 11693375,
      "idlingDurationMs": 1388560,
      "fuelConsumedMl": 7737,
      "fuelConsumedGallons": 2.044,
      "maxSpeedMph": 36.3,
      "averageSpeedMph": 10.4,
      "safetyEvents": [],
      "_no_driver_login": false,
      "_fuel_note": ""
    },
    {
      "id": "trip_48291003_20250602_005",
      "vehicleId": "48291003",
      "driverId": "22831002",
      "startMs": 1748855940000,
      "endMs": 1748859617472,
      "startLocation": {
        "latitude": 39.785174,
        "longitude": -104.944165
      },
      "endLocation": {
        "latitude": 39.713094,
        "longitude": -104.936171
      },
      "startAddress": "0428 James Spring Suite 481",
      "endAddress": "56624 Robert Junctions",
      "startCoords": {
        "latitude": 39.81705,
        "longitude": -105.025556
      },
      "endCoords": {
        "latitude": 39.781515,
        "longitude": -105.053408
      },
      "distanceMeters": 24601.3,
      "durationMs": 3677472,
      "drivingDurationMs": 3221414,
      "idlingDurationMs": 456058,
      "fuelConsumedMl": 3127,
      "fuelConsumedGallons": 0.826,
      "maxSpeedMph": 62.7,
      "averageSpeedMph": 15.0,
      "safetyEvents": [],
      "_no_driver_login": false,
      "_fuel_note": ""
    },
    {
      "id": "trip_48291003_20250602_006",
      "vehicleId": "48291003",
      "driverId": "22831002",
      "startMs": 1748859240000,
      "endMs": 1748865517160,
      "startLocation": {
        "latitude": 39.81414,
        "longitude": -104.949358
      },
      "endLocation": {
        "latitude": 39.74737,
        "longitude": -105.078055
      },
      "startAddress": "4325 Torres Neck",
      "endAddress": "77665 Sanders Point Apt. 446",
      "startCoords": {
        "latitude": 39.771319,
        "longitude": -104.988064
      },
      "endCoords": {
        "latitude": 39.723182,
        "longitude": -104.926649
      },
      "distanceMeters": 39781.2,
      "durationMs": 6277161,
      "drivingDurationMs": 5307174,
      "idlingDurationMs": 969987,
      "fuelConsumedMl": 5057,
      "fuelConsumedGallons": 1.336,
      "maxSpeedMph": 54.5,
      "averageSpeedMph": 14.2,
      "safetyEvents": [],
      "_no_driver_login": false,
      "_fuel_note": ""
    },
    {
      "id": "trip_48291003_20250603_001",
      "vehicleId": "48291003",
      "driverId": "22831002",
      "startMs": 1748976780000,
      "endMs": 1748984400000,
      "startLocation": {
        "latitude": 39.798351,
        "longitude": -105.028479
      },
      "endLocation": {
        "latitude": 39.780568,
        "longitude": -105.014015
      },
      "startAddress": "44419 Tammy Mission Apt. 921",
      "endAddress": "4468 Heather Common Suite 747",
      "startCoords": {
        "latitude": 39.815202,
        "longitude": -104.951183
      },
      "endCoords": {
        "latitude": 39.766633,
        "longitude": -104.952272
      },
      "distanceMeters": 48365.1,
      "durationMs": 7620000,
      "drivingDurationMs": 6609123,
      "idlingDurationMs": 1010877,
      "fuelConsumedMl": 6148,
      "fuelConsumedGallons": 1.624,
      "maxSpeedMph": 35.8,
      "averageSpeedMph": 14.2,
      "safetyEvents": [],
      "_no_driver_login": false,
      "_fuel_note": "QUIRK 5: fuelConsumedGallons is in US gallons. Multiply by 3.785 for litres. Samsara does not link fuel to specific Onfleet tasks."
    },
    {
      "id": "trip_48291003_20250603_002",
      "vehicleId": "48291003",
      "driverId": "22831002",
      "startMs": 1748951820000,
      "endMs": 1748953181569,
      "startLocation": {
        "latitude": 39.822226,
        "longitude": -104.935835
      },
      "endLocation": {
        "latitude": 39.754909,
        "longitude": -105.033503
      },
      "startAddress": "9431 Mcintyre Hollow Suite 199",
      "endAddress": "83944 Shane Spur",
      "startCoords": {
        "latitude": 39.760348,
        "longitude": -104.974757
      },
      "endCoords": {
        "latitude": 39.800144,
        "longitude": -105.06028
      },
      "distanceMeters": 5912.3,
      "durationMs": 1361569,
      "drivingDurationMs": 1149556,
      "idlingDurationMs": 212014,
      "fuelConsumedMl": 753,
      "fuelConsumedGallons": 0.199,
      "maxSpeedMph": 52.6,
      "averageSpeedMph": 9.7,
      "safetyEvents": [],
      "_no_driver_login": false,
      "_fuel_note": ""
    },
    {
      "id": "trip_48291003_20250603_003",
      "vehicleId": "48291003",
      "driverId": "22831002",
      "startMs": 1748964060000,
      "endMs": 1748971010036,
      "startLocation": {
        "latitude": 39.778308,
        "longitude": -104.972964
      },
      "endLocation": {
        "latitude": 39.73098,
        "longitude": -105.036455
      },
      "startAddress": "5834 Smith Trace Apt. 335",
      "endAddress": "463 Walker Square Apt. 203",
      "startCoords": {
        "latitude": 39.724751,
        "longitude": -104.998693
      },
      "endCoords": {
        "latitude": 39.786414,
        "longitude": -104.915535
      },
      "distanceMeters": 41360.8,
      "durationMs": 6950037,
      "drivingDurationMs": 6175100,
      "idlingDurationMs": 774937,
      "fuelConsumedMl": 5258,
      "fuelConsumedGallons": 1.389,
      "maxSpeedMph": 63.1,
      "averageSpeedMph": 13.3,
      "safetyEvents": [],
      "_no_driver_login": false,
      "_fuel_note": ""
    },
    {
      "id": "trip_48291003_20250604_001",
      "vehicleId": "48291003",
      "driverId": "22831002",
      "startMs": 1749033300000,
      "endMs": 1749035840431,
      "startLocation": {
        "latitude": 39.713181,
        "longitude": -105.082513
      },
      "endLocation": {
        "latitude": 39.761833,
        "longitude": -104.969858
      },
      "startAddress": "7283 Melinda Burg",
      "endAddress": "521 Campbell Bridge",
      "startCoords": {
        "latitude": 39.795772,
        "longitude": -104.958057
      },
      "endCoords": {
        "latitude": 39.745447,
        "longitude": -105.039073
      },
      "distanceMeters": 17107.2,
      "durationMs": 2540431,
      "drivingDurationMs": 2146857,
      "idlingDurationMs": 393574,
      "fuelConsumedMl": 2177,
      "fuelConsumedGallons": 0.575,
      "maxSpeedMph": 71.8,
      "averageSpeedMph": 15.1,
      "safetyEvents": [
        {
          "type": "speeding",
          "startMs": 1749034980000,
          "maxSpeedMph": 71.8
        }
      ],
      "_no_driver_login": false,
      "_fuel_note": "QUIRK 5: fuelConsumedGallons is in US gallons. Multiply by 3.785 for litres. Samsara does not link fuel to specific Onfleet tasks."
    },
    {
      "id": "trip_48291003_20250604_002",
      "vehicleId": "48291003",
      "driverId": "22831002",
      "startMs": 1749031740000,
      "endMs": 1749042357627,
      "startLocation": {
        "latitude": 39.764631,
        "longitude": -104.978447
      },
      "endLocation": {
        "latitude": 39.823193,
        "longitude": -104.928915
      },
      "startAddress": "4097 Walker Park",
      "endAddress": "94519 Smith River",
      "startCoords": {
        "latitude": 39.696243,
        "longitude": -104.98692
      },
      "endCoords": {
        "latitude": 39.7006,
        "longitude": -105.008513
      },
      "distanceMeters": 76193.0,
      "durationMs": 10617627,
      "drivingDurationMs": 9270415,
      "idlingDurationMs": 1347212,
      "fuelConsumedMl": 9687,
      "fuelConsumedGallons": 2.559,
      "maxSpeedMph": 35.3,
      "averageSpeedMph": 16.1,
      "safetyEvents": [],
      "_no_driver_login": false,
      "_fuel_note": ""
    },
    {
      "id": "trip_48291003_20250604_003",
      "vehicleId": "48291003",
      "driverId": "22831002",
      "startMs": 1749021360000,
      "endMs": 1749024809672,
      "startLocation": {
        "latitude": 39.75007,
        "longitude": -104.929357
      },
      "endLocation": {
        "latitude": 39.708567,
        "longitude": -105.047298
      },
      "startAddress": "49263 Grimes Parkway Apt. 194",
      "endAddress": "3291 Charles Mountain Suite 064",
      "startCoords": {
        "latitude": 39.734045,
        "longitude": -104.904067
      },
      "endCoords": {
        "latitude": 39.812741,
        "longitude": -104.965151
      },
      "distanceMeters": 24502.2,
      "durationMs": 3449672,
      "drivingDurationMs": 3142186,
      "idlingDurationMs": 307487,
      "fuelConsumedMl": 3115,
      "fuelConsumedGallons": 0.823,
      "maxSpeedMph": 52.8,
      "averageSpeedMph": 15.9,
      "safetyEvents": [],
      "_no_driver_login": false,
      "_fuel_note": ""
    },
    {
      "id": "trip_48291003_20250604_004",
      "vehicleId": "48291003",
      "driverId": "22831002",
      "startMs": 1749034020000,
      "endMs": 1749045642330,
      "startLocation": {
        "latitude": 39.757463,
        "longitude": -105.052129
      },
      "endLocation": {
        "latitude": 39.791514,
        "longitude": -105.02458
      },
      "startAddress": "83845 Nguyen Center",
      "endAddress": "36641 Derek Plains Suite 194",
      "startCoords": {
        "latitude": 39.793941,
        "longitude": -104.964359
      },
      "endCoords": {
        "latitude": 39.810094,
        "longitude": -105.066382
      },
      "distanceMeters": 59696.7,
      "durationMs": 11622330,
      "drivingDurationMs": 10221646,
      "idlingDurationMs": 1400684,
      "fuelConsumedMl": 7590,
      "fuelConsumedGallons": 2.005,
      "maxSpeedMph": 30.0,
      "averageSpeedMph": 11.5,
      "safetyEvents": [],
      "_no_driver_login": false,
      "_fuel_note": ""
    },
    {
      "id": "trip_48291003_20250605_001",
      "vehicleId": "48291003",
      "driverId": "22831002",
      "startMs": 1749123300000,
      "endMs": 1749135205362,
      "startLocation": {
        "latitude": 39.753263,
        "longitude": -104.930831
      },
      "endLocation": {
        "latitude": 39.736406,
        "longitude": -104.963834
      },
      "startAddress": "5040 Berg Ranch",
      "endAddress": "333 Carpenter Vista",
      "startCoords": {
        "latitude": 39.809702,
        "longitude": -104.992208
      },
      "endCoords": {
        "latitude": 39.710422,
        "longitude": -105.029739
      },
      "distanceMeters": 79557.3,
      "durationMs": 11905362,
      "drivingDurationMs": 11260224,
      "idlingDurationMs": 645138,
      "fuelConsumedMl": 10115,
      "fuelConsumedGallons": 2.672,
      "maxSpeedMph": 28.1,
      "averageSpeedMph": 14.9,
      "safetyEvents": [],
      "_no_driver_login": false,
      "_fuel_note": "QUIRK 5: fuelConsumedGallons is in US gallons. Multiply by 3.785 for litres. Samsara does not link fuel to specific Onfleet tasks."
    },
    {
      "id": "trip_48291003_20250605_002",
      "vehicleId": "48291003",
      "driverId": "22831002",
      "startMs": 1749105660000,
      "endMs": 1749113187255,
      "startLocation": {
        "latitude": 39.720803,
        "longitude": -104.975347
      },
      "endLocation": {
        "latitude": 39.69106,
        "longitude": -105.033126
      },
      "startAddress": "5768 Felicia Rue Apt. 752",
      "endAddress": "66937 Dudley Mall Apt. 613",
      "startCoords": {
        "latitude": 39.750535,
        "longitude": -104.960919
      },
      "endCoords": {
        "latitude": 39.701502,
        "longitude": -105.008559
      },
      "distanceMeters": 63546.5,
      "durationMs": 7527255,
      "drivingDurationMs": 7187533,
      "idlingDurationMs": 339723,
      "fuelConsumedMl": 8078,
      "fuelConsumedGallons": 2.134,
      "maxSpeedMph": 60.4,
      "averageSpeedMph": 18.9,
      "safetyEvents": [],
      "_no_driver_login": false,
      "_fuel_note": ""
    },
    {
      "id": "trip_48291003_20250605_003",
      "vehicleId": "48291003",
      "driverId": "22831002",
      "startMs": 1749125940000,
      "endMs": 1749129508177,
      "startLocation": {
        "latitude": 39.717226,
        "longitude": -104.928434
      },
      "endLocation": {
        "latitude": 39.815518,
        "longitude": -105.061064
      },
      "startAddress": "458 Darrell Mountain",
      "endAddress": "68672 Jones Gardens Apt. 766",
      "startCoords": {
        "latitude": 39.81497,
        "longitude": -105.002264
      },
      "endCoords": {
        "latitude": 39.735892,
        "longitude": -105.018314
      },
      "distanceMeters": 18088.7,
      "durationMs": 3568178,
      "drivingDurationMs": 2913141,
      "idlingDurationMs": 655037,
      "fuelConsumedMl": 2302,
      "fuelConsumedGallons": 0.608,
      "maxSpeedMph": 28.7,
      "averageSpeedMph": 11.3,
      "safetyEvents": [],
      "_no_driver_login": false,
      "_fuel_note": ""
    },
    {
      "id": "trip_48291003_20250605_004",
      "vehicleId": "48291003",
      "driverId": "22831002",
      "startMs": 1749130980000,
      "endMs": 1749141209315,
      "startLocation": {
        "latitude": 39.733527,
        "longitude": -104.918962
      },
      "endLocation": {
        "latitude": 39.823119,
        "longitude": -105.058767
      },
      "startAddress": "01163 Jeffrey Heights",
      "endAddress": "020 Brent Divide",
      "startCoords": {
        "latitude": 39.789045,
        "longitude": -105.083508
      },
      "endCoords": {
        "latitude": 39.765489,
        "longitude": -104.966002
      },
      "distanceMeters": 55566.9,
      "durationMs": 10229316,
      "drivingDurationMs": 8450365,
      "idlingDurationMs": 1778951,
      "fuelConsumedMl": 7064,
      "fuelConsumedGallons": 1.866,
      "maxSpeedMph": 29.3,
      "averageSpeedMph": 12.2,
      "safetyEvents": [],
      "_no_driver_login": false,
      "_fuel_note": ""
    },
    {
      "id": "trip_48291003_20250605_005",
      "vehicleId": "48291003",
      "driverId": null,
      "startMs": 1749126000000,
      "endMs": 1749133414851,
      "startLocation": {
        "latitude": 39.713834,
        "longitude": -104.986778
      },
      "endLocation": {
        "latitude": 39.744133,
        "longitude": -104.924984
      },
      "startAddress": "738 Tiffany Hollow Apt. 051",
      "endAddress": "35657 Lowery Islands",
      "startCoords": {
        "latitude": 39.727436,
        "longitude": -104.934892
      },
      "endCoords": {
        "latitude": 39.788604,
        "longitude": -104.959967
      },
      "distanceMeters": 39576.8,
      "durationMs": 7414852,
      "drivingDurationMs": 6649920,
      "idlingDurationMs": 764932,
      "fuelConsumedMl": 5031,
      "fuelConsumedGallons": 1.329,
      "maxSpeedMph": 47.3,
      "averageSpeedMph": 11.9,
      "safetyEvents": [],
      "_no_driver_login": true,
      "_fuel_note": ""
    },
    {
      "id": "trip_48291003_20250606_001",
      "vehicleId": "48291003",
      "driverId": "22831002",
      "startMs": 1749225240000,
      "endMs": 1749239527873,
      "startLocation": {
        "latitude": 39.69216,
        "longitude": -104.994884
      },
      "endLocation": {
        "latitude": 39.742886,
        "longitude": -105.08009
      },
      "startAddress": "927 Daniel Road Apt. 102",
      "endAddress": "700 Barber Orchard",
      "startCoords": {
        "latitude": 39.695637,
        "longitude": -104.909954
      },
      "endCoords": {
        "latitude": 39.77063,
        "longitude": -105.064268
      },
      "distanceMeters": 66492.2,
      "durationMs": 14287874,
      "drivingDurationMs": 12754979,
      "idlingDurationMs": 1532895,
      "fuelConsumedMl": 8453,
      "fuelConsumedGallons": 2.233,
      "maxSpeedMph": 32.6,
      "averageSpeedMph": 10.4,
      "safetyEvents": [],
      "_no_driver_login": false,
      "_fuel_note": "QUIRK 5: fuelConsumedGallons is in US gallons. Multiply by 3.785 for litres. Samsara does not link fuel to specific Onfleet tasks."
    },
    {
      "id": "trip_48291003_20250606_002",
      "vehicleId": "48291003",
      "driverId": "22831002",
      "startMs": 1749213180000,
      "endMs": 1749225127544,
      "startLocation": {
        "latitude": 39.709733,
        "longitude": -105.010191
      },
      "endLocation": {
        "latitude": 39.792471,
        "longitude": -104.925344
      },
      "startAddress": "9597 Christine Loop Suite 505",
      "endAddress": "0377 John Terrace",
      "startCoords": {
        "latitude": 39.696321,
        "longitude": -104.986617
      },
      "endCoords": {
        "latitude": 39.758687,
        "longitude": -104.944169
      },
      "distanceMeters": 83639.5,
      "durationMs": 11947545,
      "drivingDurationMs": 10377678,
      "idlingDurationMs": 1569867,
      "fuelConsumedMl": 10633,
      "fuelConsumedGallons": 2.809,
      "maxSpeedMph": 60.1,
      "averageSpeedMph": 15.7,
      "safetyEvents": [],
      "_no_driver_login": false,
      "_fuel_note": ""
    },
    {
      "id": "trip_48291003_20250607_001",
      "vehicleId": "48291003",
      "driverId": "22831002",
      "startMs": 1749286500000,
      "endMs": 1749289631326,
      "startLocation": {
        "latitude": 39.765147,
        "longitude": -105.080297
      },
      "endLocation": {
        "latitude": 39.721714,
        "longitude": -104.943871
      },
      "startAddress": "56198 Bailey Ranch Apt. 797",
      "endAddress": "214 Robert Road Suite 593",
      "startCoords": {
        "latitude": 39.689038,
        "longitude": -105.076905
      },
      "endCoords": {
        "latitude": 39.7997,
        "longitude": -104.942486
      },
      "distanceMeters": 23429.3,
      "durationMs": 3131327,
      "drivingDurationMs": 2736720,
      "idlingDurationMs": 394606,
      "fuelConsumedMl": 2979,
      "fuelConsumedGallons": 0.787,
      "maxSpeedMph": 48.5,
      "averageSpeedMph": 16.7,
      "safetyEvents": [],
      "_no_driver_login": false,
      "_fuel_note": "QUIRK 5: fuelConsumedGallons is in US gallons. Multiply by 3.785 for litres. Samsara does not link fuel to specific Onfleet tasks."
    },
    {
      "id": "trip_48291003_20250607_002",
      "vehicleId": "48291003",
      "driverId": "22831002",
      "startMs": 1749308220000,
      "endMs": 1749313402609,
      "startLocation": {
        "latitude": 39.728868,
        "longitude": -105.036283
      },
      "endLocation": {
        "latitude": 39.78486,
        "longitude": -104.904048
      },
      "startAddress": "122 Hensley Passage Apt. 866",
      "endAddress": "487 Lee Meadow",
      "startCoords": {
        "latitude": 39.721368,
        "longitude": -105.082975
      },
      "endCoords": {
        "latitude": 39.798821,
        "longitude": -104.981511
      },
      "distanceMeters": 26465.2,
      "durationMs": 5182610,
      "drivingDurationMs": 4947265,
      "idlingDurationMs": 235345,
      "fuelConsumedMl": 3365,
      "fuelConsumedGallons": 0.889,
      "maxSpeedMph": 61.1,
      "averageSpeedMph": 11.4,
      "safetyEvents": [],
      "_no_driver_login": false,
      "_fuel_note": ""
    },
    {
      "id": "trip_48291003_20250608_001",
      "vehicleId": "48291003",
      "driverId": "22831002",
      "startMs": 1749369540000,
      "endMs": 1749377038795,
      "startLocation": {
        "latitude": 39.78096,
        "longitude": -105.017103
      },
      "endLocation": {
        "latitude": 39.727364,
        "longitude": -105.049204
      },
      "startAddress": "338 Jared Street Suite 472",
      "endAddress": "7419 Nathan Burgs",
      "startCoords": {
        "latitude": 39.750899,
        "longitude": -104.937975
      },
      "endCoords": {
        "latitude": 39.81529,
        "longitude": -104.9888
      },
      "distanceMeters": 45151.8,
      "durationMs": 7498795,
      "drivingDurationMs": 6358362,
      "idlingDurationMs": 1140434,
      "fuelConsumedMl": 5742,
      "fuelConsumedGallons": 1.517,
      "maxSpeedMph": 65.3,
      "averageSpeedMph": 13.5,
      "safetyEvents": [
        {
          "type": "speeding",
          "startMs": 1749373080000,
          "maxSpeedMph": 65.3
        }
      ],
      "_no_driver_login": false,
      "_fuel_note": "QUIRK 5: fuelConsumedGallons is in US gallons. Multiply by 3.785 for litres. Samsara does not link fuel to specific Onfleet tasks."
    },
    {
      "id": "trip_48291003_20250608_002",
      "vehicleId": "48291003",
      "driverId": "22831002",
      "startMs": 1749389700000,
      "endMs": 1749391224691,
      "startLocation": {
        "latitude": 39.770546,
        "longitude": -104.959672
      },
      "endLocation": {
        "latitude": 39.785644,
        "longitude": -105.037718
      },
      "startAddress": "133 Jeffrey Point",
      "endAddress": "970 David Skyway Suite 328",
      "startCoords": {
        "latitude": 39.824825,
        "longitude": -105.003812
      },
      "endCoords": {
        "latitude": 39.692608,
        "longitude": -105.07954
      },
      "distanceMeters": 10637.7,
      "durationMs": 1524692,
      "drivingDurationMs": 1288629,
      "idlingDurationMs": 236063,
      "fuelConsumedMl": 1351,
      "fuelConsumedGallons": 0.357,
      "maxSpeedMph": 56.5,
      "averageSpeedMph": 15.6,
      "safetyEvents": [],
      "_no_driver_login": false,
      "_fuel_note": ""
    },
    {
      "id": "trip_48291003_20250608_003",
      "vehicleId": "48291003",
      "driverId": "22831002",
      "startMs": 1749397860000,
      "endMs": 1749401607839,
      "startLocation": {
        "latitude": 39.734175,
        "longitude": -105.06322
      },
      "endLocation": {
        "latitude": 39.703313,
        "longitude": -104.941542
      },
      "startAddress": "55958 Wade Wall",
      "endAddress": "43315 Dillon Walks Suite 486",
      "startCoords": {
        "latitude": 39.706042,
        "longitude": -105.070847
      },
      "endCoords": {
        "latitude": 39.731152,
        "longitude": -104.931999
      },
      "distanceMeters": 16447.7,
      "durationMs": 3747839,
      "drivingDurationMs": 3229264,
      "idlingDurationMs": 518575,
      "fuelConsumedMl": 2090,
      "fuelConsumedGallons": 0.552,
      "maxSpeedMph": 71.6,
      "averageSpeedMph": 9.8,
      "safetyEvents": [
        {
          "type": "speeding",
          "startMs": 1749401340000,
          "maxSpeedMph": 71.6
        }
      ],
      "_no_driver_login": false,
      "_fuel_note": ""
    },
    {
      "id": "trip_48291003_20250609_001",
      "vehicleId": "48291003",
      "driverId": "22831002",
      "startMs": 1749480060000,
      "endMs": 1749493041159,
      "startLocation": {
        "latitude": 39.765067,
        "longitude": -104.913328
      },
      "endLocation": {
        "latitude": 39.826816,
        "longitude": -104.919969
      },
      "startAddress": "863 Branch Station",
      "endAddress": "411 Torres Union",
      "startCoords": {
        "latitude": 39.768848,
        "longitude": -104.994767
      },
      "endCoords": {
        "latitude": 39.760261,
        "longitude": -105.073519
      },
      "distanceMeters": 83264.8,
      "durationMs": 12981160,
      "drivingDurationMs": 11827442,
      "idlingDurationMs": 1153718,
      "fuelConsumedMl": 10588,
      "fuelConsumedGallons": 2.797,
      "maxSpeedMph": 28.2,
      "averageSpeedMph": 14.3,
      "safetyEvents": [],
      "_no_driver_login": false,
      "_fuel_note": "QUIRK 5: fuelConsumedGallons is in US gallons. Multiply by 3.785 for litres. Samsara does not link fuel to specific Onfleet tasks."
    },
    {
      "id": "trip_48291003_20250609_002",
      "vehicleId": "48291003",
      "driverId": "22831002",
      "startMs": 1749453600000,
      "endMs": 1749463275638,
      "startLocation": {
        "latitude": 39.785392,
        "longitude": -105.001701
      },
      "endLocation": {
        "latitude": 39.786509,
        "longitude": -105.083371
      },
      "startAddress": "561 Stephens Glens Apt. 837",
      "endAddress": "3865 Larson Lodge Suite 052",
      "startCoords": {
        "latitude": 39.77654,
        "longitude": -104.92006
      },
      "endCoords": {
        "latitude": 39.808088,
        "longitude": -104.900636
      },
      "distanceMeters": 71167.1,
      "durationMs": 9675638,
      "drivingDurationMs": 9404737,
      "idlingDurationMs": 270901,
      "fuelConsumedMl": 9047,
      "fuelConsumedGallons": 2.39,
      "maxSpeedMph": 54.1,
      "averageSpeedMph": 16.5,
      "safetyEvents": [],
      "_no_driver_login": false,
      "_fuel_note": ""
    },
    {
      "id": "trip_48291003_20250610_001",
      "vehicleId": "48291003",
      "driverId": null,
      "startMs": 1749558540000,
      "endMs": 1749567349073,
      "startLocation": {
        "latitude": 39.810721,
        "longitude": -104.941055
      },
      "endLocation": {
        "latitude": 39.728728,
        "longitude": -104.913086
      },
      "startAddress": "804 Christopher Rest",
      "endAddress": "14757 Joshua Plain",
      "startCoords": {
        "latitude": 39.784359,
        "longitude": -104.913938
      },
      "endCoords": {
        "latitude": 39.781583,
        "longitude": -104.984112
      },
      "distanceMeters": 57520.7,
      "durationMs": 8809074,
      "drivingDurationMs": 7602542,
      "idlingDurationMs": 1206532,
      "fuelConsumedMl": 7313,
      "fuelConsumedGallons": 1.932,
      "maxSpeedMph": 61.1,
      "averageSpeedMph": 14.6,
      "safetyEvents": [],
      "_no_driver_login": true,
      "_fuel_note": "QUIRK 5: fuelConsumedGallons is in US gallons. Multiply by 3.785 for litres. Samsara does not link fuel to specific Onfleet tasks."
    },
    {
      "id": "trip_48291003_20250610_002",
      "vehicleId": "48291003",
      "driverId": "22831002",
      "startMs": 1749548640000,
      "endMs": 1749559266638,
      "startLocation": {
        "latitude": 39.707749,
        "longitude": -105.006513
      },
      "endLocation": {
        "latitude": 39.72528,
        "longitude": -104.900836
      },
      "startAddress": "8851 Erica Meadow",
      "endAddress": "689 Pamela Spurs",
      "startCoords": {
        "latitude": 39.734119,
        "longitude": -105.015114
      },
      "endCoords": {
        "latitude": 39.824324,
        "longitude": -104.91226
      },
      "distanceMeters": 72477.1,
      "durationMs": 10626639,
      "drivingDurationMs": 8563154,
      "idlingDurationMs": 2063485,
      "fuelConsumedMl": 9214,
      "fuelConsumedGallons": 2.434,
      "maxSpeedMph": 29.3,
      "averageSpeedMph": 15.3,
      "safetyEvents": [],
      "_no_driver_login": false,
      "_fuel_note": ""
    },
    {
      "id": "trip_48291003_20250610_003",
      "vehicleId": "48291003",
      "driverId": "22831002",
      "startMs": 1749556560000,
      "endMs": 1749567839916,
      "startLocation": {
        "latitude": 39.726275,
        "longitude": -104.907076
      },
      "endLocation": {
        "latitude": 39.821451,
        "longitude": -105.058619
      },
      "startAddress": "60249 Hicks Ferry Suite 244",
      "endAddress": "6011 Billy Path Apt. 538",
      "startCoords": {
        "latitude": 39.772395,
        "longitude": -105.055931
      },
      "endCoords": {
        "latitude": 39.694302,
        "longitude": -104.960168
      },
      "distanceMeters": 73984.6,
      "durationMs": 11279917,
      "drivingDurationMs": 11019400,
      "idlingDurationMs": 260516,
      "fuelConsumedMl": 9407,
      "fuelConsumedGallons": 2.485,
      "maxSpeedMph": 52.8,
      "averageSpeedMph": 14.7,
      "safetyEvents": [],
      "_no_driver_login": false,
      "_fuel_note": ""
    },
    {
      "id": "trip_48291003_20250610_004",
      "vehicleId": "48291003",
      "driverId": "22831002",
      "startMs": 1749554040000,
      "endMs": 1749558916231,
      "startLocation": {
        "latitude": 39.794207,
        "longitude": -104.955561
      },
      "endLocation": {
        "latitude": 39.691975,
        "longitude": -104.991324
      },
      "startAddress": "0089 Shepherd Burg Apt. 214",
      "endAddress": "5548 Carter Mountains",
      "startCoords": {
        "latitude": 39.735563,
        "longitude": -105.037583
      },
      "endCoords": {
        "latitude": 39.725024,
        "longitude": -105.015443
      },
      "distanceMeters": 32773.8,
      "durationMs": 4876232,
      "drivingDurationMs": 4356291,
      "idlingDurationMs": 519941,
      "fuelConsumedMl": 4168,
      "fuelConsumedGallons": 1.101,
      "maxSpeedMph": 53.1,
      "averageSpeedMph": 15.0,
      "safetyEvents": [],
      "_no_driver_login": false,
      "_fuel_note": ""
    },
    {
      "id": "trip_48291003_20250610_005",
      "vehicleId": "48291003",
      "driverId": "22831002",
      "startMs": 1749560460000,
      "endMs": 1749561348419,
      "startLocation": {
        "latitude": 39.702503,
        "longitude": -104.923074
      },
      "endLocation": {
        "latitude": 39.716272,
        "longitude": -104.999292
      },
      "startAddress": "7318 Stewart Shoal Apt. 798",
      "endAddress": "015 Mills Ports",
      "startCoords": {
        "latitude": 39.813896,
        "longitude": -105.075629
      },
      "endCoords": {
        "latitude": 39.734784,
        "longitude": -104.916159
      },
      "distanceMeters": 5969.5,
      "durationMs": 888419,
      "drivingDurationMs": 708630,
      "idlingDurationMs": 179789,
      "fuelConsumedMl": 761,
      "fuelConsumedGallons": 0.201,
      "maxSpeedMph": 58.4,
      "averageSpeedMph": 15.0,
      "safetyEvents": [],
      "_no_driver_login": false,
      "_fuel_note": ""
    },
    {
      "id": "trip_48291003_20250611_001",
      "vehicleId": "48291003",
      "driverId": "22831002",
      "startMs": 1749633540000,
      "endMs": 1749640514702,
      "startLocation": {
        "latitude": 39.825483,
        "longitude": -104.956839
      },
      "endLocation": {
        "latitude": 39.778672,
        "longitude": -105.03656
      },
      "startAddress": "6698 Shaffer Avenue",
      "endAddress": "500 Julia Alley Apt. 220",
      "startCoords": {
        "latitude": 39.710038,
        "longitude": -105.037044
      },
      "endCoords": {
        "latitude": 39.742306,
        "longitude": -105.051001
      },
      "distanceMeters": 32906.0,
      "durationMs": 6974703,
      "drivingDurationMs": 5635426,
      "idlingDurationMs": 1339276,
      "fuelConsumedMl": 4183,
      "fuelConsumedGallons": 1.105,
      "maxSpeedMph": 47.5,
      "averageSpeedMph": 10.6,
      "safetyEvents": [],
      "_no_driver_login": false,
      "_fuel_note": "QUIRK 5: fuelConsumedGallons is in US gallons. Multiply by 3.785 for litres. Samsara does not link fuel to specific Onfleet tasks."
    },
    {
      "id": "trip_48291003_20250611_002",
      "vehicleId": "48291003",
      "driverId": "22831002",
      "startMs": 1749667920000,
      "endMs": 1749672216973,
      "startLocation": {
        "latitude": 39.796833,
        "longitude": -104.903278
      },
      "endLocation": {
        "latitude": 39.684638,
        "longitude": -104.981626
      },
      "startAddress": "943 Simpson Spur",
      "endAddress": "98782 Eric Plains",
      "startCoords": {
        "latitude": 39.75263,
        "longitude": -104.991013
      },
      "endCoords": {
        "latitude": 39.730515,
        "longitude": -105.006028
      },
      "distanceMeters": 17743.7,
      "durationMs": 4296973,
      "drivingDurationMs": 3529435,
      "idlingDurationMs": 767538,
      "fuelConsumedMl": 2256,
      "fuelConsumedGallons": 0.596,
      "maxSpeedMph": 65.6,
      "averageSpeedMph": 9.2,
      "safetyEvents": [
        {
          "type": "speeding",
          "startMs": 1749670140000,
          "maxSpeedMph": 65.6
        }
      ],
      "_no_driver_login": false,
      "_fuel_note": ""
    },
    {
      "id": "trip_48291003_20250611_003",
      "vehicleId": "48291003",
      "driverId": "22831002",
      "startMs": 1749627060000,
      "endMs": 1749638222243,
      "startLocation": {
        "latitude": 39.716503,
        "longitude": -104.975031
      },
      "endLocation": {
        "latitude": 39.808175,
        "longitude": -105.026118
      },
      "startAddress": "86892 Jackson Highway",
      "endAddress": "604 Gilbert Viaduct Apt. 555",
      "startCoords": {
        "latitude": 39.764969,
        "longitude": -105.058661
      },
      "endCoords": {
        "latitude": 39.722059,
        "longitude": -104.982704
      },
      "distanceMeters": 78976.5,
      "durationMs": 11162244,
      "drivingDurationMs": 9981549,
      "idlingDurationMs": 1180694,
      "fuelConsumedMl": 10043,
      "fuelConsumedGallons": 2.653,
      "maxSpeedMph": 71.2,
      "averageSpeedMph": 15.8,
      "safetyEvents": [
        {
          "type": "speeding",
          "startMs": 1749633360000,
          "maxSpeedMph": 71.2
        }
      ],
      "_no_driver_login": false,
      "_fuel_note": ""
    },
    {
      "id": "trip_48291003_20250611_004",
      "vehicleId": "48291003",
      "driverId": "22831002",
      "startMs": 1749624420000,
      "endMs": 1749633113933,
      "startLocation": {
        "latitude": 39.709104,
        "longitude": -105.074689
      },
      "endLocation": {
        "latitude": 39.7335,
        "longitude": -104.998957
      },
      "startAddress": "740 Jennifer Park Apt. 998",
      "endAddress": "87510 Mendez Wall Apt. 851",
      "startCoords": {
        "latitude": 39.818174,
        "longitude": -104.920757
      },
      "endCoords": {
        "latitude": 39.697559,
        "longitude": -105.009646
      },
      "distanceMeters": 63285.6,
      "durationMs": 8693933,
      "drivingDurationMs": 7934251,
      "idlingDurationMs": 759682,
      "fuelConsumedMl": 8048,
      "fuelConsumedGallons": 2.126,
      "maxSpeedMph": 54.7,
      "averageSpeedMph": 16.3,
      "safetyEvents": [],
      "_no_driver_login": false,
      "_fuel_note": ""
    },
    {
      "id": "trip_48291003_20250611_005",
      "vehicleId": "48291003",
      "driverId": "22831002",
      "startMs": 1749665220000,
      "endMs": 1749675482775,
      "startLocation": {
        "latitude": 39.725157,
        "longitude": -105.020875
      },
      "endLocation": {
        "latitude": 39.824849,
        "longitude": -104.899653
      },
      "startAddress": "825 Rodriguez Orchard Suite 513",
      "endAddress": "93852 Moore Extension Suite 955",
      "startCoords": {
        "latitude": 39.749887,
        "longitude": -104.99866
      },
      "endCoords": {
        "latitude": 39.799621,
        "longitude": -104.975179
      },
      "distanceMeters": 83396.3,
      "durationMs": 10262775,
      "drivingDurationMs": 9767089,
      "idlingDurationMs": 495687,
      "fuelConsumedMl": 10603,
      "fuelConsumedGallons": 2.801,
      "maxSpeedMph": 69.4,
      "averageSpeedMph": 18.2,
      "safetyEvents": [
        {
          "type": "speeding",
          "startMs": 1749667740000,
          "maxSpeedMph": 69.4
        }
      ],
      "_no_driver_login": false,
      "_fuel_note": ""
    },
    {
      "id": "trip_48291003_20250612_001",
      "vehicleId": "48291003",
      "driverId": "22831002",
      "startMs": 1749721920000,
      "endMs": 1749725920319,
      "startLocation": {
        "latitude": 39.699225,
        "longitude": -104.950443
      },
      "endLocation": {
        "latitude": 39.707548,
        "longitude": -105.080001
      },
      "startAddress": "585 Hernandez Port Suite 694",
      "endAddress": "27143 Baird Well Apt. 455",
      "startCoords": {
        "latitude": 39.810282,
        "longitude": -104.94622
      },
      "endCoords": {
        "latitude": 39.766579,
        "longitude": -104.968772
      },
      "distanceMeters": 23572.5,
      "durationMs": 4000319,
      "drivingDurationMs": 3748087,
      "idlingDurationMs": 252232,
      "fuelConsumedMl": 2998,
      "fuelConsumedGallons": 0.792,
      "maxSpeedMph": 65.7,
      "averageSpeedMph": 13.2,
      "safetyEvents": [
        {
          "type": "speeding",
          "startMs": 1749724020000,
          "maxSpeedMph": 65.7
        }
      ],
      "_no_driver_login": false,
      "_fuel_note": "QUIRK 5: fuelConsumedGallons is in US gallons. Multiply by 3.785 for litres. Samsara does not link fuel to specific Onfleet tasks."
    },
    {
      "id": "trip_48291003_20250612_002",
      "vehicleId": "48291003",
      "driverId": "22831002",
      "startMs": 1749708000000,
      "endMs": 1749713145675,
      "startLocation": {
        "latitude": 39.812837,
        "longitude": -105.075566
      },
      "endLocation": {
        "latitude": 39.688075,
        "longitude": -104.90176
      },
      "startAddress": "829 John Canyon Suite 447",
      "endAddress": "11293 Baker Ports",
      "startCoords": {
        "latitude": 39.750158,
        "longitude": -104.942091
      },
      "endCoords": {
        "latitude": 39.728395,
        "longitude": -104.993214
      },
      "distanceMeters": 32758.5,
      "durationMs": 5145676,
      "drivingDurationMs": 4245462,
      "idlingDurationMs": 900214,
      "fuelConsumedMl": 4164,
      "fuelConsumedGallons": 1.1,
      "maxSpeedMph": 42.5,
      "averageSpeedMph": 14.2,
      "safetyEvents": [],
      "_no_driver_login": false,
      "_fuel_note": ""
    },
    {
      "id": "trip_48291003_20250612_003",
      "vehicleId": "48291003",
      "driverId": "22831002",
      "startMs": 1749734880000,
      "endMs": 1749740055587,
      "startLocation": {
        "latitude": 39.772009,
        "longitude": -105.072108
      },
      "endLocation": {
        "latitude": 39.77821,
        "longitude": -104.927228
      },
      "startAddress": "68118 Peter Harbors Apt. 728",
      "endAddress": "96032 Tucker Passage Suite 971",
      "startCoords": {
        "latitude": 39.704773,
        "longitude": -105.016034
      },
      "endCoords": {
        "latitude": 39.716718,
        "longitude": -104.904925
      },
      "distanceMeters": 34436.0,
      "durationMs": 5175588,
      "drivingDurationMs": 4906527,
      "idlingDurationMs": 269061,
      "fuelConsumedMl": 4380,
      "fuelConsumedGallons": 1.157,
      "maxSpeedMph": 38.1,
      "averageSpeedMph": 14.9,
      "safetyEvents": [],
      "_no_driver_login": false,
      "_fuel_note": ""
    },
    {
      "id": "trip_48291003_20250613_001",
      "vehicleId": "48291003",
      "driverId": "22831002",
      "startMs": 1749830280000,
      "endMs": 1749841006959,
      "startLocation": {
        "latitude": 39.787507,
        "longitude": -105.007016
      },
      "endLocation": {
        "latitude": 39.786957,
        "longitude": -105.066565
      },
      "startAddress": "63747 Allen Mall",
      "endAddress": "96983 Jose Pine Apt. 604",
      "startCoords": {
        "latitude": 39.792546,
        "longitude": -104.993709
      },
      "endCoords": {
        "latitude": 39.798924,
        "longitude": -104.919418
      },
      "distanceMeters": 58570.5,
      "durationMs": 10726959,
      "drivingDurationMs": 10028047,
      "idlingDurationMs": 698913,
      "fuelConsumedMl": 7446,
      "fuelConsumedGallons": 1.967,
      "maxSpeedMph": 35.1,
      "averageSpeedMph": 12.2,
      "safetyEvents": [],
      "_no_driver_login": false,
      "_fuel_note": "QUIRK 5: fuelConsumedGallons is in US gallons. Multiply by 3.785 for litres. Samsara does not link fuel to specific Onfleet tasks."
    },
    {
      "id": "trip_48291003_20250613_002",
      "vehicleId": "48291003",
      "driverId": "22831002",
      "startMs": 1749827700000,
      "endMs": 1749835409378,
      "startLocation": {
        "latitude": 39.804256,
        "longitude": -104.919354
      },
      "endLocation": {
        "latitude": 39.754525,
        "longitude": -104.941931
      },
      "startAddress": "9095 George Fort",
      "endAddress": "26979 Pamela Street Suite 232",
      "startCoords": {
        "latitude": 39.707684,
        "longitude": -104.969464
      },
      "endCoords": {
        "latitude": 39.770269,
        "longitude": -104.917586
      },
      "distanceMeters": 55512.7,
      "durationMs": 7709379,
      "drivingDurationMs": 6386667,
      "idlingDurationMs": 1322712,
      "fuelConsumedMl": 7060,
      "fuelConsumedGallons": 1.865,
      "maxSpeedMph": 68.0,
      "averageSpeedMph": 16.1,
      "safetyEvents": [
        {
          "type": "speeding",
          "startMs": 1749833640000,
          "maxSpeedMph": 68.0
        }
      ],
      "_no_driver_login": false,
      "_fuel_note": ""
    },
    {
      "id": "trip_48291003_20250613_003",
      "vehicleId": "48291003",
      "driverId": "22831002",
      "startMs": 1749832860000,
      "endMs": 1749842464926,
      "startLocation": {
        "latitude": 39.686667,
        "longitude": -104.918756
      },
      "endLocation": {
        "latitude": 39.75885,
        "longitude": -104.969185
      },
      "startAddress": "39267 Weber Crossroad",
      "endAddress": "59638 Barbara Landing",
      "startCoords": {
        "latitude": 39.802518,
        "longitude": -105.004612
      },
      "endCoords": {
        "latitude": 39.743134,
        "longitude": -105.065501
      },
      "distanceMeters": 54226.5,
      "durationMs": 9604927,
      "drivingDurationMs": 9101290,
      "idlingDurationMs": 503637,
      "fuelConsumedMl": 6893,
      "fuelConsumedGallons": 1.821,
      "maxSpeedMph": 34.8,
      "averageSpeedMph": 12.6,
      "safetyEvents": [],
      "_no_driver_login": false,
      "_fuel_note": ""
    },
    {
      "id": "trip_48291003_20250614_001",
      "vehicleId": "48291003",
      "driverId": "22831002",
      "startMs": 1749882420000,
      "endMs": 1749893628569,
      "startLocation": {
        "latitude": 39.751423,
        "longitude": -104.926458
      },
      "endLocation": {
        "latitude": 39.723387,
        "longitude": -104.903282
      },
      "startAddress": "85253 Davis Club",
      "endAddress": "8181 Gibson Via",
      "startCoords": {
        "latitude": 39.6931,
        "longitude": -104.995401
      },
      "endCoords": {
        "latitude": 39.717414,
        "longitude": -104.957708
      },
      "distanceMeters": 80948.8,
      "durationMs": 11208570,
      "drivingDurationMs": 10377348,
      "idlingDurationMs": 831221,
      "fuelConsumedMl": 10293,
      "fuelConsumedGallons": 2.719,
      "maxSpeedMph": 52.0,
      "averageSpeedMph": 16.2,
      "safetyEvents": [],
      "_no_driver_login": false,
      "_fuel_note": "QUIRK 5: fuelConsumedGallons is in US gallons. Multiply by 3.785 for litres. Samsara does not link fuel to specific Onfleet tasks."
    },
    {
      "id": "trip_48291003_20250614_002",
      "vehicleId": "48291003",
      "driverId": "22831002",
      "startMs": 1749906240000,
      "endMs": 1749912886125,
      "startLocation": {
        "latitude": 39.749176,
        "longitude": -105.046916
      },
      "endLocation": {
        "latitude": 39.809875,
        "longitude": -105.051484
      },
      "startAddress": "6802 Brandy Ramp Suite 505",
      "endAddress": "7098 Karen Crossing Apt. 765",
      "startCoords": {
        "latitude": 39.803063,
        "longitude": -104.954536
      },
      "endCoords": {
        "latitude": 39.688841,
        "longitude": -104.994768
      },
      "distanceMeters": 35782.7,
      "durationMs": 6646126,
      "drivingDurationMs": 5603430,
      "idlingDurationMs": 1042696,
      "fuelConsumedMl": 4550,
      "fuelConsumedGallons": 1.202,
      "maxSpeedMph": 60.6,
      "averageSpeedMph": 12.0,
      "safetyEvents": [],
      "_no_driver_login": false,
      "_fuel_note": ""
    },
    {
      "id": "trip_48291003_20250614_003",
      "vehicleId": "48291003",
      "driverId": "22831002",
      "startMs": 1749889260000,
      "endMs": 1749902531727,
      "startLocation": {
        "latitude": 39.758459,
        "longitude": -105.054643
      },
      "endLocation": {
        "latitude": 39.710314,
        "longitude": -105.017625
      },
      "startAddress": "289 Murphy Stravenue Suite 339",
      "endAddress": "732 Jeffrey Haven",
      "startCoords": {
        "latitude": 39.778037,
        "longitude": -105.038258
      },
      "endCoords": {
        "latitude": 39.790529,
        "longitude": -105.031531
      },
      "distanceMeters": 68984.0,
      "durationMs": 13271728,
      "drivingDurationMs": 12394156,
      "idlingDurationMs": 877571,
      "fuelConsumedMl": 8771,
      "fuelConsumedGallons": 2.317,
      "maxSpeedMph": 44.8,
      "averageSpeedMph": 11.6,
      "safetyEvents": [],
      "_no_driver_login": false,
      "_fuel_note": ""
    },
    {
      "id": "trip_48291003_20250614_004",
      "vehicleId": "48291003",
      "driverId": "22831002",
      "startMs": 1749913440000,
      "endMs": 1749924426959,
      "startLocation": {
        "latitude": 39.732658,
        "longitude": -104.996103
      },
      "endLocation": {
        "latitude": 39.729561,
        "longitude": -104.924748
      },
      "startAddress": "5810 Dominguez Ways Apt. 416",
      "endAddress": "90915 Sally Motorway",
      "startCoords": {
        "latitude": 39.70453,
        "longitude": -105.08532
      },
      "endCoords": {
        "latitude": 39.691249,
        "longitude": -105.038865
      },
      "distanceMeters": 54331.3,
      "durationMs": 10986960,
      "drivingDurationMs": 10067157,
      "idlingDurationMs": 919803,
      "fuelConsumedMl": 6908,
      "fuelConsumedGallons": 1.825,
      "maxSpeedMph": 34.1,
      "averageSpeedMph": 11.1,
      "safetyEvents": [],
      "_no_driver_login": false,
      "_fuel_note": ""
    },
    {
      "id": "trip_48291003_20250615_001",
      "vehicleId": "48291003",
      "driverId": "22831002",
      "startMs": 1749990180000,
      "endMs": 1749992336274,
      "startLocation": {
        "latitude": 39.805163,
        "longitude": -104.907386
      },
      "endLocation": {
        "latitude": 39.720004,
        "longitude": -104.924042
      },
      "startAddress": "73743 Jamie Fort",
      "endAddress": "96350 Rita Keys",
      "startCoords": {
        "latitude": 39.690809,
        "longitude": -104.94977
      },
      "endCoords": {
        "latitude": 39.796491,
        "longitude": -104.956666
      },
      "distanceMeters": 13142.5,
      "durationMs": 2156274,
      "drivingDurationMs": 1815961,
      "idlingDurationMs": 340313,
      "fuelConsumedMl": 1669,
      "fuelConsumedGallons": 0.441,
      "maxSpeedMph": 50.6,
      "averageSpeedMph": 13.6,
      "safetyEvents": [],
      "_no_driver_login": false,
      "_fuel_note": "QUIRK 5: fuelConsumedGallons is in US gallons. Multiply by 3.785 for litres. Samsara does not link fuel to specific Onfleet tasks."
    },
    {
      "id": "trip_48291003_20250616_001",
      "vehicleId": "48291003",
      "driverId": "22831002",
      "startMs": 1750088580000,
      "endMs": 1750091341516,
      "startLocation": {
        "latitude": 39.731673,
        "longitude": -104.936578
      },
      "endLocation": {
        "latitude": 39.812537,
        "longitude": -105.004458
      },
      "startAddress": "80213 Leslie Mountain Apt. 491",
      "endAddress": "640 Harris Cliff Apt. 386",
      "startCoords": {
        "latitude": 39.75241,
        "longitude": -104.941608
      },
      "endCoords": {
        "latitude": 39.804192,
        "longitude": -105.049153
      },
      "distanceMeters": 19445.9,
      "durationMs": 2761517,
      "drivingDurationMs": 2365064,
      "idlingDurationMs": 396452,
      "fuelConsumedMl": 2472,
      "fuelConsumedGallons": 0.653,
      "maxSpeedMph": 44.0,
      "averageSpeedMph": 15.8,
      "safetyEvents": [],
      "_no_driver_login": false,
      "_fuel_note": "QUIRK 5: fuelConsumedGallons is in US gallons. Multiply by 3.785 for litres. Samsara does not link fuel to specific Onfleet tasks."
    },
    {
      "id": "trip_48291003_20250616_002",
      "vehicleId": "48291003",
      "driverId": "22831002",
      "startMs": 1750062180000,
      "endMs": 1750079874548,
      "startLocation": {
        "latitude": 39.70218,
        "longitude": -104.946467
      },
      "endLocation": {
        "latitude": 39.772916,
        "longitude": -104.965976
      },
      "startAddress": "039 Johnson Ridge Apt. 422",
      "endAddress": "22514 Jesus Fields",
      "startCoords": {
        "latitude": 39.796414,
        "longitude": -104.94458
      },
      "endCoords": {
        "latitude": 39.763766,
        "longitude": -105.029625
      },
      "distanceMeters": 76656.0,
      "durationMs": 17694548,
      "drivingDurationMs": 14702579,
      "idlingDurationMs": 2991969,
      "fuelConsumedMl": 9747,
      "fuelConsumedGallons": 2.575,
      "maxSpeedMph": 54.3,
      "averageSpeedMph": 9.7,
      "safetyEvents": [],
      "_no_driver_login": false,
      "_fuel_note": ""
    },
    {
      "id": "trip_48291003_20250616_003",
      "vehicleId": "48291003",
      "driverId": "22831002",
      "startMs": 1750098840000,
      "endMs": 1750107600000,
      "startLocation": {
        "latitude": 39.689502,
        "longitude": -104.922544
      },
      "endLocation": {
        "latitude": 39.770754,
        "longitude": -104.996462
      },
      "startAddress": "430 Thompson Cape Suite 056",
      "endAddress": "26207 Paula Squares",
      "startCoords": {
        "latitude": 39.805178,
        "longitude": -105.02812
      },
      "endCoords": {
        "latitude": 39.76746,
        "longitude": -104.95109
      },
      "distanceMeters": 57446.7,
      "durationMs": 8760000,
      "drivingDurationMs": 7658583,
      "idlingDurationMs": 1101417,
      "fuelConsumedMl": 7302,
      "fuelConsumedGallons": 1.929,
      "maxSpeedMph": 62.5,
      "averageSpeedMph": 14.7,
      "safetyEvents": [],
      "_no_driver_login": false,
      "_fuel_note": ""
    },
    {
      "id": "trip_48291003_20250617_001",
      "vehicleId": "48291003",
      "driverId": "22831002",
      "startMs": 1750155480000,
      "endMs": 1750171836193,
      "startLocation": {
        "latitude": 39.692344,
        "longitude": -104.94635
      },
      "endLocation": {
        "latitude": 39.702457,
        "longitude": -105.00983
      },
      "startAddress": "568 Brown Club Apt. 275",
      "endAddress": "6805 Wagner Ville",
      "startCoords": {
        "latitude": 39.685049,
        "longitude": -104.929033
      },
      "endCoords": {
        "latitude": 39.818232,
        "longitude": -104.968348
      },
      "distanceMeters": 79544.7,
      "durationMs": 16356193,
      "drivingDurationMs": 15027864,
      "idlingDurationMs": 1328329,
      "fuelConsumedMl": 10115,
      "fuelConsumedGallons": 2.672,
      "maxSpeedMph": 57.7,
      "averageSpeedMph": 10.9,
      "safetyEvents": [],
      "_no_driver_login": false,
      "_fuel_note": "QUIRK 5: fuelConsumedGallons is in US gallons. Multiply by 3.785 for litres. Samsara does not link fuel to specific Onfleet tasks."
    },
    {
      "id": "trip_48291003_20250617_002",
      "vehicleId": "48291003",
      "driverId": "22831002",
      "startMs": 1750165140000,
      "endMs": 1750180572351,
      "startLocation": {
        "latitude": 39.799214,
        "longitude": -105.023602
      },
      "endLocation": {
        "latitude": 39.691128,
        "longitude": -104.932822
      },
      "startAddress": "0645 Whitaker Gateway Suite 827",
      "endAddress": "5341 Jorge Cove Apt. 932",
      "startCoords": {
        "latitude": 39.740862,
        "longitude": -104.996085
      },
      "endCoords": {
        "latitude": 39.785776,
        "longitude": -105.018414
      },
      "distanceMeters": 77925.4,
      "durationMs": 15432351,
      "drivingDurationMs": 13277712,
      "idlingDurationMs": 2154639,
      "fuelConsumedMl": 9906,
      "fuelConsumedGallons": 2.617,
      "maxSpeedMph": 47.0,
      "averageSpeedMph": 11.3,
      "safetyEvents": [],
      "_no_driver_login": false,
      "_fuel_note": ""
    },
    {
      "id": "trip_48291003_20250617_003",
      "vehicleId": "48291003",
      "driverId": "22831002",
      "startMs": 1750144320000,
      "endMs": 1750156792283,
      "startLocation": {
        "latitude": 39.722952,
        "longitude": -105.007328
      },
      "endLocation": {
        "latitude": 39.750519,
        "longitude": -104.999587
      },
      "startAddress": "067 Davis Spurs",
      "endAddress": "280 Bond Way",
      "startCoords": {
        "latitude": 39.777054,
        "longitude": -105.043314
      },
      "endCoords": {
        "latitude": 39.719554,
        "longitude": -104.936035
      },
      "distanceMeters": 82559.1,
      "durationMs": 12472283,
      "drivingDurationMs": 10251435,
      "idlingDurationMs": 2220848,
      "fuelConsumedMl": 10497,
      "fuelConsumedGallons": 2.773,
      "maxSpeedMph": 65.4,
      "averageSpeedMph": 14.8,
      "safetyEvents": [
        {
          "type": "speeding",
          "startMs": 1750151100000,
          "maxSpeedMph": 65.4
        }
      ],
      "_no_driver_login": false,
      "_fuel_note": ""
    },
    {
      "id": "trip_48291003_20250617_004",
      "vehicleId": "48291003",
      "driverId": "22831002",
      "startMs": 1750166400000,
      "endMs": 1750179198109,
      "startLocation": {
        "latitude": 39.812557,
        "longitude": -104.974334
      },
      "endLocation": {
        "latitude": 39.731406,
        "longitude": -104.930694
      },
      "startAddress": "7200 John Lodge",
      "endAddress": "199 Alyssa Center",
      "startCoords": {
        "latitude": 39.808535,
        "longitude": -105.008305
      },
      "endCoords": {
        "latitude": 39.808305,
        "longitude": -104.955169
      },
      "distanceMeters": 78085.3,
      "durationMs": 12798110,
      "drivingDurationMs": 12558391,
      "idlingDurationMs": 239719,
      "fuelConsumedMl": 9929,
      "fuelConsumedGallons": 2.623,
      "maxSpeedMph": 43.0,
      "averageSpeedMph": 13.6,
      "safetyEvents": [],
      "_no_driver_login": false,
      "_fuel_note": ""
    },
    {
      "id": "trip_48291003_20250618_001",
      "vehicleId": "48291003",
      "driverId": "22831002",
      "startMs": 1750252080000,
      "endMs": 1750254926869,
      "startLocation": {
        "latitude": 39.759301,
        "longitude": -105.014206
      },
      "endLocation": {
        "latitude": 39.824348,
        "longitude": -104.999505
      },
      "startAddress": "375 Clark Mission",
      "endAddress": "7938 Stark Creek",
      "startCoords": {
        "latitude": 39.693409,
        "longitude": -104.900265
      },
      "endCoords": {
        "latitude": 39.768094,
        "longitude": -105.041472
      },
      "distanceMeters": 22606.0,
      "durationMs": 2846869,
      "drivingDurationMs": 2620448,
      "idlingDurationMs": 226421,
      "fuelConsumedMl": 2873,
      "fuelConsumedGallons": 0.759,
      "maxSpeedMph": 61.2,
      "averageSpeedMph": 17.8,
      "safetyEvents": [],
      "_no_driver_login": false,
      "_fuel_note": "QUIRK 5: fuelConsumedGallons is in US gallons. Multiply by 3.785 for litres. Samsara does not link fuel to specific Onfleet tasks."
    },
    {
      "id": "trip_48291003_20250618_002",
      "vehicleId": "48291003",
      "driverId": "22831002",
      "startMs": 1750248420000,
      "endMs": 1750253067776,
      "startLocation": {
        "latitude": 39.785615,
        "longitude": -104.952188
      },
      "endLocation": {
        "latitude": 39.822949,
        "longitude": -105.056359
      },
      "startAddress": "04423 Jay Harbor",
      "endAddress": "8967 Aaron Run Suite 543",
      "startCoords": {
        "latitude": 39.751896,
        "longitude": -104.996528
      },
      "endCoords": {
        "latitude": 39.801165,
        "longitude": -104.983692
      },
      "distanceMeters": 24836.0,
      "durationMs": 4647776,
      "drivingDurationMs": 3846098,
      "idlingDurationMs": 801678,
      "fuelConsumedMl": 3157,
      "fuelConsumedGallons": 0.834,
      "maxSpeedMph": 44.6,
      "averageSpeedMph": 12.0,
      "safetyEvents": [],
      "_no_driver_login": false,
      "_fuel_note": ""
    },
    {
      "id": "trip_48291003_20250618_003",
      "vehicleId": "48291003",
      "driverId": "22831002",
      "startMs": 1750240020000,
      "endMs": 1750245634916,
      "startLocation": {
        "latitude": 39.689954,
        "longitude": -104.958599
      },
      "endLocation": {
        "latitude": 39.710266,
        "longitude": -105.038974
      },
      "startAddress": "778 Cox Parkway",
      "endAddress": "271 Amber Green",
      "startCoords": {
        "latitude": 39.753621,
        "longitude": -105.070606
      },
      "endCoords": {
        "latitude": 39.768336,
        "longitude": -104.9161
      },
      "distanceMeters": 37180.0,
      "durationMs": 5614916,
      "drivingDurationMs": 4724668,
      "idlingDurationMs": 890248,
      "fuelConsumedMl": 4728,
      "fuelConsumedGallons": 1.249,
      "maxSpeedMph": 63.9,
      "averageSpeedMph": 14.8,
      "safetyEvents": [],
      "_no_driver_login": false,
      "_fuel_note": ""
    },
    {
      "id": "trip_48291003_20250618_004",
      "vehicleId": "48291003",
      "driverId": null,
      "startMs": 1750260060000,
      "endMs": 1750264856257,
      "startLocation": {
        "latitude": 39.730778,
        "longitude": -104.924965
      },
      "endLocation": {
        "latitude": 39.709946,
        "longitude": -104.917399
      },
      "startAddress": "7904 Kevin Lodge",
      "endAddress": "45244 Green Crescent Apt. 467",
      "startCoords": {
        "latitude": 39.769859,
        "longitude": -105.085312
      },
      "endCoords": {
        "latitude": 39.748316,
        "longitude": -105.040471
      },
      "distanceMeters": 37112.3,
      "durationMs": 4796258,
      "drivingDurationMs": 4288676,
      "idlingDurationMs": 507582,
      "fuelConsumedMl": 4720,
      "fuelConsumedGallons": 1.247,
      "maxSpeedMph": 63.1,
      "averageSpeedMph": 17.3,
      "safetyEvents": [],
      "_no_driver_login": true,
      "_fuel_note": ""
    },
    {
      "id": "trip_48291003_20250619_001",
      "vehicleId": "48291003",
      "driverId": "22831002",
      "startMs": 1750343940000,
      "endMs": 1750357541707,
      "startLocation": {
        "latitude": 39.736715,
        "longitude": -105.073268
      },
      "endLocation": {
        "latitude": 39.777629,
        "longitude": -105.067938
      },
      "startAddress": "524 Anna Station",
      "endAddress": "90939 Paul Underpass",
      "startCoords": {
        "latitude": 39.728947,
        "longitude": -105.001495
      },
      "endCoords": {
        "latitude": 39.686686,
        "longitude": -105.035487
      },
      "distanceMeters": 81727.4,
      "durationMs": 13601707,
      "drivingDurationMs": 12224052,
      "idlingDurationMs": 1377655,
      "fuelConsumedMl": 10391,
      "fuelConsumedGallons": 2.745,
      "maxSpeedMph": 60.6,
      "averageSpeedMph": 13.4,
      "safetyEvents": [],
      "_no_driver_login": false,
      "_fuel_note": "QUIRK 5: fuelConsumedGallons is in US gallons. Multiply by 3.785 for litres. Samsara does not link fuel to specific Onfleet tasks."
    },
    {
      "id": "trip_48291003_20250619_002",
      "vehicleId": "48291003",
      "driverId": "22831002",
      "startMs": 1750330560000,
      "endMs": 1750339738707,
      "startLocation": {
        "latitude": 39.719346,
        "longitude": -104.975787
      },
      "endLocation": {
        "latitude": 39.819652,
        "longitude": -105.057709
      },
      "startAddress": "9717 Willis Plain",
      "endAddress": "658 Collins Stream",
      "startCoords": {
        "latitude": 39.692882,
        "longitude": -105.050691
      },
      "endCoords": {
        "latitude": 39.805729,
        "longitude": -104.98729
      },
      "distanceMeters": 40224.9,
      "durationMs": 9178708,
      "drivingDurationMs": 7800690,
      "idlingDurationMs": 1378018,
      "fuelConsumedMl": 5114,
      "fuelConsumedGallons": 1.351,
      "maxSpeedMph": 32.5,
      "averageSpeedMph": 9.8,
      "safetyEvents": [],
      "_no_driver_login": false,
      "_fuel_note": ""
    },
    {
      "id": "trip_48291003_20250619_003",
      "vehicleId": "48291003",
      "driverId": "22831002",
      "startMs": 1750350000000,
      "endMs": 1750359254579,
      "startLocation": {
        "latitude": 39.821516,
        "longitude": -105.037376
      },
      "endLocation": {
        "latitude": 39.757796,
        "longitude": -104.984595
      },
      "startAddress": "8817 Megan Squares Suite 953",
      "endAddress": "89192 Bowen Green",
      "startCoords": {
        "latitude": 39.767992,
        "longitude": -105.037107
      },
      "endCoords": {
        "latitude": 39.777596,
        "longitude": -104.974623
      },
      "distanceMeters": 45899.6,
      "durationMs": 9254580,
      "drivingDurationMs": 7622906,
      "idlingDurationMs": 1631674,
      "fuelConsumedMl": 5837,
      "fuelConsumedGallons": 1.542,
      "maxSpeedMph": 44.1,
      "averageSpeedMph": 11.1,
      "safetyEvents": [],
      "_no_driver_login": false,
      "_fuel_note": ""
    },
    {
      "id": "trip_48291003_20250619_004",
      "vehicleId": "48291003",
      "driverId": "22831002",
      "startMs": 1750314720000,
      "endMs": 1750319389533,
      "startLocation": {
        "latitude": 39.775616,
        "longitude": -105.001006
      },
      "endLocation": {
        "latitude": 39.806425,
        "longitude": -104.913658
      },
      "startAddress": "298 Martinez Spring",
      "endAddress": "1420 Young Landing",
      "startCoords": {
        "latitude": 39.738393,
        "longitude": -104.989963
      },
      "endCoords": {
        "latitude": 39.699911,
        "longitude": -104.979946
      },
      "distanceMeters": 20363.7,
      "durationMs": 4669533,
      "drivingDurationMs": 3801309,
      "idlingDurationMs": 868225,
      "fuelConsumedMl": 2589,
      "fuelConsumedGallons": 0.684,
      "maxSpeedMph": 62.4,
      "averageSpeedMph": 9.8,
      "safetyEvents": [],
      "_no_driver_login": false,
      "_fuel_note": ""
    },
    {
      "id": "trip_48291003_20250619_005",
      "vehicleId": "48291003",
      "driverId": "22831002",
      "startMs": 1750332180000,
      "endMs": 1750336425789,
      "startLocation": {
        "latitude": 39.802253,
        "longitude": -104.935923
      },
      "endLocation": {
        "latitude": 39.692236,
        "longitude": -105.055109
      },
      "startAddress": "091 Glenn Hill Suite 590",
      "endAddress": "453 Brown Run Apt. 536",
      "startCoords": {
        "latitude": 39.823818,
        "longitude": -104.930223
      },
      "endCoords": {
        "latitude": 39.824332,
        "longitude": -104.940827
      },
      "distanceMeters": 26021.2,
      "durationMs": 4245789,
      "drivingDurationMs": 3507957,
      "idlingDurationMs": 737832,
      "fuelConsumedMl": 3308,
      "fuelConsumedGallons": 0.874,
      "maxSpeedMph": 42.8,
      "averageSpeedMph": 13.7,
      "safetyEvents": [],
      "_no_driver_login": false,
      "_fuel_note": ""
    },
    {
      "id": "trip_48291003_20250620_001",
      "vehicleId": "48291003",
      "driverId": "22831002",
      "startMs": 1750420320000,
      "endMs": 1750426383622,
      "startLocation": {
        "latitude": 39.799136,
        "longitude": -105.056546
      },
      "endLocation": {
        "latitude": 39.762323,
        "longitude": -105.03169
      },
      "startAddress": "1053 Erin Street Suite 708",
      "endAddress": "511 Richard Walk",
      "startCoords": {
        "latitude": 39.780898,
        "longitude": -105.053903
      },
      "endCoords": {
        "latitude": 39.810109,
        "longitude": -104.91343
      },
      "distanceMeters": 37748.3,
      "durationMs": 6063622,
      "drivingDurationMs": 5249860,
      "idlingDurationMs": 813762,
      "fuelConsumedMl": 4800,
      "fuelConsumedGallons": 1.268,
      "maxSpeedMph": 62.4,
      "averageSpeedMph": 13.9,
      "safetyEvents": [],
      "_no_driver_login": false,
      "_fuel_note": "QUIRK 5: fuelConsumedGallons is in US gallons. Multiply by 3.785 for litres. Samsara does not link fuel to specific Onfleet tasks."
    },
    {
      "id": "trip_48291003_20250620_002",
      "vehicleId": "48291003",
      "driverId": "22831002",
      "startMs": 1750444800000,
      "endMs": 1750453200000,
      "startLocation": {
        "latitude": 39.79072,
        "longitude": -104.951113
      },
      "endLocation": {
        "latitude": 39.752933,
        "longitude": -105.062997
      },
      "startAddress": "410 Taylor Dale",
      "endAddress": "62537 Nguyen Vista Suite 292",
      "startCoords": {
        "latitude": 39.80935,
        "longitude": -105.067385
      },
      "endCoords": {
        "latitude": 39.808211,
        "longitude": -104.993749
      },
      "distanceMeters": 45796.8,
      "durationMs": 8400000,
      "drivingDurationMs": 6918303,
      "idlingDurationMs": 1481697,
      "fuelConsumedMl": 5822,
      "fuelConsumedGallons": 1.538,
      "maxSpeedMph": 31.5,
      "averageSpeedMph": 12.2,
      "safetyEvents": [],
      "_no_driver_login": false,
      "_fuel_note": ""
    },
    {
      "id": "trip_48291003_20250620_003",
      "vehicleId": "48291003",
      "driverId": "22831002",
      "startMs": 1750413720000,
      "endMs": 1750422471313,
      "startLocation": {
        "latitude": 39.741341,
        "longitude": -105.045639
      },
      "endLocation": {
        "latitude": 39.793705,
        "longitude": -104.936234
      },
      "startAddress": "859 Moore Estate Apt. 142",
      "endAddress": "405 Rice Crossroad",
      "startCoords": {
        "latitude": 39.746418,
        "longitude": -105.031804
      },
      "endCoords": {
        "latitude": 39.804955,
        "longitude": -105.023102
      },
      "distanceMeters": 39978.8,
      "durationMs": 8751313,
      "drivingDurationMs": 7040954,
      "idlingDurationMs": 1710359,
      "fuelConsumedMl": 5084,
      "fuelConsumedGallons": 1.343,
      "maxSpeedMph": 36.0,
      "averageSpeedMph": 10.2,
      "safetyEvents": [],
      "_no_driver_login": false,
      "_fuel_note": ""
    },
    {
      "id": "trip_48291003_20250620_004",
      "vehicleId": "48291003",
      "driverId": "22831002",
      "startMs": 1750412700000,
      "endMs": 1750421993829,
      "startLocation": {
        "latitude": 39.816577,
        "longitude": -104.932823
      },
      "endLocation": {
        "latitude": 39.734159,
        "longitude": -105.029886
      },
      "startAddress": "91385 Phillips Hollow Suite 082",
      "endAddress": "01388 Michelle Islands Apt. 518",
      "startCoords": {
        "latitude": 39.731939,
        "longitude": -104.939491
      },
      "endCoords": {
        "latitude": 39.730871,
        "longitude": -104.960079
      },
      "distanceMeters": 59222.4,
      "durationMs": 9293830,
      "drivingDurationMs": 7762933,
      "idlingDurationMs": 1530897,
      "fuelConsumedMl": 7529,
      "fuelConsumedGallons": 1.989,
      "maxSpeedMph": 31.8,
      "averageSpeedMph": 14.3,
      "safetyEvents": [],
      "_no_driver_login": false,
      "_fuel_note": ""
    },
    {
      "id": "trip_48291003_20250621_001",
      "vehicleId": "48291003",
      "driverId": "22831002",
      "startMs": 1750516680000,
      "endMs": 1750522348008,
      "startLocation": {
        "latitude": 39.691464,
        "longitude": -104.99882
      },
      "endLocation": {
        "latitude": 39.764531,
        "longitude": -104.982654
      },
      "startAddress": "327 Chad Green",
      "endAddress": "279 Maria Route Apt. 192",
      "startCoords": {
        "latitude": 39.712458,
        "longitude": -105.061798
      },
      "endCoords": {
        "latitude": 39.694726,
        "longitude": -104.986246
      },
      "distanceMeters": 35835.7,
      "durationMs": 5668008,
      "drivingDurationMs": 4726180,
      "idlingDurationMs": 941828,
      "fuelConsumedMl": 4558,
      "fuelConsumedGallons": 1.204,
      "maxSpeedMph": 61.2,
      "averageSpeedMph": 14.1,
      "safetyEvents": [],
      "_no_driver_login": false,
      "_fuel_note": "QUIRK 5: fuelConsumedGallons is in US gallons. Multiply by 3.785 for litres. Samsara does not link fuel to specific Onfleet tasks."
    },
    {
      "id": "trip_48291003_20250621_002",
      "vehicleId": "48291003",
      "driverId": "22831002",
      "startMs": 1750510140000,
      "endMs": 1750511846531,
      "startLocation": {
        "latitude": 39.742579,
        "longitude": -105.019429
      },
      "endLocation": {
        "latitude": 39.810825,
        "longitude": -104.996722
      },
      "startAddress": "789 Vargas Terrace Apt. 766",
      "endAddress": "26449 Wright Roads Apt. 512",
      "startCoords": {
        "latitude": 39.708159,
        "longitude": -104.996126
      },
      "endCoords": {
        "latitude": 39.799385,
        "longitude": -104.91598
      },
      "distanceMeters": 8619.0,
      "durationMs": 1706532,
      "drivingDurationMs": 1396482,
      "idlingDurationMs": 310050,
      "fuelConsumedMl": 1094,
      "fuelConsumedGallons": 0.289,
      "maxSpeedMph": 33.2,
      "averageSpeedMph": 11.3,
      "safetyEvents": [],
      "_no_driver_login": false,
      "_fuel_note": ""
    },
    {
      "id": "trip_48291003_20250621_003",
      "vehicleId": "48291003",
      "driverId": "22831002",
      "startMs": 1750499580000,
      "endMs": 1750508270282,
      "startLocation": {
        "latitude": 39.81809,
        "longitude": -104.918678
      },
      "endLocation": {
        "latitude": 39.736282,
        "longitude": -105.056836
      },
      "startAddress": "15517 Barbara Falls",
      "endAddress": "8209 Jennifer Square",
      "startCoords": {
        "latitude": 39.76711,
        "longitude": -104.911333
      },
      "endCoords": {
        "latitude": 39.769492,
        "longitude": -105.05007
      },
      "distanceMeters": 67442.8,
      "durationMs": 8690282,
      "drivingDurationMs": 7917539,
      "idlingDurationMs": 772744,
      "fuelConsumedMl": 8574,
      "fuelConsumedGallons": 2.265,
      "maxSpeedMph": 50.0,
      "averageSpeedMph": 17.4,
      "safetyEvents": [],
      "_no_driver_login": false,
      "_fuel_note": ""
    },
    {
      "id": "trip_48291003_20250622_001",
      "vehicleId": "48291003",
      "driverId": "22831002",
      "startMs": 1750581420000,
      "endMs": 1750586016519,
      "startLocation": {
        "latitude": 39.737873,
        "longitude": -104.935273
      },
      "endLocation": {
        "latitude": 39.824884,
        "longitude": -104.929015
      },
      "startAddress": "198 William Turnpike",
      "endAddress": "9090 Troy Views Suite 623",
      "startCoords": {
        "latitude": 39.685362,
        "longitude": -104.94252
      },
      "endCoords": {
        "latitude": 39.717226,
        "longitude": -104.91287
      },
      "distanceMeters": 31941.4,
      "durationMs": 4596520,
      "drivingDurationMs": 3966407,
      "idlingDurationMs": 630113,
      "fuelConsumedMl": 4062,
      "fuelConsumedGallons": 1.073,
      "maxSpeedMph": 67.5,
      "averageSpeedMph": 15.5,
      "safetyEvents": [
        {
          "type": "speeding",
          "startMs": 1750585080000,
          "maxSpeedMph": 67.5
        }
      ],
      "_no_driver_login": false,
      "_fuel_note": "QUIRK 5: fuelConsumedGallons is in US gallons. Multiply by 3.785 for litres. Samsara does not link fuel to specific Onfleet tasks."
    },
    {
      "id": "trip_48291003_20250622_002",
      "vehicleId": "48291003",
      "driverId": "22831002",
      "startMs": 1750573320000,
      "endMs": 1750577573325,
      "startLocation": {
        "latitude": 39.748631,
        "longitude": -104.928265
      },
      "endLocation": {
        "latitude": 39.754465,
        "longitude": -105.052216
      },
      "startAddress": "261 Simmons Hill Apt. 537",
      "endAddress": "511 John Dale Apt. 376",
      "startCoords": {
        "latitude": 39.78956,
        "longitude": -104.903959
      },
      "endCoords": {
        "latitude": 39.722916,
        "longitude": -104.990128
      },
      "distanceMeters": 23125.8,
      "durationMs": 4253326,
      "drivingDurationMs": 3520907,
      "idlingDurationMs": 732419,
      "fuelConsumedMl": 2941,
      "fuelConsumedGallons": 0.777,
      "maxSpeedMph": 34.8,
      "averageSpeedMph": 12.2,
      "safetyEvents": [],
      "_no_driver_login": false,
      "_fuel_note": ""
    },
    {
      "id": "trip_48291003_20250622_003",
      "vehicleId": "48291003",
      "driverId": "22831002",
      "startMs": 1750572780000,
      "endMs": 1750582305122,
      "startLocation": {
        "latitude": 39.736287,
        "longitude": -105.009459
      },
      "endLocation": {
        "latitude": 39.777021,
        "longitude": -104.952379
      },
      "startAddress": "951 Huang Street",
      "endAddress": "62289 Brown Pines",
      "startCoords": {
        "latitude": 39.804785,
        "longitude": -105.006433
      },
      "endCoords": {
        "latitude": 39.807754,
        "longitude": -104.909287
      },
      "distanceMeters": 63120.0,
      "durationMs": 9525122,
      "drivingDurationMs": 8278127,
      "idlingDurationMs": 1246995,
      "fuelConsumedMl": 8025,
      "fuelConsumedGallons": 2.12,
      "maxSpeedMph": 29.9,
      "averageSpeedMph": 14.8,
      "safetyEvents": [],
      "_no_driver_login": false,
      "_fuel_note": ""
    },
    {
      "id": "trip_48291003_20250623_001",
      "vehicleId": "48291003",
      "driverId": "22831002",
      "startMs": 1750668960000,
      "endMs": 1750673652086,
      "startLocation": {
        "latitude": 39.813206,
        "longitude": -104.979941
      },
      "endLocation": {
        "latitude": 39.731598,
        "longitude": -105.009553
      },
      "startAddress": "847 Cheryl Harbor",
      "endAddress": "36204 Berger Streets",
      "startCoords": {
        "latitude": 39.815203,
        "longitude": -105.051894
      },
      "endCoords": {
        "latitude": 39.744861,
        "longitude": -104.962349
      },
      "distanceMeters": 24403.5,
      "durationMs": 4692087,
      "drivingDurationMs": 4046276,
      "idlingDurationMs": 645810,
      "fuelConsumedMl": 3104,
      "fuelConsumedGallons": 0.82,
      "maxSpeedMph": 38.2,
      "averageSpeedMph": 11.6,
      "safetyEvents": [],
      "_no_driver_login": false,
      "_fuel_note": "QUIRK 5: fuelConsumedGallons is in US gallons. Multiply by 3.785 for litres. Samsara does not link fuel to specific Onfleet tasks."
    },
    {
      "id": "trip_48291003_20250623_002",
      "vehicleId": "48291003",
      "driverId": "22831002",
      "startMs": 1750703280000,
      "endMs": 1750709030364,
      "startLocation": {
        "latitude": 39.822846,
        "longitude": -104.994856
      },
      "endLocation": {
        "latitude": 39.73505,
        "longitude": -105.084907
      },
      "startAddress": "25510 Patel Parkway",
      "endAddress": "00309 Miranda Ferry",
      "startCoords": {
        "latitude": 39.794897,
        "longitude": -104.993884
      },
      "endCoords": {
        "latitude": 39.75561,
        "longitude": -105.068462
      },
      "distanceMeters": 37881.5,
      "durationMs": 5750364,
      "drivingDurationMs": 4856199,
      "idlingDurationMs": 894166,
      "fuelConsumedMl": 4815,
      "fuelConsumedGallons": 1.272,
      "maxSpeedMph": 38.2,
      "averageSpeedMph": 14.7,
      "safetyEvents": [],
      "_no_driver_login": false,
      "_fuel_note": ""
    },
    {
      "id": "trip_48291003_20250623_003",
      "vehicleId": "48291003",
      "driverId": "22831002",
      "startMs": 1750665900000,
      "endMs": 1750671027872,
      "startLocation": {
        "latitude": 39.685361,
        "longitude": -105.077275
      },
      "endLocation": {
        "latitude": 39.706315,
        "longitude": -104.951579
      },
      "startAddress": "95196 Jennifer Overpass Suite 150",
      "endAddress": "9088 Cook Lakes",
      "startCoords": {
        "latitude": 39.714813,
        "longitude": -104.948731
      },
      "endCoords": {
        "latitude": 39.760299,
        "longitude": -104.923119
      },
      "distanceMeters": 34086.1,
      "durationMs": 5127873,
      "drivingDurationMs": 4705640,
      "idlingDurationMs": 422233,
      "fuelConsumedMl": 4334,
      "fuelConsumedGallons": 1.145,
      "maxSpeedMph": 71.3,
      "averageSpeedMph": 14.9,
      "safetyEvents": [
        {
          "type": "speeding",
          "startMs": 1750668000000,
          "maxSpeedMph": 71.3
        }
      ],
      "_no_driver_login": false,
      "_fuel_note": ""
    },
    {
      "id": "trip_48291003_20250623_004",
      "vehicleId": "48291003",
      "driverId": "22831002",
      "startMs": 1750687440000,
      "endMs": 1750700314104,
      "startLocation": {
        "latitude": 39.692903,
        "longitude": -105.033561
      },
      "endLocation": {
        "latitude": 39.76544,
        "longitude": -105.069864
      },
      "startAddress": "734 Hannah Glens",
      "endAddress": "60799 Cox Highway",
      "startCoords": {
        "latitude": 39.821738,
        "longitude": -105.037997
      },
      "endCoords": {
        "latitude": 39.74147,
        "longitude": -104.942029
      },
      "distanceMeters": 80652.4,
      "durationMs": 12874105,
      "drivingDurationMs": 11124633,
      "idlingDurationMs": 1749472,
      "fuelConsumedMl": 10255,
      "fuelConsumedGallons": 2.709,
      "maxSpeedMph": 32.0,
      "averageSpeedMph": 14.0,
      "safetyEvents": [],
      "_no_driver_login": false,
      "_fuel_note": ""
    },
    {
      "id": "trip_48291003_20250623_005",
      "vehicleId": "48291003",
      "driverId": "22831002",
      "startMs": 1750693200000,
      "endMs": 1750707501886,
      "startLocation": {
        "latitude": 39.753406,
        "longitude": -104.96676
      },
      "endLocation": {
        "latitude": 39.716511,
        "longitude": -104.945846
      },
      "startAddress": "70684 Medina Passage",
      "endAddress": "72989 Weaver Manors Suite 381",
      "startCoords": {
        "latitude": 39.813272,
        "longitude": -104.926292
      },
      "endCoords": {
        "latitude": 39.777503,
        "longitude": -104.995211
      },
      "distanceMeters": 72310.4,
      "durationMs": 14301887,
      "drivingDurationMs": 12611013,
      "idlingDurationMs": 1690874,
      "fuelConsumedMl": 9195,
      "fuelConsumedGallons": 2.429,
      "maxSpeedMph": 53.5,
      "averageSpeedMph": 11.3,
      "safetyEvents": [],
      "_no_driver_login": false,
      "_fuel_note": ""
    },
    {
      "id": "trip_48291003_20250623_006",
      "vehicleId": "48291003",
      "driverId": "22831002",
      "startMs": 1750659300000,
      "endMs": 1750673044436,
      "startLocation": {
        "latitude": 39.774415,
        "longitude": -104.908416
      },
      "endLocation": {
        "latitude": 39.797914,
        "longitude": -105.038316
      },
      "startAddress": "9781 Jody Drive Apt. 969",
      "endAddress": "8769 Hansen Heights Apt. 869",
      "startCoords": {
        "latitude": 39.780074,
        "longitude": -104.99249
      },
      "endCoords": {
        "latitude": 39.796605,
        "longitude": -104.923193
      },
      "distanceMeters": 77758.5,
      "durationMs": 13744436,
      "drivingDurationMs": 12009697,
      "idlingDurationMs": 1734740,
      "fuelConsumedMl": 9887,
      "fuelConsumedGallons": 2.612,
      "maxSpeedMph": 37.0,
      "averageSpeedMph": 12.7,
      "safetyEvents": [],
      "_no_driver_login": false,
      "_fuel_note": ""
    },
    {
      "id": "trip_48291003_20250624_001",
      "vehicleId": "48291003",
      "driverId": null,
      "startMs": 1750766520000,
      "endMs": 1750769348144,
      "startLocation": {
        "latitude": 39.718335,
        "longitude": -105.061891
      },
      "endLocation": {
        "latitude": 39.795759,
        "longitude": -104.980522
      },
      "startAddress": "5298 Blake Common Suite 728",
      "endAddress": "8886 Sydney Island",
      "startCoords": {
        "latitude": 39.720784,
        "longitude": -105.087186
      },
      "endCoords": {
        "latitude": 39.73935,
        "longitude": -104.924287
      },
      "distanceMeters": 21064.0,
      "durationMs": 2828145,
      "drivingDurationMs": 2638334,
      "idlingDurationMs": 189811,
      "fuelConsumedMl": 2676,
      "fuelConsumedGallons": 0.707,
      "maxSpeedMph": 69.2,
      "averageSpeedMph": 16.7,
      "safetyEvents": [
        {
          "type": "speeding",
          "startMs": 1750767600000,
          "maxSpeedMph": 69.2
        }
      ],
      "_no_driver_login": true,
      "_fuel_note": "QUIRK 5: fuelConsumedGallons is in US gallons. Multiply by 3.785 for litres. Samsara does not link fuel to specific Onfleet tasks."
    },
    {
      "id": "trip_48291003_20250624_002",
      "vehicleId": "48291003",
      "driverId": "22831002",
      "startMs": 1750771080000,
      "endMs": 1750783695907,
      "startLocation": {
        "latitude": 39.802721,
        "longitude": -104.96668
      },
      "endLocation": {
        "latitude": 39.761257,
        "longitude": -105.033884
      },
      "startAddress": "84654 Benjamin Curve",
      "endAddress": "2932 Rachel Stravenue",
      "startCoords": {
        "latitude": 39.684407,
        "longitude": -105.029675
      },
      "endCoords": {
        "latitude": 39.763733,
        "longitude": -104.989298
      },
      "distanceMeters": 67995.6,
      "durationMs": 12615907,
      "drivingDurationMs": 10163250,
      "idlingDurationMs": 2452658,
      "fuelConsumedMl": 8646,
      "fuelConsumedGallons": 2.284,
      "maxSpeedMph": 53.7,
      "averageSpeedMph": 12.1,
      "safetyEvents": [],
      "_no_driver_login": false,
      "_fuel_note": ""
    },
    {
      "id": "trip_48291003_20250624_003",
      "vehicleId": "48291003",
      "driverId": "22831002",
      "startMs": 1750755360000,
      "endMs": 1750762729328,
      "startLocation": {
        "latitude": 39.780036,
        "longitude": -104.987651
      },
      "endLocation": {
        "latitude": 39.720603,
        "longitude": -105.084967
      },
      "startAddress": "7702 Phillips Mountain Apt. 418",
      "endAddress": "716 Crawford Ranch",
      "startCoords": {
        "latitude": 39.759364,
        "longitude": -104.935889
      },
      "endCoords": {
        "latitude": 39.745002,
        "longitude": -105.001864
      },
      "distanceMeters": 41236.5,
      "durationMs": 7369329,
      "drivingDurationMs": 6552678,
      "idlingDurationMs": 816651,
      "fuelConsumedMl": 5243,
      "fuelConsumedGallons": 1.385,
      "maxSpeedMph": 71.2,
      "averageSpeedMph": 12.5,
      "safetyEvents": [
        {
          "type": "speeding",
          "startMs": 1750758360000,
          "maxSpeedMph": 71.2
        }
      ],
      "_no_driver_login": false,
      "_fuel_note": ""
    },
    {
      "id": "trip_48291003_20250624_004",
      "vehicleId": "48291003",
      "driverId": "22831002",
      "startMs": 1750789320000,
      "endMs": 1750791343234,
      "startLocation": {
        "latitude": 39.773673,
        "longitude": -104.964755
      },
      "endLocation": {
        "latitude": 39.757868,
        "longitude": -104.923534
      },
      "startAddress": "95516 Paul Squares Suite 197",
      "endAddress": "4346 Giles Springs Suite 115",
      "startCoords": {
        "latitude": 39.712595,
        "longitude": -104.929033
      },
      "endCoords": {
        "latitude": 39.792938,
        "longitude": -105.025019
      },
      "distanceMeters": 14678.4,
      "durationMs": 2023235,
      "drivingDurationMs": 1827972,
      "idlingDurationMs": 195262,
      "fuelConsumedMl": 1866,
      "fuelConsumedGallons": 0.493,
      "maxSpeedMph": 35.1,
      "averageSpeedMph": 16.2,
      "safetyEvents": [],
      "_no_driver_login": false,
      "_fuel_note": ""
    },
    {
      "id": "trip_48291003_20250624_005",
      "vehicleId": "48291003",
      "driverId": "22831002",
      "startMs": 1750790820000,
      "endMs": 1750793316168,
      "startLocation": {
        "latitude": 39.725023,
        "longitude": -105.001167
      },
      "endLocation": {
        "latitude": 39.685994,
        "longitude": -104.973331
      },
      "startAddress": "560 Ballard Mountain Suite 800",
      "endAddress": "183 Debra Gateway Suite 423",
      "startCoords": {
        "latitude": 39.812508,
        "longitude": -104.955709
      },
      "endCoords": {
        "latitude": 39.694382,
        "longitude": -104.968687
      },
      "distanceMeters": 11386.5,
      "durationMs": 2496168,
      "drivingDurationMs": 2173295,
      "idlingDurationMs": 322873,
      "fuelConsumedMl": 1446,
      "fuelConsumedGallons": 0.382,
      "maxSpeedMph": 37.6,
      "averageSpeedMph": 10.2,
      "safetyEvents": [],
      "_no_driver_login": false,
      "_fuel_note": ""
    },
    {
      "id": "trip_48291003_20250625_001",
      "vehicleId": "48291003",
      "driverId": "22831002",
      "startMs": 1750840320000,
      "endMs": 1750846307362,
      "startLocation": {
        "latitude": 39.690108,
        "longitude": -104.905266
      },
      "endLocation": {
        "latitude": 39.789017,
        "longitude": -105.039322
      },
      "startAddress": "5164 Walker Plains",
      "endAddress": "977 Williams Burgs",
      "startCoords": {
        "latitude": 39.689515,
        "longitude": -104.908702
      },
      "endCoords": {
        "latitude": 39.751979,
        "longitude": -105.045594
      },
      "distanceMeters": 40940.5,
      "durationMs": 5987362,
      "drivingDurationMs": 5301713,
      "idlingDurationMs": 685649,
      "fuelConsumedMl": 5205,
      "fuelConsumedGallons": 1.375,
      "maxSpeedMph": 44.3,
      "averageSpeedMph": 15.3,
      "safetyEvents": [],
      "_no_driver_login": false,
      "_fuel_note": "QUIRK 5: fuelConsumedGallons is in US gallons. Multiply by 3.785 for litres. Samsara does not link fuel to specific Onfleet tasks."
    },
    {
      "id": "trip_48291003_20250625_002",
      "vehicleId": "48291003",
      "driverId": "22831002",
      "startMs": 1750856700000,
      "endMs": 1750861230319,
      "startLocation": {
        "latitude": 39.792768,
        "longitude": -105.085189
      },
      "endLocation": {
        "latitude": 39.688964,
        "longitude": -104.9797
      },
      "startAddress": "998 Sanders Lock Apt. 605",
      "endAddress": "006 Yolanda Track",
      "startCoords": {
        "latitude": 39.732119,
        "longitude": -105.073447
      },
      "endCoords": {
        "latitude": 39.822947,
        "longitude": -105.045883
      },
      "distanceMeters": 31298.3,
      "durationMs": 4530320,
      "drivingDurationMs": 4168785,
      "idlingDurationMs": 361535,
      "fuelConsumedMl": 3978,
      "fuelConsumedGallons": 1.051,
      "maxSpeedMph": 65.5,
      "averageSpeedMph": 15.5,
      "safetyEvents": [
        {
          "type": "speeding",
          "startMs": 1750861020000,
          "maxSpeedMph": 65.5
        }
      ],
      "_no_driver_login": false,
      "_fuel_note": ""
    },
    {
      "id": "trip_48291003_20250625_003",
      "vehicleId": "48291003",
      "driverId": "22831002",
      "startMs": 1750861740000,
      "endMs": 1750866855158,
      "startLocation": {
        "latitude": 39.737255,
        "longitude": -105.021466
      },
      "endLocation": {
        "latitude": 39.784983,
        "longitude": -105.049337
      },
      "startAddress": "3440 Buchanan Passage",
      "endAddress": "58303 April Drive",
      "startCoords": {
        "latitude": 39.708193,
        "longitude": -104.91203
      },
      "endCoords": {
        "latitude": 39.694553,
        "longitude": -105.066748
      },
      "distanceMeters": 32755.1,
      "durationMs": 5115159,
      "drivingDurationMs": 4885918,
      "idlingDurationMs": 229241,
      "fuelConsumedMl": 4164,
      "fuelConsumedGallons": 1.1,
      "maxSpeedMph": 70.0,
      "averageSpeedMph": 14.3,
      "safetyEvents": [
        {
          "type": "speeding",
          "startMs": 1750865280000,
          "maxSpeedMph": 70.0
        }
      ],
      "_no_driver_login": false,
      "_fuel_note": ""
    },
    {
      "id": "trip_48291003_20250625_004",
      "vehicleId": "48291003",
      "driverId": "22831002",
      "startMs": 1750858440000,
      "endMs": 1750862446601,
      "startLocation": {
        "latitude": 39.782461,
        "longitude": -105.063187
      },
      "endLocation": {
        "latitude": 39.722466,
        "longitude": -105.00923
      },
      "startAddress": "444 Owens Parks Suite 795",
      "endAddress": "257 Kimberly Haven",
      "startCoords": {
        "latitude": 39.814867,
        "longitude": -104.934262
      },
      "endCoords": {
        "latitude": 39.711942,
        "longitude": -105.031684
      },
      "distanceMeters": 22752.7,
      "durationMs": 4006602,
      "drivingDurationMs": 3405688,
      "idlingDurationMs": 600914,
      "fuelConsumedMl": 2892,
      "fuelConsumedGallons": 0.764,
      "maxSpeedMph": 52.5,
      "averageSpeedMph": 12.7,
      "safetyEvents": [],
      "_no_driver_login": false,
      "_fuel_note": ""
    },
    {
      "id": "trip_48291003_20250625_005",
      "vehicleId": "48291003",
      "driverId": "22831002",
      "startMs": 1750867620000,
      "endMs": 1750883850880,
      "startLocation": {
        "latitude": 39.813462,
        "longitude": -105.075469
      },
      "endLocation": {
        "latitude": 39.737793,
        "longitude": -105.054485
      },
      "startAddress": "456 Stephens Drive Apt. 912",
      "endAddress": "1941 Jeremiah Points",
      "startCoords": {
        "latitude": 39.716315,
        "longitude": -104.969038
      },
      "endCoords": {
        "latitude": 39.782479,
        "longitude": -105.083694
      },
      "distanceMeters": 73792.2,
      "durationMs": 16230880,
      "drivingDurationMs": 13281501,
      "idlingDurationMs": 2949379,
      "fuelConsumedMl": 9384,
      "fuelConsumedGallons": 2.479,
      "maxSpeedMph": 28.6,
      "averageSpeedMph": 10.2,
      "safetyEvents": [],
      "_no_driver_login": false,
      "_fuel_note": ""
    },
    {
      "id": "trip_48291003_20250625_006",
      "vehicleId": "48291003",
      "driverId": "22831002",
      "startMs": 1750864860000,
      "endMs": 1750867307860,
      "startLocation": {
        "latitude": 39.818779,
        "longitude": -104.920955
      },
      "endLocation": {
        "latitude": 39.825964,
        "longitude": -105.044545
      },
      "startAddress": "428 Riley Street",
      "endAddress": "57049 Mason Lane",
      "startCoords": {
        "latitude": 39.741927,
        "longitude": -104.992891
      },
      "endCoords": {
        "latitude": 39.792841,
        "longitude": -104.975485
      },
      "distanceMeters": 17471.9,
      "durationMs": 2447861,
      "drivingDurationMs": 1983163,
      "idlingDurationMs": 464697,
      "fuelConsumedMl": 2222,
      "fuelConsumedGallons": 0.587,
      "maxSpeedMph": 58.4,
      "averageSpeedMph": 16.0,
      "safetyEvents": [],
      "_no_driver_login": false,
      "_fuel_note": ""
    },
    {
      "id": "trip_48291003_20250626_001",
      "vehicleId": "48291003",
      "driverId": "22831002",
      "startMs": 1750923660000,
      "endMs": 1750924530313,
      "startLocation": {
        "latitude": 39.729926,
        "longitude": -105.067153
      },
      "endLocation": {
        "latitude": 39.717595,
        "longitude": -104.965485
      },
      "startAddress": "99630 James Burg Suite 614",
      "endAddress": "59326 Bowman Road Apt. 700",
      "startCoords": {
        "latitude": 39.697618,
        "longitude": -105.038483
      },
      "endCoords": {
        "latitude": 39.742178,
        "longitude": -104.977028
      },
      "distanceMeters": 5422.3,
      "durationMs": 870313,
      "drivingDurationMs": 690394,
      "idlingDurationMs": 179920,
      "fuelConsumedMl": 689,
      "fuelConsumedGallons": 0.182,
      "maxSpeedMph": 56.0,
      "averageSpeedMph": 13.9,
      "safetyEvents": [],
      "_no_driver_login": false,
      "_fuel_note": "QUIRK 5: fuelConsumedGallons is in US gallons. Multiply by 3.785 for litres. Samsara does not link fuel to specific Onfleet tasks."
    },