{
  "vehicleId": "48291034",
  "vehicleName": "ALB-MOT-01",
  "month": "2025_03",
  "pagination": {
    "endCursor": "trip_48291034_20250331_016",
    "hasNextPage": false
  },
  "trips": [
    {
      "id": "trip_48291034_20250301_001",
      "vehicleId": "48291034",
      "driverId": "22831033",
      "startMs": 1740810960000,
      "endMs": 1740814171062,
      "startLocation": {
        "latitude": 35.116947,
        "longitude": -106.571904
      },
      "endLocation": {
        "latitude": 35.139511,
        "longitude": -106.66042
      },
      "startAddress": "0525 Danielle Falls Apt. 697",
      "endAddress": "269 Weber Squares Apt. 608",
      "startCoords": {
        "latitude": 35.063427,
        "longitude": -106.580484
      },
      "endCoords": {
        "latitude": 35.074981,
        "longitude": -106.590844
      },
      "distanceMeters": 20335.1,
      "durationMs": 3211063,
      "drivingDurationMs": 2582319,
      "idlingDurationMs": 628744,
      "fuelConsumedMl": 920,
      "fuelConsumedGallons": 0.243,
      "maxSpeedMph": 32.6,
      "averageSpeedMph": 14.2,
      "safetyEvents": [],
      "_no_driver_login": false,
      "_fuel_note": "QUIRK 5: fuelConsumedGallons is in US gallons. Multiply by 3.785 for litres. Samsara does not link fuel to specific Onfleet tasks."
    },
    {
      "id": "trip_48291034_20250301_002",
      "vehicleId": "48291034",
      "driverId": "22831033",
      "startMs": 1740814080000,
      "endMs": 1740815187763,
      "startLocation": {
        "latitude": 35.08566,
        "longitude": -106.674847
      },
      "endLocation": {
        "latitude": 35.071619,
        "longitude": -106.542174
      },
      "startAddress": "481 Graham Path",
      "endAddress": "66884 Linda Gateway",
      "startCoords": {
        "latitude": 35.048503,
        "longitude": -106.548391
      },
      "endCoords": {
        "latitude": 35.045831,
        "longitude": -106.693071
      },
      "distanceMeters": 7834.5,
      "durationMs": 1107763,
      "drivingDurationMs": 920155,
      "idlingDurationMs": 187608,
      "fuelConsumedMl": 356,
      "fuelConsumedGallons": 0.094,
      "maxSpeedMph": 32.9,
      "averageSpeedMph": 15.8,
      "safetyEvents": [],
      "_no_driver_login": false,
      "_fuel_note": ""
    },
    {
      "id": "trip_48291034_20250301_003",
      "vehicleId": "48291034",
      "driverId": null,
      "startMs": 1740840900000,
      "endMs": 1740843863451,
      "startLocation": {
        "latitude": 35.047934,
        "longitude": -106.695866
      },
      "endLocation": {
        "latitude": 35.129053,
        "longitude": -106.644235
      },
      "startAddress": "0595 Gonzales Forks",
      "endAddress": "0394 West Extension",
      "startCoords": {
        "latitude": 35.149403,
        "longitude": -106.671257
      },
      "endCoords": {
        "latitude": 35.073426,
        "longitude": -106.716407
      },
      "distanceMeters": 22528.4,
      "durationMs": 2963451,
      "drivingDurationMs": 2748036,
      "idlingDurationMs": 215415,
      "fuelConsumedMl": 1018,
      "fuelConsumedGallons": 0.269,
      "maxSpeedMph": 39.2,
      "averageSpeedMph": 17.0,
      "safetyEvents": [],
      "_no_driver_login": true,
      "_fuel_note": ""
    },
    {
      "id": "trip_48291034_20250301_004",
      "vehicleId": "48291034",
      "driverId": "22831033",
      "startMs": 1740828420000,
      "endMs": 1740831855279,
      "startLocation": {
        "latitude": 35.125798,
        "longitude": -106.686096
      },
      "endLocation": {
        "latitude": 35.140753,
        "longitude": -106.673092
      },
      "startAddress": "23922 Owens Greens Suite 198",
      "endAddress": "715 Lee Stream Suite 900",
      "startCoords": {
        "latitude": 35.073279,
        "longitude": -106.671113
      },
      "endCoords": {
        "latitude": 35.103198,
        "longitude": -106.627045
      },
      "distanceMeters": 17552.8,
      "durationMs": 3435280,
      "drivingDurationMs": 2752938,
      "idlingDurationMs": 682341,
      "fuelConsumedMl": 795,
      "fuelConsumedGallons": 0.21,
      "maxSpeedMph": 44.7,
      "averageSpeedMph": 11.4,
      "safetyEvents": [],
      "_no_driver_login": false,
      "_fuel_note": ""
    },
    {
      "id": "trip_48291034_20250301_005",
      "vehicleId": "48291034",
      "driverId": "22831033",
      "startMs": 1740824400000,
      "endMs": 1740827385982,
      "startLocation": {
        "latitude": 35.101003,
        "longitude": -106.602987
      },
      "endLocation": {
        "latitude": 35.134564,
        "longitude": -106.722641
      },
      "startAddress": "3974 Scott Inlet",
      "endAddress": "035 Tate Keys",
      "startCoords": {
        "latitude": 35.103544,
        "longitude": -106.631811
      },
      "endCoords": {
        "latitude": 35.145781,
        "longitude": -106.621562
      },
      "distanceMeters": 18367.9,
      "durationMs": 2985982,
      "drivingDurationMs": 2565319,
      "idlingDurationMs": 420663,
      "fuelConsumedMl": 829,
      "fuelConsumedGallons": 0.219,
      "maxSpeedMph": 51.9,
      "averageSpeedMph": 13.8,
      "safetyEvents": [],
      "_no_driver_login": false,
      "_fuel_note": ""
    },
    {
      "id": "trip_48291034_20250301_006",
      "vehicleId": "48291034",
      "driverId": "22831033",
      "startMs": 1740839640000,
      "endMs": 1740841565432,
      "startLocation": {
        "latitude": 35.153973,
        "longitude": -106.590887
      },
      "endLocation": {
        "latitude": 35.039376,
        "longitude": -106.616077
      },
      "startAddress": "9992 Cindy Landing Apt. 732",
      "endAddress": "5233 Victoria Fork Suite 755",
      "startCoords": {
        "latitude": 35.104129,
        "longitude": -106.628554
      },
      "endCoords": {
        "latitude": 35.144738,
        "longitude": -106.666187
      },
      "distanceMeters": 13824.0,
      "durationMs": 1925432,
      "drivingDurationMs": 1590450,
      "idlingDurationMs": 334982,
      "fuelConsumedMl": 625,
      "fuelConsumedGallons": 0.165,
      "maxSpeedMph": 53.9,
      "averageSpeedMph": 16.1,
      "safetyEvents": [],
      "_no_driver_login": false,
      "_fuel_note": ""
    },
    {
      "id": "trip_48291034_20250301_007",
      "vehicleId": "48291034",
      "driverId": "22831033",
      "startMs": 1740848700000,
      "endMs": 1740849968649,
      "startLocation": {
        "latitude": 35.048285,
        "longitude": -106.652246
      },
      "endLocation": {
        "latitude": 35.114433,
        "longitude": -106.718724
      },
      "startAddress": "981 Parker Squares",
      "endAddress": "98697 Liu Cape",
      "startCoords": {
        "latitude": 35.046056,
        "longitude": -106.674896
      },
      "endCoords": {
        "latitude": 35.116656,
        "longitude": -106.614749
      },
      "distanceMeters": 6704.4,
      "durationMs": 1268650,
      "drivingDurationMs": 1078749,
      "idlingDurationMs": 189900,
      "fuelConsumedMl": 303,
      "fuelConsumedGallons": 0.08,
      "maxSpeedMph": 66.9,
      "averageSpeedMph": 11.8,
      "safetyEvents": [
        {
          "type": "speeding",
          "startMs": 1740849000000,
          "maxSpeedMph": 66.9
        }
      ],
      "_no_driver_login": false,
      "_fuel_note": ""
    },
    {
      "id": "trip_48291034_20250301_008",
      "vehicleId": "48291034",
      "driverId": "22831033",
      "startMs": 1740819000000,
      "endMs": 1740820787997,
      "startLocation": {
        "latitude": 35.108617,
        "longitude": -106.634484
      },
      "endLocation": {
        "latitude": 35.150435,
        "longitude": -106.658549
      },
      "startAddress": "204 Gonzalez Land Suite 397",
      "endAddress": "068 Richard Forge Apt. 972",
      "startCoords": {
        "latitude": 35.043088,
        "longitude": -106.702777
      },
      "endCoords": {
        "latitude": 35.160236,
        "longitude": -106.712279
      },
      "distanceMeters": 11158.6,
      "durationMs": 1787997,
      "drivingDurationMs": 1553702,
      "idlingDurationMs": 234296,
      "fuelConsumedMl": 503,
      "fuelConsumedGallons": 0.133,
      "maxSpeedMph": 28.3,
      "averageSpeedMph": 14.0,
      "safetyEvents": [],
      "_no_driver_login": false,
      "_fuel_note": ""
    },
    {
      "id": "trip_48291034_20250301_009",
      "vehicleId": "48291034",
      "driverId": "22831033",
      "startMs": 1740841380000,
      "endMs": 1740842612011,
      "startLocation": {
        "latitude": 35.168941,
        "longitude": -106.548819
      },
      "endLocation": {
        "latitude": 35.162776,
        "longitude": -106.69
      },
      "startAddress": "15319 Hernandez Cove",
      "endAddress": "24849 Carter Dale Suite 999",
      "startCoords": {
        "latitude": 35.146127,
        "longitude": -106.58212
      },
      "endCoords": {
        "latitude": 35.094715,
        "longitude": -106.673199
      },
      "distanceMeters": 7065.7,
      "durationMs": 1232011,
      "drivingDurationMs": 1024915,
      "idlingDurationMs": 207096,
      "fuelConsumedMl": 318,
      "fuelConsumedGallons": 0.084,
      "maxSpeedMph": 61.0,
      "averageSpeedMph": 12.8,
      "safetyEvents": [],
      "_no_driver_login": false,
      "_fuel_note": ""
    },
    {
      "id": "trip_48291034_20250303_001",
      "vehicleId": "48291034",
      "driverId": "22831033",
      "startMs": 1740993480000,
      "endMs": 1740995045973,
      "startLocation": {
        "latitude": 35.169228,
        "longitude": -106.649941
      },
      "endLocation": {
        "latitude": 35.113855,
        "longitude": -106.587866
      },
      "startAddress": "112 Charlotte Unions",
      "endAddress": "4810 Autumn Cliffs Suite 080",
      "startCoords": {
        "latitude": 35.081269,
        "longitude": -106.622363
      },
      "endCoords": {
        "latitude": 35.095434,
        "longitude": -106.695397
      },
      "distanceMeters": 11358.9,
      "durationMs": 1565974,
      "drivingDurationMs": 1382502,
      "idlingDurationMs": 183472,
      "fuelConsumedMl": 515,
      "fuelConsumedGallons": 0.136,
      "maxSpeedMph": 56.8,
      "averageSpeedMph": 16.2,
      "safetyEvents": [],
      "_no_driver_login": false,
      "_fuel_note": "QUIRK 5: fuelConsumedGallons is in US gallons. Multiply by 3.785 for litres. Samsara does not link fuel to specific Onfleet tasks."
    },
    {
      "id": "trip_48291034_20250303_002",
      "vehicleId": "48291034",
      "driverId": "22831033",
      "startMs": 1741021680000,
      "endMs": 1741024118162,
      "startLocation": {
        "latitude": 35.103097,
        "longitude": -106.575773
      },
      "endLocation": {
        "latitude": 35.149355,
        "longitude": -106.574319
      },
      "startAddress": "8492 Joseph Mews Apt. 616",
      "endAddress": "891 Lisa Forge Apt. 994",
      "startCoords": {
        "latitude": 35.115604,
        "longitude": -106.628036
      },
      "endCoords": {
        "latitude": 35.145955,
        "longitude": -106.706765
      },
      "distanceMeters": 17362.5,
      "durationMs": 2438163,
      "drivingDurationMs": 2030774,
      "idlingDurationMs": 407389,
      "fuelConsumedMl": 784,
      "fuelConsumedGallons": 0.207,
      "maxSpeedMph": 71.2,
      "averageSpeedMph": 15.9,
      "safetyEvents": [
        {
          "type": "speeding",
          "startMs": 1741022040000,
          "maxSpeedMph": 71.2
        }
      ],
      "_no_driver_login": false,
      "_fuel_note": ""
    },
    {
      "id": "trip_48291034_20250303_003",
      "vehicleId": "48291034",
      "driverId": "22831033",
      "startMs": 1741011000000,
      "endMs": 1741011809651,
      "startLocation": {
        "latitude": 35.127087,
        "longitude": -106.680703
      },
      "endLocation": {
        "latitude": 35.073062,
        "longitude": -106.568083
      },
      "startAddress": "903 Maria Fords",
      "endAddress": "1396 Amy Views Suite 917",
      "startCoords": {
        "latitude": 35.130948,
        "longitude": -106.692977
      },
      "endCoords": {
        "latitude": 35.093026,
        "longitude": -106.577027
      },
      "distanceMeters": 6153.2,
      "durationMs": 809651,
      "drivingDurationMs": 632972,
      "idlingDurationMs": 176680,
      "fuelConsumedMl": 280,
      "fuelConsumedGallons": 0.074,
      "maxSpeedMph": 59.8,
      "averageSpeedMph": 17.0,
      "safetyEvents": [],
      "_no_driver_login": false,
      "_fuel_note": ""
    },
    {
      "id": "trip_48291034_20250303_004",
      "vehicleId": "48291034",
      "driverId": "22831033",
      "startMs": 1741007220000,
      "endMs": 1741008435514,
      "startLocation": {
        "latitude": 35.106771,
        "longitude": -106.68752
      },
      "endLocation": {
        "latitude": 35.163247,
        "longitude": -106.652127
      },
      "startAddress": "48642 Mark Crest Suite 791",
      "endAddress": "32023 Krause Drive",
      "startCoords": {
        "latitude": 35.153539,
        "longitude": -106.559552
      },
      "endCoords": {
        "latitude": 35.173795,
        "longitude": -106.673432
      },
      "distanceMeters": 7811.3,
      "durationMs": 1215514,
      "drivingDurationMs": 986675,
      "idlingDurationMs": 228840,
      "fuelConsumedMl": 352,
      "fuelConsumedGallons": 0.093,
      "maxSpeedMph": 42.7,
      "averageSpeedMph": 14.4,
      "safetyEvents": [],
      "_no_driver_login": false,
      "_fuel_note": ""
    },
    {
      "id": "trip_48291034_20250303_005",
      "vehicleId": "48291034",
      "driverId": null,
      "startMs": 1740985260000,
      "endMs": 1740986464019,
      "startLocation": {
        "latitude": 35.047837,
        "longitude": -106.615386
      },
      "endLocation": {
        "latitude": 35.140091,
        "longitude": -106.680856
      },
      "startAddress": "30015 Bowman Islands Apt. 952",
      "endAddress": "74220 Kathleen Corners Apt. 159",
      "startCoords": {
        "latitude": 35.057729,
        "longitude": -106.665161
      },
      "endCoords": {
        "latitude": 35.12448,
        "longitude": -106.717231
      },
      "distanceMeters": 6523.8,
      "durationMs": 1204020,
      "drivingDurationMs": 996625,
      "idlingDurationMs": 207395,
      "fuelConsumedMl": 295,
      "fuelConsumedGallons": 0.078,
      "maxSpeedMph": 29.3,
      "averageSpeedMph": 12.1,
      "safetyEvents": [],
      "_no_driver_login": true,
      "_fuel_note": ""
    },
    {
      "id": "trip_48291034_20250303_006",
      "vehicleId": "48291034",
      "driverId": "22831033",
      "startMs": 1741004100000,
      "endMs": 1741005441956,
      "startLocation": {
        "latitude": 35.157403,
        "longitude": -106.653325
      },
      "endLocation": {
        "latitude": 35.169654,
        "longitude": -106.663591
      },
      "startAddress": "2660 Jacob Summit Apt. 506",
      "endAddress": "770 Michelle Course",
      "startCoords": {
        "latitude": 35.097067,
        "longitude": -106.544763
      },
      "endCoords": {
        "latitude": 35.072948,
        "longitude": -106.630813
      },
      "distanceMeters": 11206.3,
      "durationMs": 1341957,
      "drivingDurationMs": 1086436,
      "idlingDurationMs": 255521,
      "fuelConsumedMl": 507,
      "fuelConsumedGallons": 0.134,
      "maxSpeedMph": 58.8,
      "averageSpeedMph": 18.7,
      "safetyEvents": [],
      "_no_driver_login": false,
      "_fuel_note": ""
    },
    {
      "id": "trip_48291034_20250303_007",
      "vehicleId": "48291034",
      "driverId": "22831033",
      "startMs": 1740981840000,
      "endMs": 1740984446917,
      "startLocation": {
        "latitude": 35.101942,
        "longitude": -106.649689
      },
      "endLocation": {
        "latitude": 35.051022,
        "longitude": -106.689279
      },
      "startAddress": "4565 Ann Creek Apt. 421",
      "endAddress": "62147 Baldwin Tunnel Apt. 282",
      "startCoords": {
        "latitude": 35.059845,
        "longitude": -106.715759
      },
      "endCoords": {
        "latitude": 35.094412,
        "longitude": -106.552115
      },
      "distanceMeters": 15673.2,
      "durationMs": 2606918,
      "drivingDurationMs": 2210632,
      "idlingDurationMs": 396286,
      "fuelConsumedMl": 708,
      "fuelConsumedGallons": 0.187,
      "maxSpeedMph": 53.6,
      "averageSpeedMph": 13.4,
      "safetyEvents": [],
      "_no_driver_login": false,
      "_fuel_note": ""
    },
    {
      "id": "trip_48291034_20250303_008",
      "vehicleId": "48291034",
      "driverId": "22831033",
      "startMs": 1741014840000,
      "endMs": 1741017370908,
      "startLocation": {
        "latitude": 35.169826,
        "longitude": -106.644892
      },
      "endLocation": {
        "latitude": 35.109727,
        "longitude": -106.621642
      },
      "startAddress": "510 Ali Stravenue Suite 099",
      "endAddress": "9664 Marshall Stream Apt. 703",
      "startCoords": {
        "latitude": 35.073134,
        "longitude": -106.60656
      },
      "endCoords": {
        "latitude": 35.08412,
        "longitude": -106.602793
      },
      "distanceMeters": 18898.2,
      "durationMs": 2530908,
      "drivingDurationMs": 2030513,
      "idlingDurationMs": 500395,
      "fuelConsumedMl": 856,
      "fuelConsumedGallons": 0.226,
      "maxSpeedMph": 66.1,
      "averageSpeedMph": 16.7,
      "safetyEvents": [
        {
          "type": "speeding",
          "startMs": 1741017060000,
          "maxSpeedMph": 66.1
        }
      ],
      "_no_driver_login": false,
      "_fuel_note": ""
    },
    {
      "id": "trip_48291034_20250304_001",
      "vehicleId": "48291034",
      "driverId": "22831033",
      "startMs": 1741090980000,
      "endMs": 1741092343445,
      "startLocation": {
        "latitude": 35.069143,
        "longitude": -106.704181
      },
      "endLocation": {
        "latitude": 35.05703,
        "longitude": -106.549248
      },
      "startAddress": "6135 Kevin Club",
      "endAddress": "832 Sexton Spur",
      "startCoords": {
        "latitude": 35.052112,
        "longitude": -106.704347
      },
      "endCoords": {
        "latitude": 35.057788,
        "longitude": -106.638659
      },
      "distanceMeters": 8501.5,
      "durationMs": 1363445,
      "drivingDurationMs": 1126160,
      "idlingDurationMs": 237285,
      "fuelConsumedMl": 386,
      "fuelConsumedGallons": 0.102,
      "maxSpeedMph": 34.0,
      "averageSpeedMph": 13.9,
      "safetyEvents": [],
      "_no_driver_login": false,
      "_fuel_note": "QUIRK 5: fuelConsumedGallons is in US gallons. Multiply by 3.785 for litres. Samsara does not link fuel to specific Onfleet tasks."
    },
    {
      "id": "trip_48291034_20250304_002",
      "vehicleId": "48291034",
      "driverId": "22831033",
      "startMs": 1741092960000,
      "endMs": 1741094895328,
      "startLocation": {
        "latitude": 35.058012,
        "longitude": -106.552888
      },
      "endLocation": {
        "latitude": 35.047714,
        "longitude": -106.553016
      },
      "startAddress": "05314 Mark Mills",
      "endAddress": "94420 Jacqueline Overpass Suite 056",
      "startCoords": {
        "latitude": 35.10131,
        "longitude": -106.711403
      },
      "endCoords": {
        "latitude": 35.181723,
        "longitude": -106.556355
      },
      "distanceMeters": 17075.7,
      "durationMs": 1935328,
      "drivingDurationMs": 1695994,
      "idlingDurationMs": 239334,
      "fuelConsumedMl": 772,
      "fuelConsumedGallons": 0.204,
      "maxSpeedMph": 53.8,
      "averageSpeedMph": 19.7,
      "safetyEvents": [],
      "_no_driver_login": false,
      "_fuel_note": ""
    },
    {
      "id": "trip_48291034_20250304_003",
      "vehicleId": "48291034",
      "driverId": "22831033",
      "startMs": 1741078560000,
      "endMs": 1741079263940,
      "startLocation": {
        "latitude": 35.113284,
        "longitude": -106.659279
      },
      "endLocation": {
        "latitude": 35.129439,
        "longitude": -106.542126
      },
      "startAddress": "51881 Contreras Harbor Suite 630",
      "endAddress": "1315 Kirk Plaza",
      "startCoords": {
        "latitude": 35.147782,
        "longitude": -106.56808
      },
      "endCoords": {
        "latitude": 35.097276,
        "longitude": -106.612556
      },
      "distanceMeters": 4167.7,
      "durationMs": 703940,
      "drivingDurationMs": 528927,
      "idlingDurationMs": 175013,
      "fuelConsumedMl": 189,
      "fuelConsumedGallons": 0.05,
      "maxSpeedMph": 71.6,
      "averageSpeedMph": 13.2,
      "safetyEvents": [
        {
          "type": "speeding",
          "startMs": 1741079100000,
          "maxSpeedMph": 71.6
        }
      ],
      "_no_driver_login": false,
      "_fuel_note": ""
    },
    {
      "id": "trip_48291034_20250304_004",
      "vehicleId": "48291034",
      "driverId": "22831033",
      "startMs": 1741077600000,
      "endMs": 1741081453490,
      "startLocation": {
        "latitude": 35.170057,
        "longitude": -106.702926
      },
      "endLocation": {
        "latitude": 35.137767,
        "longitude": -106.65134
      },
      "startAddress": "69640 Christina Way Apt. 799",
      "endAddress": "82337 Robert Squares",
      "startCoords": {
        "latitude": 35.04872,
        "longitude": -106.695519
      },
      "endCoords": {
        "latitude": 35.171402,
        "longitude": -106.716187
      },
      "distanceMeters": 22985.4,
      "durationMs": 3853490,
      "drivingDurationMs": 3481803,
      "idlingDurationMs": 371687,
      "fuelConsumedMl": 1041,
      "fuelConsumedGallons": 0.275,
      "maxSpeedMph": 65.7,
      "averageSpeedMph": 13.3,
      "safetyEvents": [
        {
          "type": "speeding",
          "startMs": 1741078380000,
          "maxSpeedMph": 65.7
        }
      ],
      "_no_driver_login": false,
      "_fuel_note": ""
    },
    {
      "id": "trip_48291034_20250304_005",
      "vehicleId": "48291034",
      "driverId": "22831033",
      "startMs": 1741070820000,
      "endMs": 1741073298911,
      "startLocation": {
        "latitude": 35.085706,
        "longitude": -106.590128
      },
      "endLocation": {
        "latitude": 35.113877,
        "longitude": -106.575209
      },
      "startAddress": "611 Jasmine Plains",
      "endAddress": "243 Annette Lodge Suite 678",
      "startCoords": {
        "latitude": 35.107776,
        "longitude": -106.598569
      },
      "endCoords": {
        "latitude": 35.109886,
        "longitude": -106.634331
      },
      "distanceMeters": 19744.4,
      "durationMs": 2478911,
      "drivingDurationMs": 2260158,
      "idlingDurationMs": 218753,
      "fuelConsumedMl": 893,
      "fuelConsumedGallons": 0.236,
      "maxSpeedMph": 61.7,
      "averageSpeedMph": 17.8,
      "safetyEvents": [],
      "_no_driver_login": false,
      "_fuel_note": ""
    },
    {
      "id": "trip_48291034_20250304_006",
      "vehicleId": "48291034",
      "driverId": "22831033",
      "startMs": 1741098000000,
      "endMs": 1741100380488,
      "startLocation": {
        "latitude": 35.111897,
        "longitude": -106.620556
      },
      "endLocation": {
        "latitude": 35.052893,
        "longitude": -106.716931
      },
      "startAddress": "798 Martin Green",
      "endAddress": "14944 Hall Lock",
      "startCoords": {
        "latitude": 35.172567,
        "longitude": -106.601157
      },
      "endCoords": {
        "latitude": 35.096302,
        "longitude": -106.593833
      },
      "distanceMeters": 21045.6,
      "durationMs": 2380489,
      "drivingDurationMs": 2199135,
      "idlingDurationMs": 181354,
      "fuelConsumedMl": 950,
      "fuelConsumedGallons": 0.251,
      "maxSpeedMph": 40.5,
      "averageSpeedMph": 19.8,
      "safetyEvents": [],
      "_no_driver_login": false,
      "_fuel_note": ""
    },
    {
      "id": "trip_48291034_20250304_007",
      "vehicleId": "48291034",
      "driverId": "22831033",
      "startMs": 1741088820000,
      "endMs": 1741090559605,
      "startLocation": {
        "latitude": 35.111539,
        "longitude": -106.613872
      },
      "endLocation": {
        "latitude": 35.04731,
        "longitude": -106.640107
      },
      "startAddress": "739 Sean Wall Suite 258",
      "endAddress": "56842 Steven Radial",
      "startCoords": {
        "latitude": 35.05519,
        "longitude": -106.579435
      },
      "endCoords": {
        "latitude": 35.047776,
        "longitude": -106.551901
      },
      "distanceMeters": 13831.2,
      "durationMs": 1739606,
      "drivingDurationMs": 1451552,
      "idlingDurationMs": 288053,
      "fuelConsumedMl": 625,
      "fuelConsumedGallons": 0.165,
      "maxSpeedMph": 62.1,
      "averageSpeedMph": 17.8,
      "safetyEvents": [],
      "_no_driver_login": false,
      "_fuel_note": ""
    },
    {
      "id": "trip_48291034_20250304_008",
      "vehicleId": "48291034",
      "driverId": "22831033",
      "startMs": 1741106640000,
      "endMs": 1741108504152,
      "startLocation": {
        "latitude": 35.108854,
        "longitude": -106.585588
      },
      "endLocation": {
        "latitude": 35.04382,
        "longitude": -106.552976
      },
      "startAddress": "685 Stevenson Wall",
      "endAddress": "340 Rivera Trail",
      "startCoords": {
        "latitude": 35.058196,
        "longitude": -106.651388
      },
      "endCoords": {
        "latitude": 35.136288,
        "longitude": -106.615893
      },
      "distanceMeters": 9994.6,
      "durationMs": 1864152,
      "drivingDurationMs": 1596992,
      "idlingDurationMs": 267161,
      "fuelConsumedMl": 450,
      "fuelConsumedGallons": 0.119,
      "maxSpeedMph": 65.5,
      "averageSpeedMph": 12.0,
      "safetyEvents": [
        {
          "type": "speeding",
          "startMs": 1741106820000,
          "maxSpeedMph": 65.5
        }
      ],
      "_no_driver_login": false,
      "_fuel_note": ""
    },
    {
      "id": "trip_48291034_20250304_009",
      "vehicleId": "48291034",
      "driverId": "22831033",
      "startMs": 1741105200000,
      "endMs": 1741108984516,
      "startLocation": {
        "latitude": 35.070465,
        "longitude": -106.551898
      },
      "endLocation": {
        "latitude": 35.106362,
        "longitude": -106.592549
      },
      "startAddress": "217 Ross Shores",
      "endAddress": "728 Mullen Green",
      "startCoords": {
        "latitude": 35.059687,
        "longitude": -106.579257
      },
      "endCoords": {
        "latitude": 35.132934,
        "longitude": -106.630722
      },
      "distanceMeters": 20512.5,
      "durationMs": 3784517,
      "drivingDurationMs": 3069443,
      "idlingDurationMs": 715074,
      "fuelConsumedMl": 927,
      "fuelConsumedGallons": 0.245,
      "maxSpeedMph": 70.8,
      "averageSpeedMph": 12.1,
      "safetyEvents": [
        {
          "type": "speeding",
          "startMs": 1741107120000,
          "maxSpeedMph": 70.8
        }
      ],
      "_no_driver_login": false,
      "_fuel_note": ""
    },
    {
      "id": "trip_48291034_20250304_010",
      "vehicleId": "48291034",
      "driverId": null,
      "startMs": 1741092840000,
      "endMs": 1741093409566,
      "startLocation": {
        "latitude": 35.063513,
        "longitude": -106.588305
      },
      "endLocation": {
        "latitude": 35.127395,
        "longitude": -106.646721
      },
      "startAddress": "4670 Alejandro Rest",
      "endAddress": "76485 Laura Valleys",
      "startCoords": {
        "latitude": 35.166136,
        "longitude": -106.625492
      },
      "endCoords": {
        "latitude": 35.160545,
        "longitude": -106.627361
      },
      "distanceMeters": 3833.2,
      "durationMs": 569567,
      "drivingDurationMs": 451404,
      "idlingDurationMs": 118162,
      "fuelConsumedMl": 174,
      "fuelConsumedGallons": 0.046,
      "maxSpeedMph": 36.1,
      "averageSpeedMph": 15.1,
      "safetyEvents": [],
      "_no_driver_login": true,
      "_fuel_note": ""
    },
    {
      "id": "trip_48291034_20250305_001",
      "vehicleId": "48291034",
      "driverId": "22831033",
      "startMs": 1741172400000,
      "endMs": 1741176506999,
      "startLocation": {
        "latitude": 35.042425,
        "longitude": -106.560324
      },
      "endLocation": {
        "latitude": 35.111506,
        "longitude": -106.696916
      },
      "startAddress": "06294 Harding Landing",
      "endAddress": "276 Joseph Shores",
      "startCoords": {
        "latitude": 35.14539,
        "longitude": -106.571405
      },
      "endCoords": {
        "latitude": 35.066578,
        "longitude": -106.703866
      },
      "distanceMeters": 22287.6,
      "durationMs": 4107000,
      "drivingDurationMs": 3384778,
      "idlingDurationMs": 722222,
      "fuelConsumedMl": 1007,
      "fuelConsumedGallons": 0.266,
      "maxSpeedMph": 63.4,
      "averageSpeedMph": 12.1,
      "safetyEvents": [],
      "_no_driver_login": false,
      "_fuel_note": "QUIRK 5: fuelConsumedGallons is in US gallons. Multiply by 3.785 for litres. Samsara does not link fuel to specific Onfleet tasks."
    },
    {
      "id": "trip_48291034_20250305_002",
      "vehicleId": "48291034",
      "driverId": "22831033",
      "startMs": 1741155240000,
      "endMs": 1741155842319,
      "startLocation": {
        "latitude": 35.158041,
        "longitude": -106.606192
      },
      "endLocation": {
        "latitude": 35.064796,
        "longitude": -106.71259
      },
      "startAddress": "126 Joshua Neck Suite 121",
      "endAddress": "5582 Ann Fall",
      "startCoords": {
        "latitude": 35.085718,
        "longitude": -106.680541
      },
      "endCoords": {
        "latitude": 35.064436,
        "longitude": -106.721217
      },
      "distanceMeters": 2894.2,
      "durationMs": 602319,
      "drivingDurationMs": 462093,
      "idlingDurationMs": 140226,
      "fuelConsumedMl": 132,
      "fuelConsumedGallons": 0.035,
      "maxSpeedMph": 47.9,
      "averageSpeedMph": 10.7,
      "safetyEvents": [],
      "_no_driver_login": false,
      "_fuel_note": ""
    },
    {
      "id": "trip_48291034_20250305_003",
      "vehicleId": "48291034",
      "driverId": "22831033",
      "startMs": 1741193100000,
      "endMs": 1741194449660,
      "startLocation": {
        "latitude": 35.040659,
        "longitude": -106.664944
      },
      "endLocation": {
        "latitude": 35.146065,
        "longitude": -106.654932
      },
      "startAddress": "16397 Hall Plaza Apt. 498",
      "endAddress": "225 Danielle Locks Apt. 460",
      "startCoords": {
        "latitude": 35.137324,
        "longitude": -106.671951
      },
      "endCoords": {
        "latitude": 35.153142,
        "longitude": -106.709322
      },
      "distanceMeters": 10148.4,
      "durationMs": 1349661,
      "drivingDurationMs": 1151018,
      "idlingDurationMs": 198643,
      "fuelConsumedMl": 458,
      "fuelConsumedGallons": 0.121,
      "maxSpeedMph": 41.4,
      "averageSpeedMph": 16.8,
      "safetyEvents": [],
      "_no_driver_login": false,
      "_fuel_note": ""
    },
    {
      "id": "trip_48291034_20250305_004",
      "vehicleId": "48291034",
      "driverId": "22831033",
      "startMs": 1741189680000,
      "endMs": 1741190618640,
      "startLocation": {
        "latitude": 35.087803,
        "longitude": -106.635296
      },
      "endLocation": {
        "latitude": 35.136769,
        "longitude": -106.536619
      },
      "startAddress": "2297 Patterson Valley",
      "endAddress": "91693 Brown Freeway Apt. 718",
      "startCoords": {
        "latitude": 35.04351,
        "longitude": -106.61906
      },
      "endCoords": {
        "latitude": 35.073002,
        "longitude": -106.604098
      },
      "distanceMeters": 4704.3,
      "durationMs": 938641,
      "drivingDurationMs": 751149,
      "idlingDurationMs": 187492,
      "fuelConsumedMl": 212,
      "fuelConsumedGallons": 0.056,
      "maxSpeedMph": 32.9,
      "averageSpeedMph": 11.2,
      "safetyEvents": [],
      "_no_driver_login": false,
      "_fuel_note": ""
    },
    {
      "id": "trip_48291034_20250305_005",
      "vehicleId": "48291034",
      "driverId": "22831033",
      "startMs": 1741164900000,
      "endMs": 1741165574878,
      "startLocation": {
        "latitude": 35.078171,
        "longitude": -106.67177
      },
      "endLocation": {
        "latitude": 35.101423,
        "longitude": -106.637729
      },
      "startAddress": "386 Rose Mills",
      "endAddress": "5928 Garcia Isle",
      "startCoords": {
        "latitude": 35.140713,
        "longitude": -106.54671
      },
      "endCoords": {
        "latitude": 35.057173,
        "longitude": -106.657187
      },
      "distanceMeters": 3327.9,
      "durationMs": 674879,
      "drivingDurationMs": 496069,
      "idlingDurationMs": 178810,
      "fuelConsumedMl": 151,
      "fuelConsumedGallons": 0.04,
      "maxSpeedMph": 68.2,
      "averageSpeedMph": 11.0,
      "safetyEvents": [
        {
          "type": "speeding",
          "startMs": 1741165260000,
          "maxSpeedMph": 68.2
        }
      ],
      "_no_driver_login": false,
      "_fuel_note": ""
    },
    {
      "id": "trip_48291034_20250305_006",
      "vehicleId": "48291034",
      "driverId": "22831033",
      "startMs": 1741157460000,
      "endMs": 1741161494876,
      "startLocation": {
        "latitude": 35.066299,
        "longitude": -106.554767
      },
      "endLocation": {
        "latitude": 35.058166,
        "longitude": -106.657611
      },
      "startAddress": "813 Graves Spring Apt. 075",
      "endAddress": "8494 Hancock Haven Apt. 386",
      "startCoords": {
        "latitude": 35.077828,
        "longitude": -106.606361
      },
      "endCoords": {
        "latitude": 35.152858,
        "longitude": -106.633755
      },
      "distanceMeters": 23960.5,
      "durationMs": 4034876,
      "drivingDurationMs": 3504957,
      "idlingDurationMs": 529919,
      "fuelConsumedMl": 1083,
      "fuelConsumedGallons": 0.286,
      "maxSpeedMph": 65.3,
      "averageSpeedMph": 13.3,
      "safetyEvents": [
        {
          "type": "speeding",
          "startMs": 1741160400000,
          "maxSpeedMph": 65.3
        }
      ],
      "_no_driver_login": false,
      "_fuel_note": ""
    },
    {
      "id": "trip_48291034_20250305_007",
      "vehicleId": "48291034",
      "driverId": "22831033",
      "startMs": 1741190400000,
      "endMs": 1741191690735,
      "startLocation": {
        "latitude": 35.09021,
        "longitude": -106.646395
      },
      "endLocation": {
        "latitude": 35.069045,
        "longitude": -106.57733
      },
      "startAddress": "1024 Rojas Ridges Apt. 012",
      "endAddress": "91529 Steven Meadows Suite 292",
      "startCoords": {
        "latitude": 35.105131,
        "longitude": -106.630352
      },
      "endCoords": {
        "latitude": 35.10263,
        "longitude": -106.647649
      },
      "distanceMeters": 7539.3,
      "durationMs": 1290735,
      "drivingDurationMs": 1073736,
      "idlingDurationMs": 216999,
      "fuelConsumedMl": 341,
      "fuelConsumedGallons": 0.09,
      "maxSpeedMph": 59.6,
      "averageSpeedMph": 13.1,
      "safetyEvents": [],
      "_no_driver_login": false,
      "_fuel_note": ""
    },
    {
      "id": "trip_48291034_20250305_008",
      "vehicleId": "48291034",
      "driverId": "22831033",
      "startMs": 1741163400000,
      "endMs": 1741166257393,
      "startLocation": {
        "latitude": 35.108729,
        "longitude": -106.692859
      },
      "endLocation": {
        "latitude": 35.103184,
        "longitude": -106.697881
      },
      "startAddress": "54509 Johnson Ridges Apt. 414",
      "endAddress": "51016 Christian Falls",
      "startCoords": {
        "latitude": 35.106053,
        "longitude": -106.619973
      },
      "endCoords": {
        "latitude": 35.081522,
        "longitude": -106.650604
      },
      "distanceMeters": 15620.6,
      "durationMs": 2857393,
      "drivingDurationMs": 2333839,
      "idlingDurationMs": 523554,
      "fuelConsumedMl": 708,
      "fuelConsumedGallons": 0.187,
      "maxSpeedMph": 48.4,
      "averageSpeedMph": 12.2,
      "safetyEvents": [],
      "_no_driver_login": false,
      "_fuel_note": ""
    },
    {
      "id": "trip_48291034_20250305_009",
      "vehicleId": "48291034",
      "driverId": null,
      "startMs": 1741174500000,
      "endMs": 1741175710810,
      "startLocation": {
        "latitude": 35.14528,
        "longitude": -106.658687
      },
      "endLocation": {
        "latitude": 35.087858,
        "longitude": -106.536614
      },
      "startAddress": "26969 Price Shoal Apt. 144",
      "endAddress": "499 Harris Ways",
      "startCoords": {
        "latitude": 35.100489,
        "longitude": -106.691167
      },
      "endCoords": {
        "latitude": 35.092829,
        "longitude": -106.707684
      },
      "distanceMeters": 6492.2,
      "durationMs": 1210810,
      "drivingDurationMs": 1020370,
      "idlingDurationMs": 190441,
      "fuelConsumedMl": 295,
      "fuelConsumedGallons": 0.078,
      "maxSpeedMph": 39.1,
      "averageSpeedMph": 12.0,
      "safetyEvents": [],
      "_no_driver_login": true,
      "_fuel_note": ""
    },
    {
      "id": "trip_48291034_20250305_010",
      "vehicleId": "48291034",
      "driverId": "22831033",
      "startMs": 1741160640000,
      "endMs": 1741162178055,
      "startLocation": {
        "latitude": 35.104078,
        "longitude": -106.562195
      },
      "endLocation": {
        "latitude": 35.169553,
        "longitude": -106.624683
      },
      "startAddress": "103 James Lock Apt. 640",
      "endAddress": "61414 Snyder Corners",
      "startCoords": {
        "latitude": 35.154241,
        "longitude": -106.657981
      },
      "endCoords": {
        "latitude": 35.079289,
        "longitude": -106.590818
      },
      "distanceMeters": 13631.5,
      "durationMs": 1538055,
      "drivingDurationMs": 1331437,
      "idlingDurationMs": 206618,
      "fuelConsumedMl": 617,
      "fuelConsumedGallons": 0.163,
      "maxSpeedMph": 51.1,
      "averageSpeedMph": 19.8,
      "safetyEvents": [],
      "_no_driver_login": false,
      "_fuel_note": ""
    },
    {
      "id": "trip_48291034_20250305_011",
      "vehicleId": "48291034",
      "driverId": "22831033",
      "startMs": 1741178100000,
      "endMs": 1741179692479,
      "startLocation": {
        "latitude": 35.062677,
        "longitude": -106.566274
      },
      "endLocation": {
        "latitude": 35.135815,
        "longitude": -106.693888
      },
      "startAddress": "0951 Kenneth Roads",
      "endAddress": "5269 Johns Fort",
      "startCoords": {
        "latitude": 35.097899,
        "longitude": -106.59928
      },
      "endCoords": {
        "latitude": 35.076337,
        "longitude": -106.676782
      },
      "distanceMeters": 9668.5,
      "durationMs": 1592479,
      "drivingDurationMs": 1354521,
      "idlingDurationMs": 237958,
      "fuelConsumedMl": 439,
      "fuelConsumedGallons": 0.116,
      "maxSpeedMph": 33.3,
      "averageSpeedMph": 13.6,
      "safetyEvents": [],
      "_no_driver_login": false,
      "_fuel_note": ""
    },
    {
      "id": "trip_48291034_20250306_001",
      "vehicleId": "48291034",
      "driverId": "22831033",
      "startMs": 1741286340000,
      "endMs": 1741287164744,
      "startLocation": {
        "latitude": 35.131052,
        "longitude": -106.65022
      },
      "endLocation": {
        "latitude": 35.13844,
        "longitude": -106.603777
      },
      "startAddress": "6932 Wendy Glen Suite 613",
      "endAddress": "829 Bailey Junctions Apt. 566",
      "startCoords": {
        "latitude": 35.17798,
        "longitude": -106.631959
      },
      "endCoords": {
        "latitude": 35.176648,
        "longitude": -106.672793
      },
      "distanceMeters": 4101.2,
      "durationMs": 824745,
      "drivingDurationMs": 645943,
      "idlingDurationMs": 178802,
      "fuelConsumedMl": 185,
      "fuelConsumedGallons": 0.049,
      "maxSpeedMph": 46.8,
      "averageSpeedMph": 11.1,
      "safetyEvents": [],
      "_no_driver_login": false,
      "_fuel_note": "QUIRK 5: fuelConsumedGallons is in US gallons. Multiply by 3.785 for litres. Samsara does not link fuel to specific Onfleet tasks."
    },
    {
      "id": "trip_48291034_20250306_002",
      "vehicleId": "48291034",
      "driverId": "22831033",
      "startMs": 1741270260000,
      "endMs": 1741271391540,
      "startLocation": {
        "latitude": 35.182532,
        "longitude": -106.632857
      },
      "endLocation": {
        "latitude": 35.093623,
        "longitude": -106.662501
      },
      "startAddress": "112 Stephanie Pike Apt. 580",
      "endAddress": "44336 Christina Knolls",
      "startCoords": {
        "latitude": 35.064411,
        "longitude": -106.691341
      },
      "endCoords": {
        "latitude": 35.11692,
        "longitude": -106.597062
      },
      "distanceMeters": 7344.2,
      "durationMs": 1131540,
      "drivingDurationMs": 911906,
      "idlingDurationMs": 219634,
      "fuelConsumedMl": 333,
      "fuelConsumedGallons": 0.088,
      "maxSpeedMph": 35.5,
      "averageSpeedMph": 14.5,
      "safetyEvents": [],
      "_no_driver_login": false,
      "_fuel_note": ""
    },
    {
      "id": "trip_48291034_20250306_003",
      "vehicleId": "48291034",
      "driverId": null,
      "startMs": 1741283220000,
      "endMs": 1741284530052,
      "startLocation": {
        "latitude": 35.17167,
        "longitude": -106.637331
      },
      "endLocation": {
        "latitude": 35.095248,
        "longitude": -106.707277
      },
      "startAddress": "41128 Morris Square Suite 522",
      "endAddress": "79080 Anthony Brooks Apt. 117",
      "startCoords": {
        "latitude": 35.153224,
        "longitude": -106.65434
      },
      "endCoords": {
        "latitude": 35.143013,
        "longitude": -106.680855
      },
      "distanceMeters": 10480.3,
      "durationMs": 1310052,
      "drivingDurationMs": 1059518,
      "idlingDurationMs": 250534,
      "fuelConsumedMl": 473,
      "fuelConsumedGallons": 0.125,
      "maxSpeedMph": 37.7,
      "averageSpeedMph": 17.9,
      "safetyEvents": [],
      "_no_driver_login": true,
      "_fuel_note": ""
    },
    {
      "id": "trip_48291034_20250306_004",
      "vehicleId": "48291034",
      "driverId": "22831033",
      "startMs": 1741278240000,
      "endMs": 1741279223210,
      "startLocation": {
        "latitude": 35.113449,
        "longitude": -106.558992
      },
      "endLocation": {
        "latitude": 35.071311,
        "longitude": -106.627404
      },
      "startAddress": "18193 Gina Track Apt. 051",
      "endAddress": "54018 Young Green Apt. 885",
      "startCoords": {
        "latitude": 35.150493,
        "longitude": -106.60699
      },
      "endCoords": {
        "latitude": 35.122521,
        "longitude": -106.541444
      },
      "distanceMeters": 6579.2,
      "durationMs": 983211,
      "drivingDurationMs": 787727,
      "idlingDurationMs": 195484,
      "fuelConsumedMl": 299,
      "fuelConsumedGallons": 0.079,
      "maxSpeedMph": 31.5,
      "averageSpeedMph": 15.0,
      "safetyEvents": [],
      "_no_driver_login": false,
      "_fuel_note": ""
    },
    {
      "id": "trip_48291034_20250306_005",
      "vehicleId": "48291034",
      "driverId": "22831033",
      "startMs": 1741261920000,
      "endMs": 1741264874893,
      "startLocation": {
        "latitude": 35.077029,
        "longitude": -106.54972
      },
      "endLocation": {
        "latitude": 35.070736,
        "longitude": -106.584501
      },
      "startAddress": "88581 Rocha Stravenue",
      "endAddress": "89982 Jenna Road Suite 610",
      "startCoords": {
        "latitude": 35.055884,
        "longitude": -106.6738
      },
      "endCoords": {
        "latitude": 35.132227,
        "longitude": -106.674674
      },
      "distanceMeters": 17740.8,
      "durationMs": 2954894,
      "drivingDurationMs": 2629538,
      "idlingDurationMs": 325356,
      "fuelConsumedMl": 803,
      "fuelConsumedGallons": 0.212,
      "maxSpeedMph": 71.6,
      "averageSpeedMph": 13.4,
      "safetyEvents": [
        {
          "type": "speeding",
          "startMs": 1741263000000,
          "maxSpeedMph": 71.6
        }
      ],
      "_no_driver_login": false,
      "_fuel_note": ""
    },
    {
      "id": "trip_48291034_20250306_006",
      "vehicleId": "48291034",
      "driverId": "22831033",
      "startMs": 1741245900000,
      "endMs": 1741248825343,
      "startLocation": {
        "latitude": 35.079987,
        "longitude": -106.557303
      },
      "endLocation": {
        "latitude": 35.104057,
        "longitude": -106.667332
      },
      "startAddress": "7968 Chavez Pike Apt. 044",
      "endAddress": "312 Davis Walks",
      "startCoords": {
        "latitude": 35.171881,
        "longitude": -106.607158
      },
      "endCoords": {
        "latitude": 35.120547,
        "longitude": -106.689982
      },
      "distanceMeters": 16045.2,
      "durationMs": 2925344,
      "drivingDurationMs": 2613513,
      "idlingDurationMs": 311831,
      "fuelConsumedMl": 727,
      "fuelConsumedGallons": 0.192,
      "maxSpeedMph": 48.1,
      "averageSpeedMph": 12.3,
      "safetyEvents": [],
      "_no_driver_login": false,
      "_fuel_note": ""
    },
    {
      "id": "trip_48291034_20250306_007",
      "vehicleId": "48291034",
      "driverId": "22831033",
      "startMs": 1741251960000,
      "endMs": 1741252870154,
      "startLocation": {
        "latitude": 35.052145,
        "longitude": -106.641266
      },
      "endLocation": {
        "latitude": 35.138057,
        "longitude": -106.631999
      },
      "startAddress": "1500 Claire Parks",
      "endAddress": "235 Williams Motorway",
      "startCoords": {
        "latitude": 35.10012,
        "longitude": -106.678383
      },
      "endCoords": {
        "latitude": 35.114201,
        "longitude": -106.657704
      },
      "distanceMeters": 5986.7,
      "durationMs": 910155,
      "drivingDurationMs": 728765,
      "idlingDurationMs": 181390,
      "fuelConsumedMl": 273,
      "fuelConsumedGallons": 0.072,
      "maxSpeedMph": 33.6,
      "averageSpeedMph": 14.7,
      "safetyEvents": [],
      "_no_driver_login": false,
      "_fuel_note": ""
    },
    {
      "id": "trip_48291034_20250306_008",
      "vehicleId": "48291034",
      "driverId": "22831033",
      "startMs": 1741242840000,
      "endMs": 1741246333041,
      "startLocation": {
        "latitude": 35.053517,
        "longitude": -106.565619
      },
      "endLocation": {
        "latitude": 35.090109,
        "longitude": -106.568416
      },
      "startAddress": "179 Osborne Causeway",
      "endAddress": "038 Adams Shoals Apt. 084",
      "startCoords": {
        "latitude": 35.065635,
        "longitude": -106.618243
      },
      "endCoords": {
        "latitude": 35.137948,
        "longitude": -106.591694
      },
      "distanceMeters": 22912.7,
      "durationMs": 3493042,
      "drivingDurationMs": 3021972,
      "idlingDurationMs": 471070,
      "fuelConsumedMl": 1037,
      "fuelConsumedGallons": 0.274,
      "maxSpeedMph": 36.5,
      "averageSpeedMph": 14.7,
      "safetyEvents": [],
      "_no_driver_login": false,
      "_fuel_note": ""
    },
    {
      "id": "trip_48291034_20250307_001",
      "vehicleId": "48291034",
      "driverId": "22831033",
      "startMs": 1741368960000,
      "endMs": 1741370297626,
      "startLocation": {
        "latitude": 35.162211,
        "longitude": -106.64564
      },
      "endLocation": {
        "latitude": 35.126701,
        "longitude": -106.600306
      },
      "startAddress": "95180 Miller Trail Apt. 019",
      "endAddress": "5268 Russell Wells Apt. 392",
      "startCoords": {
        "latitude": 35.099151,
        "longitude": -106.704275
      },
      "endCoords": {
        "latitude": 35.154809,
        "longitude": -106.673568
      },
      "distanceMeters": 10532.8,
      "durationMs": 1337626,
      "drivingDurationMs": 1095532,
      "idlingDurationMs": 242094,
      "fuelConsumedMl": 477,
      "fuelConsumedGallons": 0.126,
      "maxSpeedMph": 53.5,
      "averageSpeedMph": 17.6,
      "safetyEvents": [],
      "_no_driver_login": false,
      "_fuel_note": "QUIRK 5: fuelConsumedGallons is in US gallons. Multiply by 3.785 for litres. Samsara does not link fuel to specific Onfleet tasks."
    },
    {
      "id": "trip_48291034_20250307_002",
      "vehicleId": "48291034",
      "driverId": "22831033",
      "startMs": 1741372080000,
      "endMs": 1741375361451,
      "startLocation": {
        "latitude": 35.081615,
        "longitude": -106.561238
      },
      "endLocation": {
        "latitude": 35.145982,
        "longitude": -106.547482
      },
      "startAddress": "8109 Martha Turnpike",
      "endAddress": "20422 Cynthia Key Apt. 866",
      "startCoords": {
        "latitude": 35.038796,
        "longitude": -106.572545
      },
      "endCoords": {
        "latitude": 35.176873,
        "longitude": -106.5387
      },
      "distanceMeters": 20470.6,
      "durationMs": 3281452,
      "drivingDurationMs": 2860852,
      "idlingDurationMs": 420599,
      "fuelConsumedMl": 927,
      "fuelConsumedGallons": 0.245,
      "maxSpeedMph": 67.9,
      "averageSpeedMph": 14.0,
      "safetyEvents": [
        {
          "type": "speeding",
          "startMs": 1741375020000,
          "maxSpeedMph": 67.9
        }
      ],
      "_no_driver_login": false,
      "_fuel_note": ""
    },
    {
      "id": "trip_48291034_20250307_003",
      "vehicleId": "48291034",
      "driverId": "22831033",
      "startMs": 1741358160000,
      "endMs": 1741359704704,
      "startLocation": {
        "latitude": 35.120894,
        "longitude": -106.65441
      },
      "endLocation": {
        "latitude": 35.073056,
        "longitude": -106.611582
      },
      "startAddress": "2092 Meyer Streets",
      "endAddress": "1393 Kenneth Roads Suite 633",
      "startCoords": {
        "latitude": 35.158252,
        "longitude": -106.60026
      },
      "endCoords": {
        "latitude": 35.046571,
        "longitude": -106.629204
      },
      "distanceMeters": 10089.2,
      "durationMs": 1544704,
      "drivingDurationMs": 1341067,
      "idlingDurationMs": 203638,
      "fuelConsumedMl": 458,
      "fuelConsumedGallons": 0.121,
      "maxSpeedMph": 61.4,
      "averageSpeedMph": 14.6,
      "safetyEvents": [],
      "_no_driver_login": false,
      "_fuel_note": ""
    },
    {
      "id": "trip_48291034_20250307_004",
      "vehicleId": "48291034",
      "driverId": "22831033",
      "startMs": 1741338240000,
      "endMs": 1741341474130,
      "startLocation": {
        "latitude": 35.168505,
        "longitude": -106.577697
      },
      "endLocation": {
        "latitude": 35.115432,
        "longitude": -106.563851
      },
      "startAddress": "54973 Turner Harbor",
      "endAddress": "346 Gina Ferry Apt. 365",
      "startCoords": {
        "latitude": 35.062929,
        "longitude": -106.710562
      },
      "endCoords": {
        "latitude": 35.068041,
        "longitude": -106.559889
      },
      "distanceMeters": 22853.5,
      "durationMs": 3234131,
      "drivingDurationMs": 3048270,
      "idlingDurationMs": 185861,
      "fuelConsumedMl": 1033,
      "fuelConsumedGallons": 0.273,
      "maxSpeedMph": 64.3,
      "averageSpeedMph": 15.8,
      "safetyEvents": [],
      "_no_driver_login": false,
      "_fuel_note": ""
    },
    {
      "id": "trip_48291034_20250307_005",
      "vehicleId": "48291034",
      "driverId": "22831033",
      "startMs": 1741332960000,
      "endMs": 1741336047227,
      "startLocation": {
        "latitude": 35.098773,
        "longitude": -106.644455
      },
      "endLocation": {
        "latitude": 35.096431,
        "longitude": -106.570142
      },
      "startAddress": "3857 Green Ferry",
      "endAddress": "940 Steven Creek",
      "startCoords": {
        "latitude": 35.16597,
        "longitude": -106.686389
      },
      "endCoords": {
        "latitude": 35.142929,
        "longitude": -106.635496
      },
      "distanceMeters": 24700.8,
      "durationMs": 3087228,
      "drivingDurationMs": 2714500,
      "idlingDurationMs": 372727,
      "fuelConsumedMl": 1117,
      "fuelConsumedGallons": 0.295,
      "maxSpeedMph": 57.9,
      "averageSpeedMph": 17.9,
      "safetyEvents": [],
      "_no_driver_login": false,
      "_fuel_note": ""
    },
    {
      "id": "trip_48291034_20250307_006",
      "vehicleId": "48291034",
      "driverId": "22831033",
      "startMs": 1741369800000,
      "endMs": 1741370501939,
      "startLocation": {
        "latitude": 35.166547,
        "longitude": -106.614382
      },
      "endLocation": {
        "latitude": 35.126951,
        "longitude": -106.716864
      },
      "startAddress": "3121 Grimes Shore",
      "endAddress": "5432 George Shoal",
      "startCoords": {
        "latitude": 35.175076,
        "longitude": -106.636646
      },
      "endCoords": {
        "latitude": 35.176291,
        "longitude": -106.613758
      },
      "distanceMeters": 4904.2,
      "durationMs": 701940,
      "drivingDurationMs": 550631,
      "idlingDurationMs": 151308,
      "fuelConsumedMl": 223,
      "fuelConsumedGallons": 0.059,
      "maxSpeedMph": 59.4,
      "averageSpeedMph": 15.6,
      "safetyEvents": [],
      "_no_driver_login": false,
      "_fuel_note": ""
    },
    {
      "id": "trip_48291034_20250307_007",
      "vehicleId": "48291034",
      "driverId": "22831033",
      "startMs": 1741332360000,
      "endMs": 1741333791703,
      "startLocation": {
        "latitude": 35.045167,
        "longitude": -106.555278
      },
      "endLocation": {
        "latitude": 35.175708,
        "longitude": -106.606549
      },
      "startAddress": "5959 Jonathan Lights",
      "endAddress": "89265 Philip Estate Apt. 235",
      "startCoords": {
        "latitude": 35.104186,
        "longitude": -106.634932
      },
      "endCoords": {
        "latitude": 35.083128,
        "longitude": -106.655263
      },
      "distanceMeters": 11700.6,
      "durationMs": 1431703,
      "drivingDurationMs": 1171451,
      "idlingDurationMs": 260253,
      "fuelConsumedMl": 530,
      "fuelConsumedGallons": 0.14,
      "maxSpeedMph": 57.1,
      "averageSpeedMph": 18.3,
      "safetyEvents": [],
      "_no_driver_login": false,
      "_fuel_note": ""
    },
    {
      "id": "trip_48291034_20250307_008",
      "vehicleId": "48291034",
      "driverId": "22831033",
      "startMs": 1741359780000,
      "endMs": 1741362252625,
      "startLocation": {
        "latitude": 35.175956,
        "longitude": -106.722007
      },
      "endLocation": {
        "latitude": 35.083357,
        "longitude": -106.656185
      },
      "startAddress": "53416 Holloway Mount",
      "endAddress": "5760 Jessica Loop",
      "startCoords": {
        "latitude": 35.115303,
        "longitude": -106.715652
      },
      "endCoords": {
        "latitude": 35.124922,
        "longitude": -106.619926
      },
      "distanceMeters": 20192.1,
      "durationMs": 2472625,
      "drivingDurationMs": 2164667,
      "idlingDurationMs": 307958,
      "fuelConsumedMl": 912,
      "fuelConsumedGallons": 0.241,
      "maxSpeedMph": 48.9,
      "averageSpeedMph": 18.3,
      "safetyEvents": [],
      "_no_driver_login": false,
      "_fuel_note": ""
    },
    {
      "id": "trip_48291034_20250308_001",
      "vehicleId": "48291034",
      "driverId": "22831033",
      "startMs": 1741419840000,
      "endMs": 1741423805929,
      "startLocation": {
        "latitude": 35.162211,
        "longitude": -106.601306
      },
      "endLocation": {
        "latitude": 35.149559,
        "longitude": -106.613312
      },
      "startAddress": "634 Audrey Plains",
      "endAddress": "361 Javier Keys",
      "startCoords": {
        "latitude": 35.161235,
        "longitude": -106.626626
      },
      "endCoords": {
        "latitude": 35.058263,
        "longitude": -106.605669
      },
      "distanceMeters": 23625.0,
      "durationMs": 3965930,
      "drivingDurationMs": 3491735,
      "idlingDurationMs": 474195,
      "fuelConsumedMl": 1067,
      "fuelConsumedGallons": 0.282,
      "maxSpeedMph": 45.4,
      "averageSpeedMph": 13.3,
      "safetyEvents": [],
      "_no_driver_login": false,
      "_fuel_note": "QUIRK 5: fuelConsumedGallons is in US gallons. Multiply by 3.785 for litres. Samsara does not link fuel to specific Onfleet tasks."
    },
    {
      "id": "trip_48291034_20250308_002",
      "vehicleId": "48291034",
      "driverId": "22831033",
      "startMs": 1741458000000,
      "endMs": 1741459629250,
      "startLocation": {
        "latitude": 35.129781,
        "longitude": -106.675017
      },
      "endLocation": {
        "latitude": 35.166206,
        "longitude": -106.538861
      },
      "startAddress": "7679 Patel Grove",
      "endAddress": "9874 Maria Locks",
      "startCoords": {
        "latitude": 35.153954,
        "longitude": -106.685798
      },
      "endCoords": {
        "latitude": 35.148144,
        "longitude": -106.603045
      },
      "distanceMeters": 8455.4,
      "durationMs": 1629250,
      "drivingDurationMs": 1357474,
      "idlingDurationMs": 271776,
      "fuelConsumedMl": 382,
      "fuelConsumedGallons": 0.101,
      "maxSpeedMph": 33.4,
      "averageSpeedMph": 11.6,
      "safetyEvents": [],
      "_no_driver_login": false,
      "_fuel_note": ""
    },
    {
      "id": "trip_48291034_20250308_003",
      "vehicleId": "48291034",
      "driverId": "22831033",
      "startMs": 1741423020000,
      "endMs": 1741423736606,
      "startLocation": {
        "latitude": 35.046897,
        "longitude": -106.581
      },
      "endLocation": {
        "latitude": 35.139289,
        "longitude": -106.585958
      },
      "startAddress": "35258 Brian Bridge",
      "endAddress": "7013 Matthew Roads",
      "startCoords": {
        "latitude": 35.128822,
        "longitude": -106.718369
      },
      "endCoords": {
        "latitude": 35.163624,
        "longitude": -106.65701
      },
      "distanceMeters": 5677.2,
      "durationMs": 716606,
      "drivingDurationMs": 572825,
      "idlingDurationMs": 143781,
      "fuelConsumedMl": 257,
      "fuelConsumedGallons": 0.068,
      "maxSpeedMph": 47.1,
      "averageSpeedMph": 17.7,
      "safetyEvents": [],
      "_no_driver_login": false,
      "_fuel_note": ""
    },
    {
      "id": "trip_48291034_20250308_004",
      "vehicleId": "48291034",
      "driverId": "22831033",
      "startMs": 1741447140000,
      "endMs": 1741448539430,
      "startLocation": {
        "latitude": 35.062494,
        "longitude": -106.626025
      },
      "endLocation": {
        "latitude": 35.123609,
        "longitude": -106.627768
      },
      "startAddress": "47448 Martin Landing Apt. 446",
      "endAddress": "82532 Torres Cape Apt. 924",
      "startCoords": {
        "latitude": 35.065451,
        "longitude": -106.53725
      },
      "endCoords": {
        "latitude": 35.069474,
        "longitude": -106.578496
      },
      "distanceMeters": 7198.1,
      "durationMs": 1399430,
      "drivingDurationMs": 1165217,
      "idlingDurationMs": 234213,
      "fuelConsumedMl": 326,
      "fuelConsumedGallons": 0.086,
      "maxSpeedMph": 30.0,
      "averageSpeedMph": 11.5,
      "safetyEvents": [],
      "_no_driver_login": false,
      "_fuel_note": ""
    },
    {
      "id": "trip_48291034_20250308_005",
      "vehicleId": "48291034",
      "driverId": "22831033",
      "startMs": 1741437660000,
      "endMs": 1741439728529,
      "startLocation": {
        "latitude": 35.038782,
        "longitude": -106.610217
      },
      "endLocation": {
        "latitude": 35.038658,
        "longitude": -106.703602
      },
      "startAddress": "072 Tamara Island",
      "endAddress": "5910 Michelle Ridge",
      "startCoords": {
        "latitude": 35.071686,
        "longitude": -106.625302
      },
      "endCoords": {
        "latitude": 35.120952,
        "longitude": -106.667312
      },
      "distanceMeters": 14202.1,
      "durationMs": 2068529,
      "drivingDurationMs": 1884914,
      "idlingDurationMs": 183615,
      "fuelConsumedMl": 644,
      "fuelConsumedGallons": 0.17,
      "maxSpeedMph": 34.0,
      "averageSpeedMph": 15.4,
      "safetyEvents": [],
      "_no_driver_login": false,
      "_fuel_note": ""
    },
    {
      "id": "trip_48291034_20250308_006",
      "vehicleId": "48291034",
      "driverId": "22831033",
      "startMs": 1741455060000,
      "endMs": 1741456755885,
      "startLocation": {
        "latitude": 35.047507,
        "longitude": -106.541241
      },
      "endLocation": {
        "latitude": 35.059479,
        "longitude": -106.564591
      },
      "startAddress": "4677 Gregory Squares",
      "endAddress": "0241 Wade Loop",
      "startCoords": {
        "latitude": 35.165883,
        "longitude": -106.698262
      },
      "endCoords": {
        "latitude": 35.104047,
        "longitude": -106.589722
      },
      "distanceMeters": 14933.5,
      "durationMs": 1695886,
      "drivingDurationMs": 1464028,
      "idlingDurationMs": 231858,
      "fuelConsumedMl": 674,
      "fuelConsumedGallons": 0.178,
      "maxSpeedMph": 53.5,
      "averageSpeedMph": 19.7,
      "safetyEvents": [],
      "_no_driver_login": false,
      "_fuel_note": ""
    },
    {
      "id": "trip_48291034_20250308_007",
      "vehicleId": "48291034",
      "driverId": "22831033",
      "startMs": 1741416780000,
      "endMs": 1741419772289,
      "startLocation": {
        "latitude": 35.114153,
        "longitude": -106.627334
      },
      "endLocation": {
        "latitude": 35.090614,
        "longitude": -106.668839
      },
      "startAddress": "534 Anderson Track Apt. 781",
      "endAddress": "269 Michael Flat Suite 402",
      "startCoords": {
        "latitude": 35.160094,
        "longitude": -106.63696
      },
      "endCoords": {
        "latitude": 35.075668,
        "longitude": -106.553473
      },
      "distanceMeters": 15659.8,
      "durationMs": 2992289,
      "drivingDurationMs": 2430568,
      "idlingDurationMs": 561721,
      "fuelConsumedMl": 708,
      "fuelConsumedGallons": 0.187,
      "maxSpeedMph": 40.1,
      "averageSpeedMph": 11.7,
      "safetyEvents": [],
      "_no_driver_login": false,
      "_fuel_note": ""
    },
    {
      "id": "trip_48291034_20250310_001",
      "vehicleId": "48291034",
      "driverId": "22831033",
      "startMs": 1741632300000,
      "endMs": 1741634307616,
      "startLocation": {
        "latitude": 35.10659,
        "longitude": -106.687888
      },
      "endLocation": {
        "latitude": 35.141475,
        "longitude": -106.616212
      },
      "startAddress": "12993 Elizabeth Port",
      "endAddress": "5119 White Flats",
      "startCoords": {
        "latitude": 35.138171,
        "longitude": -106.668384
      },
      "endCoords": {
        "latitude": 35.046758,
        "longitude": -106.55765
      },
      "distanceMeters": 18870.3,
      "durationMs": 2007616,
      "drivingDurationMs": 1796210,
      "idlingDurationMs": 211407,
      "fuelConsumedMl": 852,
      "fuelConsumedGallons": 0.225,
      "maxSpeedMph": 58.5,
      "averageSpeedMph": 21.0,
      "safetyEvents": [],
      "_no_driver_login": false,
      "_fuel_note": "QUIRK 5: fuelConsumedGallons is in US gallons. Multiply by 3.785 for litres. Samsara does not link fuel to specific Onfleet tasks."
    },
    {
      "id": "trip_48291034_20250310_002",
      "vehicleId": "48291034",
      "driverId": "22831033",
      "startMs": 1741602720000,
      "endMs": 1741605449587,
      "startLocation": {
        "latitude": 35.061727,
        "longitude": -106.554486
      },
      "endLocation": {
        "latitude": 35.05288,
        "longitude": -106.660813
      },
      "startAddress": "3628 Dickson Knoll Suite 748",
      "endAddress": "46750 Freeman Field",
      "startCoords": {
        "latitude": 35.040474,
        "longitude": -106.711878
      },
      "endCoords": {
        "latitude": 35.149015,
        "longitude": -106.614225
      },
      "distanceMeters": 20326.3,
      "durationMs": 2729587,
      "drivingDurationMs": 2222091,
      "idlingDurationMs": 507497,
      "fuelConsumedMl": 920,
      "fuelConsumedGallons": 0.243,
      "maxSpeedMph": 68.4,
      "averageSpeedMph": 16.7,
      "safetyEvents": [
        {
          "type": "speeding",
          "startMs": 1741604820000,
          "maxSpeedMph": 68.4
        }
      ],
      "_no_driver_login": false,
      "_fuel_note": ""
    },
    {
      "id": "trip_48291034_20250310_003",
      "vehicleId": "48291034",
      "driverId": "22831033",
      "startMs": 1741589040000,
      "endMs": 1741590246082,
      "startLocation": {
        "latitude": 35.042138,
        "longitude": -106.55265
      },
      "endLocation": {
        "latitude": 35.08136,
        "longitude": -106.721072
      },
      "startAddress": "60924 Rebecca Hollow",
      "endAddress": "686 Hall Locks",
      "startCoords": {
        "latitude": 35.104219,
        "longitude": -106.542622
      },
      "endCoords": {
        "latitude": 35.111342,
        "longitude": -106.674524
      },
      "distanceMeters": 7108.2,
      "durationMs": 1206082,
      "drivingDurationMs": 973945,
      "idlingDurationMs": 232137,
      "fuelConsumedMl": 322,
      "fuelConsumedGallons": 0.085,
      "maxSpeedMph": 32.1,
      "averageSpeedMph": 13.2,
      "safetyEvents": [],
      "_no_driver_login": false,
      "_fuel_note": ""
    },
    {
      "id": "trip_48291034_20250310_004",
      "vehicleId": "48291034",
      "driverId": "22831033",
      "startMs": 1741590780000,
      "endMs": 1741594301713,
      "startLocation": {
        "latitude": 35.086931,
        "longitude": -106.666862
      },
      "endLocation": {
        "latitude": 35.066757,
        "longitude": -106.717304
      },
      "startAddress": "907 Raymond Roads",
      "endAddress": "0310 Santana Trace",
      "startCoords": {
        "latitude": 35.081757,
        "longitude": -106.618454
      },
      "endCoords": {
        "latitude": 35.11986,
        "longitude": -106.647691
      },
      "distanceMeters": 21181.2,
      "durationMs": 3521713,
      "drivingDurationMs": 3132183,
      "idlingDurationMs": 389530,
      "fuelConsumedMl": 958,
      "fuelConsumedGallons": 0.253,
      "maxSpeedMph": 48.5,
      "averageSpeedMph": 13.5,
      "safetyEvents": [],
      "_no_driver_login": false,
      "_fuel_note": ""
    },
    {
      "id": "trip_48291034_20250310_005",
      "vehicleId": "48291034",
      "driverId": "22831033",
      "startMs": 1741594980000,
      "endMs": 1741598003791,
      "startLocation": {
        "latitude": 35.104678,
        "longitude": -106.636265
      },
      "endLocation": {
        "latitude": 35.059156,
        "longitude": -106.625104
      },
      "startAddress": "21046 Cannon Prairie",
      "endAddress": "650 Gregory Cliff",
      "startCoords": {
        "latitude": 35.162096,
        "longitude": -106.584517
      },
      "endCoords": {
        "latitude": 35.063953,
        "longitude": -106.608474
      },
      "distanceMeters": 20988.5,
      "durationMs": 3023792,
      "drivingDurationMs": 2645963,
      "idlingDurationMs": 377829,
      "fuelConsumedMl": 950,
      "fuelConsumedGallons": 0.251,
      "maxSpeedMph": 45.3,
      "averageSpeedMph": 15.5,
      "safetyEvents": [],
      "_no_driver_login": false,
      "_fuel_note": ""
    },
    {
      "id": "trip_48291034_20250310_006",
      "vehicleId": "48291034",
      "driverId": null,
      "startMs": 1741627620000,
      "endMs": 1741629549320,
      "startLocation": {
        "latitude": 35.06185,
        "longitude": -106.695645
      },
      "endLocation": {
        "latitude": 35.083789,
        "longitude": -106.547625
      },
      "startAddress": "7996 Adams Hollow",
      "endAddress": "109 Courtney Square",
      "startCoords": {
        "latitude": 35.108503,
        "longitude": -106.627968
      },
      "endCoords": {
        "latitude": 35.041832,
        "longitude": -106.577099
      },
      "distanceMeters": 16610.7,
      "durationMs": 1929321,
      "drivingDurationMs": 1742354,
      "idlingDurationMs": 186967,
      "fuelConsumedMl": 750,
      "fuelConsumedGallons": 0.198,
      "maxSpeedMph": 30.3,
      "averageSpeedMph": 19.3,
      "safetyEvents": [],
      "_no_driver_login": true,
      "_fuel_note": ""
    },
    {
      "id": "trip_48291034_20250310_007",
      "vehicleId": "48291034",
      "driverId": "22831033",
      "startMs": 1741614780000,
      "endMs": 1741616888819,
      "startLocation": {
        "latitude": 35.128605,
        "longitude": -106.680607
      },
      "endLocation": {
        "latitude": 35.043802,
        "longitude": -106.698085
      },
      "startAddress": "88217 Walker Terrace",
      "endAddress": "3800 Michael Drive Suite 029",
      "startCoords": {
        "latitude": 35.153721,
        "longitude": -106.67341
      },
      "endCoords": {
        "latitude": 35.106068,
        "longitude": -106.596367
      },
      "distanceMeters": 14237.9,
      "durationMs": 2108819,
      "drivingDurationMs": 1727060,
      "idlingDurationMs": 381759,
      "fuelConsumedMl": 644,
      "fuelConsumedGallons": 0.17,
      "maxSpeedMph": 55.3,
      "averageSpeedMph": 15.1,
      "safetyEvents": [],
      "_no_driver_login": false,
      "_fuel_note": ""
    },
    {
      "id": "trip_48291034_20250310_008",
      "vehicleId": "48291034",
      "driverId": "22831033",
      "startMs": 1741633080000,
      "endMs": 1741634272433,
      "startLocation": {
        "latitude": 35.052269,
        "longitude": -106.60623
      },
      "endLocation": {
        "latitude": 35.134942,
        "longitude": -106.670584
      },
      "startAddress": "4142 Shelley Overpass Apt. 790",
      "endAddress": "4092 Kathleen Divide",
      "startCoords": {
        "latitude": 35.164809,
        "longitude": -106.578442
      },
      "endCoords": {
        "latitude": 35.151011,
        "longitude": -106.570781
      },
      "distanceMeters": 6918.8,
      "durationMs": 1192433,
      "drivingDurationMs": 973217,
      "idlingDurationMs": 219216,
      "fuelConsumedMl": 314,
      "fuelConsumedGallons": 0.083,
      "maxSpeedMph": 52.0,
      "averageSpeedMph": 13.0,
      "safetyEvents": [],
      "_no_driver_login": false,
      "_fuel_note": ""
    },
    {
      "id": "trip_48291034_20250310_009",
      "vehicleId": "48291034",
      "driverId": "22831033",
      "startMs": 1741614900000,
      "endMs": 1741615858938,
      "startLocation": {
        "latitude": 35.13265,
        "longitude": -106.593179
      },
      "endLocation": {
        "latitude": 35.061781,
        "longitude": -106.621306
      },
      "startAddress": "7567 Cantu Gateway Apt. 823",
      "endAddress": "98706 Sanchez Street Apt. 941",
      "startCoords": {
        "latitude": 35.08486,
        "longitude": -106.721122
      },
      "endCoords": {
        "latitude": 35.070889,
        "longitude": -106.704463
      },
      "distanceMeters": 7963.1,
      "durationMs": 958938,
      "drivingDurationMs": 769636,
      "idlingDurationMs": 189302,
      "fuelConsumedMl": 360,
      "fuelConsumedGallons": 0.095,
      "maxSpeedMph": 43.8,
      "averageSpeedMph": 18.6,
      "safetyEvents": [],
      "_no_driver_login": false,
      "_fuel_note": ""
    },
    {
      "id": "trip_48291034_20250310_010",
      "vehicleId": "48291034",
      "driverId": "22831033",
      "startMs": 1741597260000,
      "endMs": 1741598061226,
      "startLocation": {
        "latitude": 35.11662,
        "longitude": -106.584112
      },
      "endLocation": {
        "latitude": 35.055909,
        "longitude": -106.550394
      },
      "startAddress": "6974 Pratt Prairie Apt. 190",
      "endAddress": "5474 Ferguson Club Apt. 110",
      "startCoords": {
        "latitude": 35.172909,
        "longitude": -106.596748
      },
      "endCoords": {
        "latitude": 35.086316,
        "longitude": -106.567503
      },
      "distanceMeters": 5531.7,
      "durationMs": 801227,
      "drivingDurationMs": 625243,
      "idlingDurationMs": 175983,
      "fuelConsumedMl": 250,
      "fuelConsumedGallons": 0.066,
      "maxSpeedMph": 55.9,
      "averageSpeedMph": 15.4,
      "safetyEvents": [],
      "_no_driver_login": false,
      "_fuel_note": ""
    },
    {
      "id": "trip_48291034_20250310_011",
      "vehicleId": "48291034",
      "driverId": "22831033",
      "startMs": 1741601760000,
      "endMs": 1741602692057,
      "startLocation": {
        "latitude": 35.130946,
        "longitude": -106.661399
      },
      "endLocation": {
        "latitude": 35.094219,
        "longitude": -106.55553
      },
      "startAddress": "73287 Jackson Islands",
      "endAddress": "622 Theresa Pine Apt. 003",
      "startCoords": {
        "latitude": 35.102506,
        "longitude": -106.704833
      },
      "endCoords": {
        "latitude": 35.164309,
        "longitude": -106.667139
      },
      "distanceMeters": 7855.7,
      "durationMs": 932057,
      "drivingDurationMs": 750023,
      "idlingDurationMs": 182034,
      "fuelConsumedMl": 356,
      "fuelConsumedGallons": 0.094,
      "maxSpeedMph": 39.4,
      "averageSpeedMph": 18.9,
      "safetyEvents": [],
      "_no_driver_login": false,
      "_fuel_note": ""
    },
    {
      "id": "trip_48291034_20250310_012",
      "vehicleId": "48291034",
      "driverId": "22831033",
      "startMs": 1741593660000,
      "endMs": 1741596306351,
      "startLocation": {
        "latitude": 35.040486,
        "longitude": -106.644301
      },
      "endLocation": {
        "latitude": 35.096114,
        "longitude": -106.654357
      },
      "startAddress": "16610 Nichols Unions",
      "endAddress": "074 Meredith Terrace Suite 156",
      "startCoords": {
        "latitude": 35.180683,
        "longitude": -106.592121
      },
      "endCoords": {
        "latitude": 35.04235,
        "longitude": -106.661787
      },
      "distanceMeters": 14508.2,
      "durationMs": 2646351,
      "drivingDurationMs": 2174123,
      "idlingDurationMs": 472228,
      "fuelConsumedMl": 655,
      "fuelConsumedGallons": 0.173,
      "maxSpeedMph": 33.4,
      "averageSpeedMph": 12.3,
      "safetyEvents": [],
      "_no_driver_login": false,
      "_fuel_note": ""
    },
    {
      "id": "trip_48291034_20250310_013",
      "vehicleId": "48291034",
      "driverId": "22831033",
      "startMs": 1741622460000,
      "endMs": 1741623483418,
      "startLocation": {
        "latitude": 35.128916,
        "longitude": -106.68666
      },
      "endLocation": {
        "latitude": 35.141135,
        "longitude": -106.560608
      },
      "startAddress": "5273 Alan Mission Suite 636",
      "endAddress": "596 Franco Knoll Suite 402",
      "startCoords": {
        "latitude": 35.042588,
        "longitude": -106.668402
      },
      "endCoords": {
        "latitude": 35.109354,
        "longitude": -106.564216
      },
      "distanceMeters": 6933.6,
      "durationMs": 1023418,
      "drivingDurationMs": 837116,
      "idlingDurationMs": 186302,
      "fuelConsumedMl": 314,
      "fuelConsumedGallons": 0.083,
      "maxSpeedMph": 61.0,
      "averageSpeedMph": 15.2,
      "safetyEvents": [],
      "_no_driver_login": false,
      "_fuel_note": ""
    },
    {
      "id": "trip_48291034_20250310_014",
      "vehicleId": "48291034",
      "driverId": "22831033",
      "startMs": 1741594800000,
      "endMs": 1741595182956,
      "startLocation": {
        "latitude": 35.171313,
        "longitude": -106.671937
      },
      "endLocation": {
        "latitude": 35.173513,
        "longitude": -106.600727
      },
      "startAddress": "7306 Evans Turnpike",
      "endAddress": "2767 Charles Ways Suite 022",
      "startCoords": {
        "latitude": 35.061546,
        "longitude": -106.624085
      },
      "endCoords": {
        "latitude": 35.103521,
        "longitude": -106.640752
      },
      "distanceMeters": 2200.6,
      "durationMs": 382957,
      "drivingDurationMs": 208750,
      "idlingDurationMs": 174207,
      "fuelConsumedMl": 98,
      "fuelConsumedGallons": 0.026,
      "maxSpeedMph": 56.7,
      "averageSpeedMph": 12.9,
      "safetyEvents": [],
      "_no_driver_login": false,
      "_fuel_note": ""
    },
    {
      "id": "trip_48291034_20250310_015",
      "vehicleId": "48291034",
      "driverId": "22831033",
      "startMs": 1741589940000,
      "endMs": 1741592913434,
      "startLocation": {
        "latitude": 35.127671,
        "longitude": -106.68085
      },
      "endLocation": {
        "latitude": 35.073391,
        "longitude": -106.694716
      },
      "startAddress": "13989 Gregory Crest",
      "endAddress": "748 Dominguez Station",
      "startCoords": {
        "latitude": 35.099858,
        "longitude": -106.658582
      },
      "endCoords": {
        "latitude": 35.098319,
        "longitude": -106.673691
      },
      "distanceMeters": 21325.1,
      "durationMs": 2973435,
      "drivingDurationMs": 2432889,
      "idlingDurationMs": 540546,
      "fuelConsumedMl": 965,
      "fuelConsumedGallons": 0.255,
      "maxSpeedMph": 50.5,
      "averageSpeedMph": 16.0,
      "safetyEvents": [],
      "_no_driver_login": false,
      "_fuel_note": ""
    },
    {
      "id": "trip_48291034_20250310_016",
      "vehicleId": "48291034",
      "driverId": "22831033",
      "startMs": 1741598820000,
      "endMs": 1741600757377,
      "startLocation": {
        "latitude": 35.109896,
        "longitude": -106.575772
      },
      "endLocation": {
        "latitude": 35.078864,
        "longitude": -106.58931
      },
      "startAddress": "0048 Tate Road",
      "endAddress": "92471 Antonio Street",
      "startCoords": {
        "latitude": 35.145738,
        "longitude": -106.704111
      },
      "endCoords": {
        "latitude": 35.173506,
        "longitude": -106.544295
      },
      "distanceMeters": 16078.3,
      "durationMs": 1937377,
      "drivingDurationMs": 1605131,
      "idlingDurationMs": 332246,
      "fuelConsumedMl": 727,
      "fuelConsumedGallons": 0.192,
      "maxSpeedMph": 66.4,
      "averageSpeedMph": 18.6,
      "safetyEvents": [
        {
          "type": "speeding",
          "startMs": 1741600140000,
          "maxSpeedMph": 66.4
        }
      ],
      "_no_driver_login": false,
      "_fuel_note": ""
    },
    {
      "id": "trip_48291034_20250311_001",
      "vehicleId": "48291034",
      "driverId": null,
      "startMs": 1741696680000,
      "endMs": 1741700095363,
      "startLocation": {
        "latitude": 35.157105,
        "longitude": -106.71749
      },
      "endLocation": {
        "latitude": 35.077305,
        "longitude": -106.682168
      },
      "startAddress": "273 Oscar Land",
      "endAddress": "5215 Heather Mount",
      "startCoords": {
        "latitude": 35.088054,
        "longitude": -106.553945
      },
      "endCoords": {
        "latitude": 35.077797,
        "longitude": -106.720216
      },
      "distanceMeters": 24185.6,
      "durationMs": 3415363,
      "drivingDurationMs": 2943384,
      "idlingDurationMs": 471979,
      "fuelConsumedMl": 1094,
      "fuelConsumedGallons": 0.289,
      "maxSpeedMph": 63.8,
      "averageSpeedMph": 15.8,
      "safetyEvents": [],
      "_no_driver_login": true,
      "_fuel_note": "QUIRK 5: fuelConsumedGallons is in US gallons. Multiply by 3.785 for litres. Samsara does not link fuel to specific Onfleet tasks."
    },
    {
      "id": "trip_48291034_20250311_002",
      "vehicleId": "48291034",
      "driverId": "22831033",
      "startMs": 1741718520000,
      "endMs": 1741719121735,
      "startLocation": {
        "latitude": 35.178096,
        "longitude": -106.597336
      },
      "endLocation": {
        "latitude": 35.144348,
        "longitude": -106.697392
      },
      "startAddress": "69306 Derrick Lights",
      "endAddress": "92826 Walker Falls Apt. 792",
      "startCoords": {
        "latitude": 35.097608,
        "longitude": -106.553271
      },
      "endCoords": {
        "latitude": 35.127122,
        "longitude": -106.721193
      },
      "distanceMeters": 3830.0,
      "durationMs": 601736,
      "drivingDurationMs": 472981,
      "idlingDurationMs": 128755,
      "fuelConsumedMl": 174,
      "fuelConsumedGallons": 0.046,
      "maxSpeedMph": 63.7,
      "averageSpeedMph": 14.2,
      "safetyEvents": [],
      "_no_driver_login": false,
      "_fuel_note": ""
    },
    {
      "id": "trip_48291034_20250311_003",
      "vehicleId": "48291034",
      "driverId": "22831033",
      "startMs": 1741703160000,
      "endMs": 1741703825880,
      "startLocation": {
        "latitude": 35.042715,
        "longitude": -106.60542
      },
      "endLocation": {
        "latitude": 35.039852,
        "longitude": -106.654005
      },
      "startAddress": "2570 Philip Turnpike",
      "endAddress": "590 Holmes Pine",
      "startCoords": {
        "latitude": 35.13505,
        "longitude": -106.593424
      },
      "endCoords": {
        "latitude": 35.046516,
        "longitude": -106.604632
      },
      "distanceMeters": 3425.4,
      "durationMs": 665880,
      "drivingDurationMs": 523881,
      "idlingDurationMs": 141999,
      "fuelConsumedMl": 155,
      "fuelConsumedGallons": 0.041,
      "maxSpeedMph": 41.4,
      "averageSpeedMph": 11.5,
      "safetyEvents": [],
      "_no_driver_login": false,
      "_fuel_note": ""
    },
    {
      "id": "trip_48291034_20250311_004",
      "vehicleId": "48291034",
      "driverId": "22831033",
      "startMs": 1741691100000,
      "endMs": 1741694150492,
      "startLocation": {
        "latitude": 35.064825,
        "longitude": -106.697674
      },
      "endLocation": {
        "latitude": 35.099028,
        "longitude": -106.653114
      },
      "startAddress": "611 Buck Islands",
      "endAddress": "58840 Eric Crossroad",
      "startCoords": {
        "latitude": 35.114248,
        "longitude": -106.6354
      },
      "endCoords": {
        "latitude": 35.119986,
        "longitude": -106.558984
      },
      "distanceMeters": 20268.2,
      "durationMs": 3050492,
      "drivingDurationMs": 2458635,
      "idlingDurationMs": 591857,
      "fuelConsumedMl": 916,
      "fuelConsumedGallons": 0.242,
      "maxSpeedMph": 50.9,
      "averageSpeedMph": 14.9,
      "safetyEvents": [],
      "_no_driver_login": false,
      "_fuel_note": ""
    },
    {
      "id": "trip_48291034_20250311_005",
      "vehicleId": "48291034",
      "driverId": "22831033",
      "startMs": 1741702500000,
      "endMs": 1741703187178,
      "startLocation": {
        "latitude": 35.067445,
        "longitude": -106.617844
      },
      "endLocation": {
        "latitude": 35.052742,
        "longitude": -106.587641
      },
      "startAddress": "912 Robert Pass",
      "endAddress": "261 Thompson Roads Suite 824",
      "startCoords": {
        "latitude": 35.08172,
        "longitude": -106.597688
      },
      "endCoords": {
        "latitude": 35.097298,
        "longitude": -106.637934
      },
      "distanceMeters": 5245.1,
      "durationMs": 687178,
      "drivingDurationMs": 542205,
      "idlingDurationMs": 144974,
      "fuelConsumedMl": 238,
      "fuelConsumedGallons": 0.063,
      "maxSpeedMph": 36.2,
      "averageSpeedMph": 17.1,
      "safetyEvents": [],
      "_no_driver_login": false,
      "_fuel_note": ""
    },
    {
      "id": "trip_48291034_20250311_006",
      "vehicleId": "48291034",
      "driverId": "22831033",
      "startMs": 1741700340000,
      "endMs": 1741705119854,
      "startLocation": {
        "latitude": 35.043156,
        "longitude": -106.602627
      },
      "endLocation": {
        "latitude": 35.106665,
        "longitude": -106.639537
      },
      "startAddress": "012 Jason River Suite 444",
      "endAddress": "104 Rick Plaza",
      "startCoords": {
        "latitude": 35.135726,
        "longitude": -106.65259
      },
      "endCoords": {
        "latitude": 35.089954,
        "longitude": -106.686227
      },
      "distanceMeters": 24458.2,
      "durationMs": 4779854,
      "drivingDurationMs": 3884481,
      "idlingDurationMs": 895373,
      "fuelConsumedMl": 1105,
      "fuelConsumedGallons": 0.292,
      "maxSpeedMph": 68.3,
      "averageSpeedMph": 11.4,
      "safetyEvents": [
        {
          "type": "speeding",
          "startMs": 1741701120000,
          "maxSpeedMph": 68.3
        }
      ],
      "_no_driver_login": false,
      "_fuel_note": ""
    },
    {
      "id": "trip_48291034_20250311_007",
      "vehicleId": "48291034",
      "driverId": "22831033",
      "startMs": 1741676340000,
      "endMs": 1741680165819,
      "startLocation": {
        "latitude": 35.182546,
        "longitude": -106.569974
      },
      "endLocation": {
        "latitude": 35.125395,
        "longitude": -106.630277
      },
      "startAddress": "575 Michael Extensions",
      "endAddress": "64877 Taylor Village Apt. 439",
      "startCoords": {
        "latitude": 35.086138,
        "longitude": -106.719521
      },
      "endCoords": {
        "latitude": 35.052202,
        "longitude": -106.581186
      },
      "distanceMeters": 21321.7,
      "durationMs": 3825819,
      "drivingDurationMs": 3216422,
      "idlingDurationMs": 609397,
      "fuelConsumedMl": 965,
      "fuelConsumedGallons": 0.255,
      "maxSpeedMph": 52.3,
      "averageSpeedMph": 12.5,
      "safetyEvents": [],
      "_no_driver_login": false,
      "_fuel_note": ""
    },
    {
      "id": "trip_48291034_20250311_008",
      "vehicleId": "48291034",
      "driverId": "22831033",
      "startMs": 1741677360000,
      "endMs": 1741678415833,
      "startLocation": {
        "latitude": 35.073762,
        "longitude": -106.599579
      },
      "endLocation": {
        "latitude": 35.074141,
        "longitude": -106.709341
      },
      "startAddress": "95302 Sherri Terrace Suite 841",
      "endAddress": "3057 Ali Isle Suite 403",
      "startCoords": {
        "latitude": 35.100563,
        "longitude": -106.64373
      },
      "endCoords": {
        "latitude": 35.043665,
        "longitude": -106.62606
      },
      "distanceMeters": 7136.8,
      "durationMs": 1055834,
      "drivingDurationMs": 848178,
      "idlingDurationMs": 207656,
      "fuelConsumedMl": 322,
      "fuelConsumedGallons": 0.085,
      "maxSpeedMph": 47.3,
      "averageSpeedMph": 15.1,
      "safetyEvents": [],
      "_no_driver_login": false,
      "_fuel_note": ""
    },
    {
      "id": "trip_48291034_20250311_009",
      "vehicleId": "48291034",
      "driverId": "22831033",
      "startMs": 1741694700000,
      "endMs": 1741695695267,
      "startLocation": {
        "latitude": 35.076063,
        "longitude": -106.600305
      },
      "endLocation": {
        "latitude": 35.134965,
        "longitude": -106.598678
      },
      "startAddress": "791 Fischer Park",
      "endAddress": "183 James Street",
      "startCoords": {
        "latitude": 35.088817,
        "longitude": -106.656524
      },
      "endCoords": {
        "latitude": 35.149313,
        "longitude": -106.569774
      },
      "distanceMeters": 7429.5,
      "durationMs": 995267,
      "drivingDurationMs": 815092,
      "idlingDurationMs": 180175,
      "fuelConsumedMl": 337,
      "fuelConsumedGallons": 0.089,
      "maxSpeedMph": 52.1,
      "averageSpeedMph": 16.7,
      "safetyEvents": [],
      "_no_driver_login": false,
      "_fuel_note": ""
    },
    {
      "id": "trip_48291034_20250311_010",
      "vehicleId": "48291034",
      "driverId": "22831033",
      "startMs": 1741701660000,
      "endMs": 1741703355008,
      "startLocation": {
        "latitude": 35.079882,
        "longitude": -106.697011
      },
      "endLocation": {
        "latitude": 35.062389,
        "longitude": -106.582929
      },
      "startAddress": "184 Tanner Expressway",
      "endAddress": "7494 Richard Park",
      "startCoords": {
        "latitude": 35.12332,
        "longitude": -106.697406
      },
      "endCoords": {
        "latitude": 35.065995,
        "longitude": -106.619921
      },
      "distanceMeters": 13351.1,
      "durationMs": 1695009,
      "drivingDurationMs": 1398279,
      "idlingDurationMs": 296730,
      "fuelConsumedMl": 606,
      "fuelConsumedGallons": 0.16,
      "maxSpeedMph": 60.9,
      "averageSpeedMph": 17.6,
      "safetyEvents": [],
      "_no_driver_login": false,
      "_fuel_note": ""
    },
    {
      "id": "trip_48291034_20250311_011",
      "vehicleId": "48291034",
      "driverId": "22831033",
      "startMs": 1741712940000,
      "endMs": 1741713440658,
      "startLocation": {
        "latitude": 35.063136,
        "longitude": -106.560221
      },
      "endLocation": {
        "latitude": 35.1187,
        "longitude": -106.604418
      },
      "startAddress": "6893 Patrick Street",
      "endAddress": "0040 James Island Apt. 159",
      "startCoords": {
        "latitude": 35.151565,
        "longitude": -106.614712
      },
      "endCoords": {
        "latitude": 35.125474,
        "longitude": -106.70464
      },
      "distanceMeters": 3370.7,
      "durationMs": 500658,
      "drivingDurationMs": 357444,
      "idlingDurationMs": 143214,
      "fuelConsumedMl": 151,
      "fuelConsumedGallons": 0.04,
      "maxSpeedMph": 38.4,
      "averageSpeedMph": 15.1,
      "safetyEvents": [],
      "_no_driver_login": false,
      "_fuel_note": ""
    },
    {
      "id": "trip_48291034_20250312_001",
      "vehicleId": "48291034",
      "driverId": "22831033",
      "startMs": 1741795620000,
      "endMs": 1741797974148,
      "startLocation": {
        "latitude": 35.159916,
        "longitude": -106.548691
      },
      "endLocation": {
        "latitude": 35.181703,
        "longitude": -106.672763
      },
      "startAddress": "919 John Island Apt. 263",
      "endAddress": "0297 Perry Neck Apt. 393",
      "startCoords": {
        "latitude": 35.06194,
        "longitude": -106.572337
      },
      "endCoords": {
        "latitude": 35.176335,
        "longitude": -106.608872
      },
      "distanceMeters": 18759.9,
      "durationMs": 2354148,
      "drivingDurationMs": 2080021,
      "idlingDurationMs": 274127,
      "fuelConsumedMl": 848,
      "fuelConsumedGallons": 0.224,
      "maxSpeedMph": 72.0,
      "averageSpeedMph": 17.8,
      "safetyEvents": [
        {
          "type": "speeding",
          "startMs": 1741796880000,
          "maxSpeedMph": 72.0
        }
      ],
      "_no_driver_login": false,
      "_fuel_note": "QUIRK 5: fuelConsumedGallons is in US gallons. Multiply by 3.785 for litres. Samsara does not link fuel to specific Onfleet tasks."
    },
    {
      "id": "trip_48291034_20250312_002",
      "vehicleId": "48291034",
      "driverId": "22831033",
      "startMs": 1741766820000,
      "endMs": 1741770609050,
      "startLocation": {
        "latitude": 35.150665,
        "longitude": -106.624155
      },
      "endLocation": {
        "latitude": 35.11443,
        "longitude": -106.653773
      },
      "startAddress": "2837 Philip Throughway",
      "endAddress": "918 Fisher Run",
      "startCoords": {
        "latitude": 35.178494,
        "longitude": -106.659354
      },
      "endCoords": {
        "latitude": 35.166947,
        "longitude": -106.655013
      },
      "distanceMeters": 23170.8,
      "durationMs": 3789050,
      "drivingDurationMs": 3335763,
      "idlingDurationMs": 453287,
      "fuelConsumedMl": 1049,
      "fuelConsumedGallons": 0.277,
      "maxSpeedMph": 43.5,
      "averageSpeedMph": 13.7,
      "safetyEvents": [],
      "_no_driver_login": false,
      "_fuel_note": ""
    },
    {
      "id": "trip_48291034_20250312_003",
      "vehicleId": "48291034",
      "driverId": null,
      "startMs": 1741801380000,
      "endMs": 1741802185149,
      "startLocation": {
        "latitude": 35.051036,
        "longitude": -106.714152
      },
      "endLocation": {
        "latitude": 35.050598,
        "longitude": -106.548978
      },
      "startAddress": "24462 Corey Field",
      "endAddress": "430 Amy Field",
      "startCoords": {
        "latitude": 35.092389,
        "longitude": -106.546259
      },
      "endCoords": {
        "latitude": 35.135891,
        "longitude": -106.686182
      },
      "distanceMeters": 4037.2,
      "durationMs": 805150,
      "drivingDurationMs": 626365,
      "idlingDurationMs": 178785,
      "fuelConsumedMl": 182,
      "fuelConsumedGallons": 0.048,
      "maxSpeedMph": 29.7,
      "averageSpeedMph": 11.2,
      "safetyEvents": [],
      "_no_driver_login": true,
      "_fuel_note": ""
    },
    {
      "id": "trip_48291034_20250312_004",
      "vehicleId": "48291034",
      "driverId": "22831033",
      "startMs": 1741794840000,
      "endMs": 1741797096839,
      "startLocation": {
        "latitude": 35.113286,
        "longitude": -106.649655
      },
      "endLocation": {
        "latitude": 35.181835,
        "longitude": -106.628153
      },
      "startAddress": "5103 Jeremy Unions Suite 819",
      "endAddress": "54166 Melissa Tunnel Suite 928",
      "startCoords": {
        "latitude": 35.142764,
        "longitude": -106.537566
      },
      "endCoords": {
        "latitude": 35.099545,
        "longitude": -106.613543
      },
      "distanceMeters": 13579.1,
      "durationMs": 2256839,
      "drivingDurationMs": 1888061,
      "idlingDurationMs": 368779,
      "fuelConsumedMl": 613,
      "fuelConsumedGallons": 0.162,
      "maxSpeedMph": 54.2,
      "averageSpeedMph": 13.5,
      "safetyEvents": [],
      "_no_driver_login": false,
      "_fuel_note": ""
    },
    {
      "id": "trip_48291034_20250312_005",
      "vehicleId": "48291034",
      "driverId": "22831033",
      "startMs": 1741788600000,
      "endMs": 1741792270851,
      "startLocation": {
        "latitude": 35.079442,
        "longitude": -106.542774
      },
      "endLocation": {
        "latitude": 35.159583,
        "longitude": -106.698101
      },
      "startAddress": "35151 Hall Point",
      "endAddress": "7764 Jessica Land",
      "startCoords": {
        "latitude": 35.121144,
        "longitude": -106.698139
      },
      "endCoords": {
        "latitude": 35.118293,
        "longitude": -106.675659
      },
      "distanceMeters": 20630.9,
      "durationMs": 3670852,
      "drivingDurationMs": 3317547,
      "idlingDurationMs": 353304,
      "fuelConsumedMl": 935,
      "fuelConsumedGallons": 0.247,
      "maxSpeedMph": 62.8,
      "averageSpeedMph": 12.6,
      "safetyEvents": [],
      "_no_driver_login": false,
      "_fuel_note": ""
    },
    {
      "id": "trip_48291034_20250312_006",
      "vehicleId": "48291034",
      "driverId": "22831033",
      "startMs": 1741787460000,
      "endMs": 1741788984567,
      "startLocation": {
        "latitude": 35.165666,
        "longitude": -106.588194
      },
      "endLocation": {
        "latitude": 35.102958,
        "longitude": -106.666896
      },
      "startAddress": "245 Shannon Pass",
      "endAddress": "939 Tracie Square",
      "startCoords": {
        "latitude": 35.15662,
        "longitude": -106.70566
      },
      "endCoords": {
        "latitude": 35.142797,
        "longitude": -106.660594
      },
      "distanceMeters": 10990.8,
      "durationMs": 1524568,
      "drivingDurationMs": 1222950,
      "idlingDurationMs": 301618,
      "fuelConsumedMl": 496,
      "fuelConsumedGallons": 0.131,
      "maxSpeedMph": 44.1,
      "averageSpeedMph": 16.1,
      "safetyEvents": [],
      "_no_driver_login": false,
      "_fuel_note": ""
    },
    {
      "id": "trip_48291034_20250312_007",
      "vehicleId": "48291034",
      "driverId": "22831033",
      "startMs": 1741786680000,
      "endMs": 1741789461631,
      "startLocation": {
        "latitude": 35.063347,
        "longitude": -106.599441
      },
      "endLocation": {
        "latitude": 35.11174,
        "longitude": -106.66862
      },
      "startAddress": "227 Robert Ports Suite 479",
      "endAddress": "3900 Barry Estates",
      "startCoords": {
        "latitude": 35.101755,
        "longitude": -106.633561
      },
      "endCoords": {
        "latitude": 35.048685,
        "longitude": -106.633717
      },
      "distanceMeters": 19119.8,
      "durationMs": 2781632,
      "drivingDurationMs": 2252437,
      "idlingDurationMs": 529194,
      "fuelConsumedMl": 863,
      "fuelConsumedGallons": 0.228,
      "maxSpeedMph": 36.3,
      "averageSpeedMph": 15.4,
      "safetyEvents": [],
      "_no_driver_login": false,
      "_fuel_note": ""
    },
    {
      "id": "trip_48291034_20250312_008",
      "vehicleId": "48291034",
      "driverId": "22831033",
      "startMs": 1741804500000,
      "endMs": 1741807293165,
      "startLocation": {
        "latitude": 35.16904,
        "longitude": -106.653134
      },
      "endLocation": {
        "latitude": 35.145733,
        "longitude": -106.629202
      },
      "startAddress": "38443 Holden Locks",
      "endAddress": "118 Justin Village Apt. 188",
      "startCoords": {
        "latitude": 35.094296,
        "longitude": -106.651943
      },
      "endCoords": {
        "latitude": 35.1717,
        "longitude": -106.58885
      },
      "distanceMeters": 24653.3,
      "durationMs": 2793166,
      "drivingDurationMs": 2468519,
      "idlingDurationMs": 324647,
      "fuelConsumedMl": 1117,
      "fuelConsumedGallons": 0.295,
      "maxSpeedMph": 46.3,
      "averageSpeedMph": 19.7,
      "safetyEvents": [],
      "_no_driver_login": false,
      "_fuel_note": ""
    },
    {
      "id": "trip_48291034_20250312_009",
      "vehicleId": "48291034",
      "driverId": "22831033",
      "startMs": 1741779420000,
      "endMs": 1741780910644,
      "startLocation": {
        "latitude": 35.07589,
        "longitude": -106.593496
      },
      "endLocation": {
        "latitude": 35.177115,
        "longitude": -106.65742
      },
      "startAddress": "4459 Tyler Drives",
      "endAddress": "7211 Victoria Ville Apt. 481",
      "startCoords": {
        "latitude": 35.062951,
        "longitude": -106.700384
      },
      "endCoords": {
        "latitude": 35.060735,
        "longitude": -106.613026
      },
      "distanceMeters": 13727.4,
      "durationMs": 1490645,
      "drivingDurationMs": 1302814,
      "idlingDurationMs": 187831,
      "fuelConsumedMl": 621,
      "fuelConsumedGallons": 0.164,
      "maxSpeedMph": 67.2,
      "averageSpeedMph": 20.6,
      "safetyEvents": [
        {
          "type": "speeding",
          "startMs": 1741779960000,
          "maxSpeedMph": 67.2
        }
      ],
      "_no_driver_login": false,
      "_fuel_note": ""
    },
    {
      "id": "trip_48291034_20250312_010",
      "vehicleId": "48291034",
      "driverId": "22831033",
      "startMs": 1741767840000,
      "endMs": 1741769559690,
      "startLocation": {
        "latitude": 35.171196,
        "longitude": -106.628149
      },
      "endLocation": {
        "latitude": 35.068532,
        "longitude": -106.670822
      },