{
  "vehicleId": "44865715",
  "vehicleName": "ABQ-VAN-01",
  "month": "2025_03",
  "pagination": {
    "endCursor": "trip_44865715_20250331_12707",
    "hasNextPage": false
  },
  "trips": [
    {
      "id": "trip_44865715_20250301_8165",
      "vehicleId": "44865715",
      "driverId": "20000046",
      "startMs": 1740796441000,
      "endMs": 1740801921000,
      "startAddress": "53662 Simon Bypass Suite 035",
      "endAddress": "0563 Schneider Gardens Apt. 600",
      "startCoords": {
        "latitude": 35.093752,
        "longitude": -106.663448
      },
      "endCoords": {
        "latitude": 35.127667,
        "longitude": -106.550513
      },
      "distanceMeters": 39296.4,
      "durationMs": 5480000,
      "drivingDurationMs": 4769052,
      "idlingDurationMs": 710948,
      "fuelConsumedMl": 4997,
      "fuelConsumedGallons": 1.32,
      "maxSpeedMph": 35.9,
      "averageSpeedMph": 16.0,
      "safetyEvents": []
    },
    {
      "id": "trip_44865715_20250301_8223",
      "vehicleId": "44865715",
      "driverId": "20000045",
      "startMs": 1740832893000,
      "endMs": 1740834933000,
      "startAddress": "40640 Morgan Locks Apt. 656",
      "endAddress": "30750 Spencer Bridge Apt. 431",
      "startCoords": {
        "latitude": 35.172209,
        "longitude": -106.650496
      },
      "endCoords": {
        "latitude": 35.039452,
        "longitude": -106.609509
      },
      "distanceMeters": 11627.8,
      "durationMs": 2040000,
      "drivingDurationMs": 1823536,
      "idlingDurationMs": 216464,
      "fuelConsumedMl": 1480,
      "fuelConsumedGallons": 0.391,
      "maxSpeedMph": 33.1,
      "averageSpeedMph": 12.8,
      "safetyEvents": []
    },
    {
      "id": "trip_44865715_20250301_8285",
      "vehicleId": "44865715",
      "driverId": "20000044",
      "startMs": 1740864682000,
      "endMs": 1740867022000,
      "startAddress": "418 Tyler Station",
      "endAddress": "5649 Caroline Plaza",
      "startCoords": {
        "latitude": 35.038429,
        "longitude": -106.608601
      },
      "endCoords": {
        "latitude": 35.134401,
        "longitude": -106.616322
      },
      "distanceMeters": 14167.7,
      "durationMs": 2340000,
      "drivingDurationMs": 2102122,
      "idlingDurationMs": 237878,
      "fuelConsumedMl": 1802,
      "fuelConsumedGallons": 0.476,
      "maxSpeedMph": 32.4,
      "averageSpeedMph": 13.5,
      "safetyEvents": []
    },
    {
      "id": "trip_44865715_20250302_8317",
      "vehicleId": "44865715",
      "driverId": "20000044",
      "startMs": 1740885838000,
      "endMs": 1740886978000,
      "startAddress": "610 Gloria Greens Suite 090",
      "endAddress": "1016 Madison Centers Suite 858",
      "startCoords": {
        "latitude": 35.058715,
        "longitude": -106.70022
      },
      "endCoords": {
        "latitude": 35.06174,
        "longitude": -106.615381
      },
      "distanceMeters": 6116.4,
      "durationMs": 1140000,
      "drivingDurationMs": 1010946,
      "idlingDurationMs": 129054,
      "fuelConsumedMl": 776,
      "fuelConsumedGallons": 0.205,
      "maxSpeedMph": 31.0,
      "averageSpeedMph": 12.0,
      "safetyEvents": []
    },
    {
      "id": "trip_44865715_20250302_8375",
      "vehicleId": "44865715",
      "driverId": "20000044",
      "startMs": 1740931320000,
      "endMs": 1740933780000,
      "startAddress": "52111 Victor Land",
      "endAddress": "63222 Cynthia Ports Suite 831",
      "startCoords": {
        "latitude": 35.087499,
        "longitude": -106.573131
      },
      "endCoords": {
        "latitude": 35.0784,
        "longitude": -106.650227
      },
      "distanceMeters": 15122.4,
      "durationMs": 2460000,
      "drivingDurationMs": 1851144,
      "idlingDurationMs": 608856,
      "fuelConsumedMl": 1923,
      "fuelConsumedGallons": 0.508,
      "maxSpeedMph": 28.4,
      "averageSpeedMph": 13.8,
      "safetyEvents": []
    },
    {
      "id": "trip_44865715_20250303_8440",
      "vehicleId": "44865715",
      "driverId": "20000046",
      "startMs": 1740997302000,
      "endMs": 1740999222000,
      "startAddress": "435 Hart Flat Suite 635",
      "endAddress": "0601 Watson Spur",
      "startCoords": {
        "latitude": 35.048114,
        "longitude": -106.684946
      },
      "endCoords": {
        "latitude": 35.140829,
        "longitude": -106.681194
      },
      "distanceMeters": 12906.1,
      "durationMs": 1920000,
      "drivingDurationMs": 1509855,
      "idlingDurationMs": 410145,
      "fuelConsumedMl": 1639,
      "fuelConsumedGallons": 0.433,
      "maxSpeedMph": 37.3,
      "averageSpeedMph": 15.0,
      "safetyEvents": []
    },
    {
      "id": "trip_44865715_20250303_8476",
      "vehicleId": "44865715",
      "driverId": "20000045",
      "startMs": 1741014611000,
      "endMs": 1741016351000,
      "startAddress": "3084 Blackwell Motorway Apt. 799",
      "endAddress": "37712 Debbie Extensions Apt. 916",
      "startCoords": {
        "latitude": 35.177057,
        "longitude": -106.629294
      },
      "endCoords": {
        "latitude": 35.144657,
        "longitude": -106.663969
      },
      "distanceMeters": 11701.5,
      "durationMs": 1740000,
      "drivingDurationMs": 1519834,
      "idlingDurationMs": 220166,
      "fuelConsumedMl": 1488,
      "fuelConsumedGallons": 0.393,
      "maxSpeedMph": 35.6,
      "averageSpeedMph": 15.0,
      "safetyEvents": []
    },
    {
      "id": "trip_44865715_20250303_8517",
      "vehicleId": "44865715",
      "driverId": "20000044",
      "startMs": 1741033710000,
      "endMs": 1741044390000,
      "startAddress": "464 Tina Via Apt. 949",
      "endAddress": "222 Justin Road Apt. 755",
      "startCoords": {
        "latitude": 35.079896,
        "longitude": -106.581785
      },
      "endCoords": {
        "latitude": 35.088391,
        "longitude": -106.695165
      },
      "distanceMeters": 64933.6,
      "durationMs": 10680000,
      "drivingDurationMs": 8600587,
      "idlingDurationMs": 2079413,
      "fuelConsumedMl": 8256,
      "fuelConsumedGallons": 2.181,
      "maxSpeedMph": 28.8,
      "averageSpeedMph": 13.6,
      "safetyEvents": []
    },
    {
      "id": "trip_44865715_20250304_8560",
      "vehicleId": "44865715",
      "driverId": "20000045",
      "startMs": 1741060687000,
      "endMs": 1741065192000,
      "startAddress": "6143 Steven Stravenue",
      "endAddress": "8501 Jones Streets Suite 029",
      "startCoords": {
        "latitude": 35.069393,
        "longitude": -106.558683
      },
      "endCoords": {
        "latitude": 35.045181,
        "longitude": -106.702249
      },
      "distanceMeters": 26081.0,
      "durationMs": 4505000,
      "drivingDurationMs": 3677436,
      "idlingDurationMs": 827564,
      "fuelConsumedMl": 3316,
      "fuelConsumedGallons": 0.876,
      "maxSpeedMph": 37.3,
      "averageSpeedMph": 13.0,
      "safetyEvents": []
    },
    {
      "id": "trip_44865715_20250304_8619",
      "vehicleId": "44865715",
      "driverId": "20000045",
      "startMs": 1741090260000,
      "endMs": 1741092120000,
      "startAddress": "998 Stuart Drives Apt. 511",
      "endAddress": "149 Mcclure View",
      "startCoords": {
        "latitude": 35.127372,
        "longitude": -106.626408
      },
      "endCoords": {
        "latitude": 35.101864,
        "longitude": -106.695127
      },
      "distanceMeters": 9355.4,
      "durationMs": 1860000,
      "drivingDurationMs": 1530159,
      "idlingDurationMs": 329841,
      "fuelConsumedMl": 1189,
      "fuelConsumedGallons": 0.314,
      "maxSpeedMph": 39.4,
      "averageSpeedMph": 11.3,
      "safetyEvents": []
    },
    {
      "id": "trip_44865715_20250304_8639",
      "vehicleId": "44865715",
      "driverId": "20000045",
      "startMs": 1741099888000,
      "endMs": 1741107894000,
      "startAddress": "09517 Sarah Viaduct",
      "endAddress": "6474 Taylor Lane Suite 992",
      "startCoords": {
        "latitude": 35.116784,
        "longitude": -106.577421
      },
      "endCoords": {
        "latitude": 35.162545,
        "longitude": -106.591263
      },
      "distanceMeters": 41570.9,
      "durationMs": 8006000,
      "drivingDurationMs": 6505358,
      "idlingDurationMs": 1500642,
      "fuelConsumedMl": 5284,
      "fuelConsumedGallons": 1.396,
      "maxSpeedMph": 28.0,
      "averageSpeedMph": 11.6,
      "safetyEvents": []
    },
    {
      "id": "trip_44865715_20250304_8679",
      "vehicleId": "44865715",
      "driverId": "20000046",
      "startMs": 1741117927000,
      "endMs": 1741124263000,
      "startAddress": "430 James Greens",
      "endAddress": "9720 Jensen Mall",
      "startCoords": {
        "latitude": 35.115864,
        "longitude": -106.589169
      },
      "endCoords": {
        "latitude": 35.077025,
        "longitude": -106.614303
      },
      "distanceMeters": 47772.0,
      "durationMs": 6336000,
      "drivingDurationMs": 5488425,
      "idlingDurationMs": 847575,
      "fuelConsumedMl": 6076,
      "fuelConsumedGallons": 1.605,
      "maxSpeedMph": 28.8,
      "averageSpeedMph": 16.9,
      "safetyEvents": []
    },
    {
      "id": "trip_44865715_20250305_8707",
      "vehicleId": "44865715",
      "driverId": "20000044",
      "startMs": 1741134087000,
      "endMs": 1741135527000,
      "startAddress": "871 Caleb Estates Apt. 223",
      "endAddress": "635 Elizabeth Lakes",
      "startCoords": {
        "latitude": 35.118324,
        "longitude": -106.634651
      },
      "endCoords": {
        "latitude": 35.111386,
        "longitude": -106.70062
      },
      "distanceMeters": 6846.9,
      "durationMs": 1440000,
      "drivingDurationMs": 1223099,
      "idlingDurationMs": 216901,
      "fuelConsumedMl": 871,
      "fuelConsumedGallons": 0.23,
      "maxSpeedMph": 37.7,
      "averageSpeedMph": 10.6,
      "safetyEvents": []
    },
    {
      "id": "trip_44865715_20250305_8779",
      "vehicleId": "44865715",
      "driverId": "20000046",
      "startMs": 1741173010000,
      "endMs": 1741180073000,
      "startAddress": "849 Nicole Mountains",
      "endAddress": "54122 Matthew Junctions",
      "startCoords": {
        "latitude": 35.092244,
        "longitude": -106.697106
      },
      "endCoords": {
        "latitude": 35.042524,
        "longitude": -106.681042
      },
      "distanceMeters": 41680.7,
      "durationMs": 7063000,
      "drivingDurationMs": 6014897,
      "idlingDurationMs": 1048103,
      "fuelConsumedMl": 5300,
      "fuelConsumedGallons": 1.4,
      "maxSpeedMph": 38.2,
      "averageSpeedMph": 13.2,
      "safetyEvents": []
    },
    {
      "id": "trip_44865715_20250305_8816",
      "vehicleId": "44865715",
      "driverId": "20000044",
      "startMs": 1741189578000,
      "endMs": 1741191438000,
      "startAddress": "017 Ortiz Road Suite 768",
      "endAddress": "53747 Brandi Courts",
      "startCoords": {
        "latitude": 35.082632,
        "longitude": -106.618136
      },
      "endCoords": {
        "latitude": 35.14544,
        "longitude": -106.623943
      },
      "distanceMeters": 9725.0,
      "durationMs": 1860000,
      "drivingDurationMs": 1593278,
      "idlingDurationMs": 266722,
      "fuelConsumedMl": 1238,
      "fuelConsumedGallons": 0.327,
      "maxSpeedMph": 38.0,
      "averageSpeedMph": 11.7,
      "safetyEvents": []
    },
    {
      "id": "trip_44865715_20250306_8888",
      "vehicleId": "44865715",
      "driverId": "20000044",
      "startMs": 1741228137000,
      "endMs": 1741233411000,
      "startAddress": "61021 Sanders Cove",
      "endAddress": "88052 Tammy Trace",
      "startCoords": {
        "latitude": 35.111861,
        "longitude": -106.652083
      },
      "endCoords": {
        "latitude": 35.172728,
        "longitude": -106.701346
      },
      "distanceMeters": 20682.3,
      "durationMs": 5274000,
      "drivingDurationMs": 3985729,
      "idlingDurationMs": 1288271,
      "fuelConsumedMl": 2631,
      "fuelConsumedGallons": 0.695,
      "maxSpeedMph": 36.3,
      "averageSpeedMph": 8.8,
      "safetyEvents": []
    },
    {
      "id": "trip_44865715_20250306_8945",
      "vehicleId": "44865715",
      "driverId": "20000044",
      "startMs": 1741261055000,
      "endMs": 1741262855000,
      "startAddress": "723 Kenneth Manor Suite 300",
      "endAddress": "221 Contreras Mountain Apt. 531",
      "startCoords": {
        "latitude": 35.163372,
        "longitude": -106.58017
      },
      "endCoords": {
        "latitude": 35.080377,
        "longitude": -106.678426
      },
      "distanceMeters": 12083.6,
      "durationMs": 1800000,
      "drivingDurationMs": 1566815,
      "idlingDurationMs": 233185,
      "fuelConsumedMl": 1537,
      "fuelConsumedGallons": 0.406,
      "maxSpeedMph": 34.5,
      "averageSpeedMph": 15.0,
      "safetyEvents": []
    },
    {
      "id": "trip_44865715_20250306_8970",
      "vehicleId": "44865715",
      "driverId": "20000046",
      "startMs": 1741272105000,
      "endMs": 1741275737000,
      "startAddress": "164 Sandra Village Apt. 567",
      "endAddress": "845 Johnson Ville Suite 087",
      "startCoords": {
        "latitude": 35.072939,
        "longitude": -106.536339
      },
      "endCoords": {
        "latitude": 35.107591,
        "longitude": -106.69178
      },
      "distanceMeters": 20523.6,
      "durationMs": 3632000,
      "drivingDurationMs": 2920696,
      "idlingDurationMs": 711304,
      "fuelConsumedMl": 2608,
      "fuelConsumedGallons": 0.689,
      "maxSpeedMph": 34.3,
      "averageSpeedMph": 12.6,
      "safetyEvents": []
    },
    {
      "id": "trip_44865715_20250306_9014",
      "vehicleId": "44865715",
      "driverId": "20000044",
      "startMs": 1741295203000,
      "endMs": 1741297303000,
      "startAddress": "524 Taylor Hollow Suite 202",
      "endAddress": "1786 Durham Pass Apt. 923",
      "startCoords": {
        "latitude": 35.163114,
        "longitude": -106.553592
      },
      "endCoords": {
        "latitude": 35.132537,
        "longitude": -106.562739
      },
      "distanceMeters": 9458.8,
      "durationMs": 2100000,
      "drivingDurationMs": 1735439,
      "idlingDurationMs": 364561,
      "fuelConsumedMl": 1204,
      "fuelConsumedGallons": 0.318,
      "maxSpeedMph": 29.3,
      "averageSpeedMph": 10.1,
      "safetyEvents": []
    },
    {
      "id": "trip_44865715_20250307_9059",
      "vehicleId": "44865715",
      "driverId": "20000046",
      "startMs": 1741326049000,
      "endMs": 1741331317000,
      "startAddress": "595 John Keys",
      "endAddress": "058 Michael Spur Apt. 491",
      "startCoords": {
        "latitude": 35.044276,
        "longitude": -106.608124
      },
      "endCoords": {
        "latitude": 35.089666,
        "longitude": -106.555607
      },
      "distanceMeters": 28322.8,
      "durationMs": 5268000,
      "drivingDurationMs": 4352967,
      "idlingDurationMs": 915033,
      "fuelConsumedMl": 3600,
      "fuelConsumedGallons": 0.951,
      "maxSpeedMph": 26.9,
      "averageSpeedMph": 12.0,
      "safetyEvents": []
    },
    {
      "id": "trip_44865715_20250307_9120",
      "vehicleId": "44865715",
      "driverId": "20000045",
      "startMs": 1741356596000,
      "endMs": 1741364341000,
      "startAddress": "4646 White Ports",
      "endAddress": "7878 Katie Wall",
      "startCoords": {
        "latitude": 35.171555,
        "longitude": -106.677203
      },
      "endCoords": {
        "latitude": 35.144107,
        "longitude": -106.655578
      },
      "distanceMeters": 49723.0,
      "durationMs": 7745000,
      "drivingDurationMs": 6657044,
      "idlingDurationMs": 1087956,
      "fuelConsumedMl": 6322,
      "fuelConsumedGallons": 1.67,
      "maxSpeedMph": 29.2,
      "averageSpeedMph": 14.4,
      "safetyEvents": []
    },
    {
      "id": "trip_44865715_20250307_9153",
      "vehicleId": "44865715",
      "driverId": "20000045",
      "startMs": 1741375097000,
      "endMs": 1741377257000,
      "startAddress": "9920 Frazier Mission",
      "endAddress": "5515 Linda Rapids Apt. 465",
      "startCoords": {
        "latitude": 35.155071,
        "longitude": -106.607791
      },
      "endCoords": {
        "latitude": 35.118434,
        "longitude": -106.686143
      },
      "distanceMeters": 9329.5,
      "durationMs": 2160000,
      "drivingDurationMs": 1688202,
      "idlingDurationMs": 471798,
      "fuelConsumedMl": 1185,
      "fuelConsumedGallons": 0.313,
      "maxSpeedMph": 38.8,
      "averageSpeedMph": 9.7,
      "safetyEvents": []
    },
    {
      "id": "trip_44865715_20250307_9184",
      "vehicleId": "44865715",
      "driverId": "20000044",
      "startMs": 1741391798000,
      "endMs": 1741394318000,
      "startAddress": "68036 Marshall Bridge",
      "endAddress": "05554 Simpson Creek",
      "startCoords": {
        "latitude": 35.176108,
        "longitude": -106.723253
      },
      "endCoords": {
        "latitude": 35.082232,
        "longitude": -106.717755
      },
      "distanceMeters": 12392.9,
      "durationMs": 2520000,
      "drivingDurationMs": 2034403,
      "idlingDurationMs": 485597,
      "fuelConsumedMl": 1575,
      "fuelConsumedGallons": 0.416,
      "maxSpeedMph": 31.3,
      "averageSpeedMph": 11.0,
      "safetyEvents": []
    },
    {
      "id": "trip_44865715_20250308_9210",
      "vehicleId": "44865715",
      "driverId": "20000045",
      "startMs": 1741411618000,
      "endMs": 1741415053000,
      "startAddress": "33724 Miranda Terrace",
      "endAddress": "322 Martinez Cove",
      "startCoords": {
        "latitude": 35.07922,
        "longitude": -106.595517
      },
      "endCoords": {
        "latitude": 35.150268,
        "longitude": -106.614397
      },
      "distanceMeters": 18491.7,
      "durationMs": 3435000,
      "drivingDurationMs": 2650040,
      "idlingDurationMs": 784960,
      "fuelConsumedMl": 2351,
      "fuelConsumedGallons": 0.621,
      "maxSpeedMph": 28.8,
      "averageSpeedMph": 12.0,
      "safetyEvents": []
    },
    {
      "id": "trip_44865715_20250308_9253",
      "vehicleId": "44865715",
      "driverId": "20000046",
      "startMs": 1741431620000,
      "endMs": 1741433720000,
      "startAddress": "3131 Jennifer Creek",
      "endAddress": "1721 Brandy Greens",
      "startCoords": {
        "latitude": 35.125209,
        "longitude": -106.535688
      },
      "endCoords": {
        "latitude": 35.061315,
        "longitude": -106.574306
      },
      "distanceMeters": 14380.4,
      "durationMs": 2100000,
      "drivingDurationMs": 1765708,
      "idlingDurationMs": 334292,
      "fuelConsumedMl": 1828,
      "fuelConsumedGallons": 0.483,
      "maxSpeedMph": 29.8,
      "averageSpeedMph": 15.3,
      "safetyEvents": []
    },
    {
      "id": "trip_44865715_20250308_9295",
      "vehicleId": "44865715",
      "driverId": "20000046",
      "startMs": 1741450620000,
      "endMs": 1741452360000,
      "startAddress": "895 Sara Islands Suite 032",
      "endAddress": "19082 Garcia Square Suite 751",
      "startCoords": {
        "latitude": 35.177688,
        "longitude": -106.602198
      },
      "endCoords": {
        "latitude": 35.057805,
        "longitude": -106.621426
      },
      "distanceMeters": 10644.7,
      "durationMs": 1740000,
      "drivingDurationMs": 1392719,
      "idlingDurationMs": 347281,
      "fuelConsumedMl": 1355,
      "fuelConsumedGallons": 0.358,
      "maxSpeedMph": 36.9,
      "averageSpeedMph": 13.7,
      "safetyEvents": []
    },
    {
      "id": "trip_44865715_20250308_9323",
      "vehicleId": "44865715",
      "driverId": "20000046",
      "startMs": 1741467286000,
      "endMs": 1741468846000,
      "startAddress": "59267 Smith Trafficway Suite 410",
      "endAddress": "142 Schultz Lights Suite 621",
      "startCoords": {
        "latitude": 35.048696,
        "longitude": -106.635201
      },
      "endCoords": {
        "latitude": 35.11703,
        "longitude": -106.630703
      },
      "distanceMeters": 9944.5,
      "durationMs": 1560000,
      "drivingDurationMs": 1181399,
      "idlingDurationMs": 378601,
      "fuelConsumedMl": 1264,
      "fuelConsumedGallons": 0.334,
      "maxSpeedMph": 33.0,
      "averageSpeedMph": 14.3,
      "safetyEvents": []
    },
    {
      "id": "trip_44865715_20250309_9386",
      "vehicleId": "44865715",
      "driverId": "20000045",
      "startMs": 1741505812000,
      "endMs": 1741513508000,
      "startAddress": "29304 Bell Spring Apt. 587",
      "endAddress": "67817 Shawn Dam Apt. 057",
      "startCoords": {
        "latitude": 35.177071,
        "longitude": -106.577242
      },
      "endCoords": {
        "latitude": 35.155673,
        "longitude": -106.623056
      },
      "distanceMeters": 51265.3,
      "durationMs": 7696000,
      "drivingDurationMs": 6163470,
      "idlingDurationMs": 1532530,
      "fuelConsumedMl": 6518,
      "fuelConsumedGallons": 1.722,
      "maxSpeedMph": 33.4,
      "averageSpeedMph": 14.9,
      "safetyEvents": []
    },
    {
      "id": "trip_44865715_20250309_9417",
      "vehicleId": "44865715",
      "driverId": "20000046",
      "startMs": 1741526781000,
      "endMs": 1741528521000,
      "startAddress": "191 Jerry Squares Apt. 762",
      "endAddress": "71144 Williams Forges",
      "startCoords": {
        "latitude": 35.102724,
        "longitude": -106.659201
      },
      "endCoords": {
        "latitude": 35.082986,
        "longitude": -106.719135
      },
      "distanceMeters": 12125.2,
      "durationMs": 1740000,
      "drivingDurationMs": 1433539,
      "idlingDurationMs": 306461,
      "fuelConsumedMl": 1541,
      "fuelConsumedGallons": 0.407,
      "maxSpeedMph": 27.3,
      "averageSpeedMph": 15.6,
      "safetyEvents": []
    },
    {
      "id": "trip_44865715_20250310_9465",
      "vehicleId": "44865715",
      "driverId": "20000046",
      "startMs": 1741582847000,
      "endMs": 1741585127000,
      "startAddress": "4177 Alan Station Apt. 525",
      "endAddress": "9681 Marissa Streets",
      "startCoords": {
        "latitude": 35.161043,
        "longitude": -106.626482
      },
      "endCoords": {
        "latitude": 35.057587,
        "longitude": -106.713181
      },
      "distanceMeters": 9272.6,
      "durationMs": 2280000,
      "drivingDurationMs": 1829984,
      "idlingDurationMs": 450016,
      "fuelConsumedMl": 1177,
      "fuelConsumedGallons": 0.311,
      "maxSpeedMph": 37.8,
      "averageSpeedMph": 9.1,
      "safetyEvents": []
    },
    {
      "id": "trip_44865715_20250310_9496",
      "vehicleId": "44865715",
      "driverId": "20000045",
      "startMs": 1741601814000,
      "endMs": 1741607552000,
      "startAddress": "972 Carpenter Port",
      "endAddress": "49646 Veronica Port",
      "startCoords": {
        "latitude": 35.061757,
        "longitude": -106.591025
      },
      "endCoords": {
        "latitude": 35.086958,
        "longitude": -106.629291
      },
      "distanceMeters": 31873.6,
      "durationMs": 5738000,
      "drivingDurationMs": 4797124,
      "idlingDurationMs": 940876,
      "fuelConsumedMl": 4054,
      "fuelConsumedGallons": 1.071,
      "maxSpeedMph": 37.1,
      "averageSpeedMph": 12.4,
      "safetyEvents": []
    },
    {
      "id": "trip_44865715_20250310_9533",
      "vehicleId": "44865715",
      "driverId": "20000046",
      "startMs": 1741620328000,
      "endMs": 1741622848000,
      "startAddress": "433 Wright Pass Suite 707",
      "endAddress": "3312 Megan Coves",
      "startCoords": {
        "latitude": 35.109385,
        "longitude": -106.690726
      },
      "endCoords": {
        "latitude": 35.129735,
        "longitude": -106.647313
      },
      "distanceMeters": 13358.5,
      "durationMs": 2520000,
      "drivingDurationMs": 1903057,
      "idlingDurationMs": 616943,
      "fuelConsumedMl": 1700,
      "fuelConsumedGallons": 0.449,
      "maxSpeedMph": 35.2,
      "averageSpeedMph": 11.9,
      "safetyEvents": []
    },
    {
      "id": "trip_44865715_20250310_9566",
      "vehicleId": "44865715",
      "driverId": "20000046",
      "startMs": 1741632727000,
      "endMs": 1741642793000,
      "startAddress": "01897 Robert Springs",
      "endAddress": "0409 Amy Landing",
      "startCoords": {
        "latitude": 35.148476,
        "longitude": -106.574734
      },
      "endCoords": {
        "latitude": 35.077046,
        "longitude": -106.653984
      },
      "distanceMeters": 73518.7,
      "durationMs": 10066000,
      "drivingDurationMs": 8847636,
      "idlingDurationMs": 1218364,
      "fuelConsumedMl": 9346,
      "fuelConsumedGallons": 2.469,
      "maxSpeedMph": 29.5,
      "averageSpeedMph": 16.3,
      "safetyEvents": []
    },
    {
      "id": "trip_44865715_20250311_9602",
      "vehicleId": "44865715",
      "driverId": "20000044",
      "startMs": 1741654131000,
      "endMs": 1741656898000,
      "startAddress": "985 Klein Inlet",
      "endAddress": "6409 Brown Shoal Suite 349",
      "startCoords": {
        "latitude": 35.104461,
        "longitude": -106.596417
      },
      "endCoords": {
        "latitude": 35.126422,
        "longitude": -106.637111
      },
      "distanceMeters": 16432.0,
      "durationMs": 2767000,
      "drivingDurationMs": 2122409,
      "idlingDurationMs": 644591,
      "fuelConsumedMl": 2090,
      "fuelConsumedGallons": 0.552,
      "maxSpeedMph": 30.7,
      "averageSpeedMph": 13.3,
      "safetyEvents": []
    },
    {
      "id": "trip_44865715_20250311_9632",
      "vehicleId": "44865715",
      "driverId": "20000046",
      "startMs": 1741673219000,
      "endMs": 1741679916000,
      "startAddress": "9925 Duane Stravenue Apt. 304",
      "endAddress": "286 Nancy Mews",
      "startCoords": {
        "latitude": 35.045432,
        "longitude": -106.600103
      },
      "endCoords": {
        "latitude": 35.066905,
        "longitude": -106.680041
      },
      "distanceMeters": 39579.5,
      "durationMs": 6697000,
      "drivingDurationMs": 5390554,
      "idlingDurationMs": 1306446,
      "fuelConsumedMl": 5031,
      "fuelConsumedGallons": 1.329,
      "maxSpeedMph": 28.7,
      "averageSpeedMph": 13.2,
      "safetyEvents": []
    },
    {
      "id": "trip_44865715_20250311_9671",
      "vehicleId": "44865715",
      "driverId": "20000046",
      "startMs": 1741692664000,
      "endMs": 1741698592000,
      "startAddress": "24093 Pope Shores",
      "endAddress": "7353 Emily Knoll Suite 455",
      "startCoords": {
        "latitude": 35.11399,
        "longitude": -106.711697
      },
      "endCoords": {
        "latitude": 35.039571,
        "longitude": -106.682679
      },
      "distanceMeters": 31477.9,
      "durationMs": 5928000,
      "drivingDurationMs": 5321265,
      "idlingDurationMs": 606735,
      "fuelConsumedMl": 4001,
      "fuelConsumedGallons": 1.057,
      "maxSpeedMph": 26.5,
      "averageSpeedMph": 11.9,
      "safetyEvents": []
    },
    {
      "id": "trip_44865715_20250311_9718",
      "vehicleId": "44865715",
      "driverId": "20000046",
      "startMs": 1741717561000,
      "endMs": 1741727271000,
      "startAddress": "232 Ball Unions Apt. 931",
      "endAddress": "7576 Dennis Extension Suite 975",
      "startCoords": {
        "latitude": 35.156333,
        "longitude": -106.560725
      },
      "endCoords": {
        "latitude": 35.107113,
        "longitude": -106.600517
      },
      "distanceMeters": 65893.0,
      "durationMs": 9710000,
      "drivingDurationMs": 8507277,
      "idlingDurationMs": 1202723,
      "fuelConsumedMl": 8377,
      "fuelConsumedGallons": 2.213,
      "maxSpeedMph": 27.2,
      "averageSpeedMph": 15.2,
      "safetyEvents": []
    },
    {
      "id": "trip_44865715_20250311_9745",
      "vehicleId": "44865715",
      "driverId": "20000045",
      "startMs": 1741731314000,
      "endMs": 1741743184000,
      "startAddress": "36743 Erin Stravenue",
      "endAddress": "47086 Alexander Village Apt. 477",
      "startCoords": {
        "latitude": 35.059927,
        "longitude": -106.716049
      },
      "endCoords": {
        "latitude": 35.164981,
        "longitude": -106.621215
      },
      "distanceMeters": 63046.7,
      "durationMs": 11870000,
      "drivingDurationMs": 9378087,
      "idlingDurationMs": 2491913,
      "fuelConsumedMl": 8017,
      "fuelConsumedGallons": 2.118,
      "maxSpeedMph": 34.0,
      "averageSpeedMph": 11.9,
      "safetyEvents": []
    },
    {
      "id": "trip_44865715_20250312_9784",
      "vehicleId": "44865715",
      "driverId": "20000046",
      "startMs": 1741755970000,
      "endMs": 1741765071000,
      "startAddress": "6113 Robinson Points",
      "endAddress": "912 Zimmerman Haven",
      "startCoords": {
        "latitude": 35.096633,
        "longitude": -106.539797
      },
      "endCoords": {
        "latitude": 35.116033,
        "longitude": -106.555546
      },
      "distanceMeters": 40087.2,
      "durationMs": 9101000,
      "drivingDurationMs": 7330287,
      "idlingDurationMs": 1770713,
      "fuelConsumedMl": 5095,
      "fuelConsumedGallons": 1.346,
      "maxSpeedMph": 30.7,
      "averageSpeedMph": 9.9,
      "safetyEvents": []
    },
    {
      "id": "trip_44865715_20250312_9834",
      "vehicleId": "44865715",
      "driverId": "20000045",
      "startMs": 1741782201000,
      "endMs": 1741783881000,
      "startAddress": "160 Jose Harbor Suite 045",
      "endAddress": "0538 Christine Pass Apt. 869",
      "startCoords": {
        "latitude": 35.125061,
        "longitude": -106.715744
      },
      "endCoords": {
        "latitude": 35.129485,
        "longitude": -106.713765
      },
      "distanceMeters": 10880.2,
      "durationMs": 1680000,
      "drivingDurationMs": 1462347,
      "idlingDurationMs": 217653,
      "fuelConsumedMl": 1382,
      "fuelConsumedGallons": 0.365,
      "maxSpeedMph": 36.8,
      "averageSpeedMph": 14.5,
      "safetyEvents": []
    },
    {
      "id": "trip_44865715_20250312_9863",
      "vehicleId": "44865715",
      "driverId": "20000045",
      "startMs": 1741797300000,
      "endMs": 1741808958000,
      "startAddress": "9832 Lopez Trail",
      "endAddress": "94148 Miranda Lodge",
      "startCoords": {
        "latitude": 35.124962,
        "longitude": -106.632249
      },
      "endCoords": {
        "latitude": 35.045225,
        "longitude": -106.711659
      },
      "distanceMeters": 46651.8,
      "durationMs": 11658000,
      "drivingDurationMs": 8838915,
      "idlingDurationMs": 2819085,
      "fuelConsumedMl": 5932,
      "fuelConsumedGallons": 1.567,
      "maxSpeedMph": 27.6,
      "averageSpeedMph": 9.0,
      "safetyEvents": []
    },
    {
      "id": "trip_44865715_20250313_9916",
      "vehicleId": "44865715",
      "driverId": "20000044",
      "startMs": 1741825339000,
      "endMs": 1741827559000,
      "startAddress": "3385 Donald Expressway",
      "endAddress": "0418 House Mountains Suite 633",
      "startCoords": {
        "latitude": 35.043452,
        "longitude": -106.694493
      },
      "endCoords": {
        "latitude": 35.163613,
        "longitude": -106.618758
      },
      "distanceMeters": 10311.9,
      "durationMs": 2220000,
      "drivingDurationMs": 1953395,
      "idlingDurationMs": 266605,
      "fuelConsumedMl": 1310,
      "fuelConsumedGallons": 0.346,
      "maxSpeedMph": 32.7,
      "averageSpeedMph": 10.4,
      "safetyEvents": []
    },
    {
      "id": "trip_44865715_20250313_9989",
      "vehicleId": "44865715",
      "driverId": "20000045",
      "startMs": 1741862889000,
      "endMs": 1741865049000,
      "startAddress": "95986 Bauer Hollow",
      "endAddress": "31456 Nicholas Circle",
      "startCoords": {
        "latitude": 35.060858,
        "longitude": -106.651387
      },
      "endCoords": {
        "latitude": 35.109942,
        "longitude": -106.591016
      },
      "distanceMeters": 15176.1,
      "durationMs": 2160000,
      "drivingDurationMs": 1844963,
      "idlingDurationMs": 315037,
      "fuelConsumedMl": 1931,
      "fuelConsumedGallons": 0.51,
      "maxSpeedMph": 27.0,
      "averageSpeedMph": 15.7,
      "safetyEvents": []
    },
    {
      "id": "trip_44865715_20250313_10024",
      "vehicleId": "44865715",
      "driverId": "20000046",
      "startMs": 1741885269000,
      "endMs": 1741887009000,
      "startAddress": "686 Julie Estates",
      "endAddress": "071 Rodney Mountain Suite 948",
      "startCoords": {
        "latitude": 35.066968,
        "longitude": -106.6727
      },
      "endCoords": {
        "latitude": 35.121888,
        "longitude": -106.576532
      },
      "distanceMeters": 9727.1,
      "durationMs": 1740000,
      "drivingDurationMs": 1368298,
      "idlingDurationMs": 371702,
      "fuelConsumedMl": 1238,
      "fuelConsumedGallons": 0.327,
      "maxSpeedMph": 29.0,
      "averageSpeedMph": 12.5,
      "safetyEvents": []
    },
    {
      "id": "trip_44865715_20250313_10054",
      "vehicleId": "44865715",
      "driverId": "20000046",
      "startMs": 1741900283000,
      "endMs": 1741906795000,
      "startAddress": "4405 Gregory Wells Apt. 288",
      "endAddress": "474 David Forge Suite 871",
      "startCoords": {
        "latitude": 35.113627,
        "longitude": -106.544465
      },
      "endCoords": {
        "latitude": 35.150921,
        "longitude": -106.701695
      },
      "distanceMeters": 39199.2,
      "durationMs": 6512000,
      "drivingDurationMs": 5450372,
      "idlingDurationMs": 1061628,
      "fuelConsumedMl": 4985,
      "fuelConsumedGallons": 1.317,
      "maxSpeedMph": 30.0,
      "averageSpeedMph": 13.5,
      "safetyEvents": []
    },
    {
      "id": "trip_44865715_20250314_10105",
      "vehicleId": "44865715",
      "driverId": "20000045",
      "startMs": 1741927504000,
      "endMs": 1741928824000,
      "startAddress": "100 Renee Meadow",
      "endAddress": "23817 Foley Garden Apt. 228",
      "startCoords": {
        "latitude": 35.097108,
        "longitude": -106.656818
      },
      "endCoords": {
        "latitude": 35.048569,
        "longitude": -106.64904
      },
      "distanceMeters": 6395.4,
      "durationMs": 1320000,
      "drivingDurationMs": 1180022,
      "idlingDurationMs": 139978,
      "fuelConsumedMl": 814,
      "fuelConsumedGallons": 0.215,
      "maxSpeedMph": 26.9,
      "averageSpeedMph": 10.8,
      "safetyEvents": []
    },
    {
      "id": "trip_44865715_20250314_10147",
      "vehicleId": "44865715",
      "driverId": "20000045",
      "startMs": 1741945141000,
      "endMs": 1741958743000,
      "startAddress": "276 Peterson Flat",
      "endAddress": "9924 Nathan Villages",
      "startCoords": {
        "latitude": 35.167782,
        "longitude": -106.6744
      },
      "endCoords": {
        "latitude": 35.060727,
        "longitude": -106.679998
      },
      "distanceMeters": 71036.9,
      "durationMs": 13602000,
      "drivingDurationMs": 11482527,
      "idlingDurationMs": 2119473,
      "fuelConsumedMl": 9032,
      "fuelConsumedGallons": 2.386,
      "maxSpeedMph": 35.3,
      "averageSpeedMph": 11.7,
      "safetyEvents": []
    },
    {
      "id": "trip_44865715_20250314_10193",
      "vehicleId": "44865715",
      "driverId": "20000044",
      "startMs": 1741967971000,
      "endMs": 1741969651000,
      "startAddress": "7593 Kelli Oval",
      "endAddress": "7716 Stephanie Lodge",
      "startCoords": {
        "latitude": 35.179315,
        "longitude": -106.684047
      },
      "endCoords": {
        "latitude": 35.172235,
        "longitude": -106.684809
      },
      "distanceMeters": 8388.6,
      "durationMs": 1680000,
      "drivingDurationMs": 1308148,
      "idlingDurationMs": 371852,
      "fuelConsumedMl": 1067,
      "fuelConsumedGallons": 0.282,
      "maxSpeedMph": 30.3,
      "averageSpeedMph": 11.2,
      "safetyEvents": []
    },
    {
      "id": "trip_44865715_20250314_10226",
      "vehicleId": "44865715",
      "driverId": "20000046",
      "startMs": 1741988566000,
      "endMs": 1741996471000,
      "startAddress": "62255 Flores Turnpike Suite 664",
      "endAddress": "606 John Divide",
      "startCoords": {
        "latitude": 35.13943,
        "longitude": -106.686618
      },
      "endCoords": {
        "latitude": 35.049672,
        "longitude": -106.643961
      },
      "distanceMeters": 44162.0,
      "durationMs": 7905000,
      "drivingDurationMs": 6970310,
      "idlingDurationMs": 934690,
      "fuelConsumedMl": 5614,
      "fuelConsumedGallons": 1.483,
      "maxSpeedMph": 28.9,
      "averageSpeedMph": 12.5,
      "safetyEvents": []
    },
    {
      "id": "trip_44865715_20250315_10296",
      "vehicleId": "44865715",
      "driverId": "20000045",
      "startMs": 1742029037000,
      "endMs": 1742031557000,
      "startAddress": "146 Russell Fall Apt. 961",
      "endAddress": "85477 Bryan Parkways Suite 318",
      "startCoords": {
        "latitude": 35.167778,
        "longitude": -106.600856
      },
      "endCoords": {
        "latitude": 35.086197,
        "longitude": -106.630165
      },
      "distanceMeters": 11307.7,
      "durationMs": 2520000,
      "drivingDurationMs": 2236634,
      "idlingDurationMs": 283366,
      "fuelConsumedMl": 1438,
      "fuelConsumedGallons": 0.38,
      "maxSpeedMph": 37.1,
      "averageSpeedMph": 10.0,
      "safetyEvents": []
    },
    {
      "id": "trip_44865715_20250315_10322",
      "vehicleId": "44865715",
      "driverId": "20000045",
      "startMs": 1742042987000,
      "endMs": 1742049852000,
      "startAddress": "89182 Gilbert Brook Apt. 809",
      "endAddress": "902 Carr Plaza Suite 291",
      "startCoords": {
        "latitude": 35.170905,
        "longitude": -106.536806
      },
      "endCoords": {
        "latitude": 35.103946,
        "longitude": -106.596921
      },
      "distanceMeters": 41050.1,
      "durationMs": 6865000,
      "drivingDurationMs": 5962987,
      "idlingDurationMs": 902013,
      "fuelConsumedMl": 5220,
      "fuelConsumedGallons": 1.379,
      "maxSpeedMph": 27.0,
      "averageSpeedMph": 13.4,
      "safetyEvents": []
    },
    {
      "id": "trip_44865715_20250315_10370",
      "vehicleId": "44865715",
      "driverId": "20000044",
      "startMs": 1742065868000,
      "endMs": 1742067908000,
      "startAddress": "7834 Mcfarland Centers",
      "endAddress": "76342 Jones Oval Apt. 350",
      "startCoords": {
        "latitude": 35.130185,
        "longitude": -106.710192
      },
      "endCoords": {
        "latitude": 35.16106,
        "longitude": -106.602157
      },
      "distanceMeters": 12579.4,
      "durationMs": 2040000,
      "drivingDurationMs": 1742400,
      "idlingDurationMs": 297600,
      "fuelConsumedMl": 1601,
      "fuelConsumedGallons": 0.423,
      "maxSpeedMph": 32.5,
      "averageSpeedMph": 13.8,
      "safetyEvents": []
    },
    {
      "id": "trip_44865715_20250316_10430",
      "vehicleId": "44865715",
      "driverId": "20000044",
      "startMs": 1742116360000,
      "endMs": 1742118580000,
      "startAddress": "74015 Francis Land Suite 620",
      "endAddress": "0482 Scott River Suite 170",
      "startCoords": {
        "latitude": 35.153118,
        "longitude": -106.723791
      },
      "endCoords": {
        "latitude": 35.130748,
        "longitude": -106.658019
      },
      "distanceMeters": 11698.7,
      "durationMs": 2220000,
      "drivingDurationMs": 1683718,
      "idlingDurationMs": 536282,
      "fuelConsumedMl": 1488,
      "fuelConsumedGallons": 0.393,
      "maxSpeedMph": 26.6,
      "averageSpeedMph": 11.8,
      "safetyEvents": []
    },
    {
      "id": "trip_44865715_20250316_10486",
      "vehicleId": "44865715",
      "driverId": "20000046",
      "startMs": 1742154748000,
      "endMs": 1742156908000,
      "startAddress": "54035 Lisa Corner Suite 784",
      "endAddress": "503 David Rue",
      "startCoords": {
        "latitude": 35.080007,
        "longitude": -106.661419
      },
      "endCoords": {
        "latitude": 35.066809,
        "longitude": -106.603408
      },
      "distanceMeters": 10941.3,
      "durationMs": 2160000,
      "drivingDurationMs": 1803418,
      "idlingDurationMs": 356582,
      "fuelConsumedMl": 1389,
      "fuelConsumedGallons": 0.367,
      "maxSpeedMph": 38.6,
      "averageSpeedMph": 11.3,
      "safetyEvents": []
    },
    {
      "id": "trip_44865715_20250317_10535",
      "vehicleId": "44865715",
      "driverId": "20000045",
      "startMs": 1742204962000,
      "endMs": 1742206822000,
      "startAddress": "063 Andrea Corners Apt. 445",
      "endAddress": "55625 Craig Mills Suite 165",
      "startCoords": {
        "latitude": 35.136359,
        "longitude": -106.564884
      },
      "endCoords": {
        "latitude": 35.15644,
        "longitude": -106.568401
      },
      "distanceMeters": 12660.3,
      "durationMs": 1860000,
      "drivingDurationMs": 1601960,
      "idlingDurationMs": 258040,
      "fuelConsumedMl": 1609,
      "fuelConsumedGallons": 0.425,
      "maxSpeedMph": 29.2,
      "averageSpeedMph": 15.2,
      "safetyEvents": []
    },
    {
      "id": "trip_44865715_20250317_10578",
      "vehicleId": "44865715",
      "driverId": "20000046",
      "startMs": 1742225208000,
      "endMs": 1742226948000,
      "startAddress": "160 Barnes Trafficway Suite 653",
      "endAddress": "03310 Amanda Passage Apt. 038",
      "startCoords": {
        "latitude": 35.085997,
        "longitude": -106.638351
      },
      "endCoords": {
        "latitude": 35.116407,
        "longitude": -106.662259
      },
      "distanceMeters": 11010.8,
      "durationMs": 1740000,
      "drivingDurationMs": 1336494,
      "idlingDurationMs": 403506,
      "fuelConsumedMl": 1401,
      "fuelConsumedGallons": 0.37,
      "maxSpeedMph": 35.6,
      "averageSpeedMph": 14.2,
      "safetyEvents": []
    },
    {
      "id": "trip_44865715_20250317_10609",
      "vehicleId": "44865715",
      "driverId": "20000045",
      "startMs": 1742241365000,
      "endMs": 1742245161000,
      "startAddress": "282 Julie Locks Apt. 951",
      "endAddress": "4964 Cynthia Knolls",
      "startCoords": {
        "latitude": 35.08267,
        "longitude": -106.661405
      },
      "endCoords": {
        "latitude": 35.096301,
        "longitude": -106.595965
      },
      "distanceMeters": 23905.3,
      "durationMs": 3796000,
      "drivingDurationMs": 3021932,
      "idlingDurationMs": 774068,
      "fuelConsumedMl": 3040,
      "fuelConsumedGallons": 0.803,
      "maxSpeedMph": 29.2,
      "averageSpeedMph": 14.1,
      "safetyEvents": []
    },
    {
      "id": "trip_44865715_20250318_10661",
      "vehicleId": "44865715",
      "driverId": "20000045",
      "startMs": 1742269056000,
      "endMs": 1742271096000,
      "startAddress": "9639 Edward Street",
      "endAddress": "950 Debbie Track",
      "startCoords": {
        "latitude": 35.152723,
        "longitude": -106.561871
      },
      "endCoords": {
        "latitude": 35.092458,
        "longitude": -106.628181
      },
      "distanceMeters": 9103.6,
      "durationMs": 2040000,
      "drivingDurationMs": 1788681,
      "idlingDurationMs": 251319,
      "fuelConsumedMl": 1158,
      "fuelConsumedGallons": 0.306,
      "maxSpeedMph": 29.7,
      "averageSpeedMph": 10.0,
      "safetyEvents": []
    },
    {
      "id": "trip_44865715_20250318_10701",
      "vehicleId": "44865715",
      "driverId": "20000045",
      "startMs": 1742291086000,
      "endMs": 1742292946000,
      "startAddress": "6677 Russell Tunnel Apt. 727",
      "endAddress": "28456 Bethany Alley",
      "startCoords": {
        "latitude": 35.066572,
        "longitude": -106.703325
      },
      "endCoords": {
        "latitude": 35.04988,
        "longitude": -106.569939
      },
      "distanceMeters": 9485.2,
      "durationMs": 1860000,
      "drivingDurationMs": 1588651,
      "idlingDurationMs": 271349,
      "fuelConsumedMl": 1208,
      "fuelConsumedGallons": 0.319,
      "maxSpeedMph": 27.7,
      "averageSpeedMph": 11.4,
      "safetyEvents": []
    },
    {
      "id": "trip_44865715_20250318_10761",
      "vehicleId": "44865715",
      "driverId": "20000045",
      "startMs": 1742317844000,
      "endMs": 1742320759000,
      "startAddress": "914 Ruth Gateway Suite 474",
      "endAddress": "82787 Richard Manor",
      "startCoords": {
        "latitude": 35.122163,
        "longitude": -106.689694
      },
      "endCoords": {
        "latitude": 35.136648,
        "longitude": -106.570808
      },
      "distanceMeters": 13753.4,
      "durationMs": 2915000,
      "drivingDurationMs": 2481232,
      "idlingDurationMs": 433768,
      "fuelConsumedMl": 1749,
      "fuelConsumedGallons": 0.462,
      "maxSpeedMph": 32.5,
      "averageSpeedMph": 10.6,
      "safetyEvents": []
    },
    {
      "id": "trip_44865715_20250318_10794",
      "vehicleId": "44865715",
      "driverId": "20000046",
      "startMs": 1742335515000,
      "endMs": 1742338455000,
      "startAddress": "4637 Timothy Knoll",
      "endAddress": "301 Mary Squares Suite 507",
      "startCoords": {
        "latitude": 35.173879,
        "longitude": -106.695264
      },
      "endCoords": {
        "latitude": 35.160795,
        "longitude": -106.692302
      },
      "distanceMeters": 16259.6,
      "durationMs": 2940000,
      "drivingDurationMs": 2405434,
      "idlingDurationMs": 534566,
      "fuelConsumedMl": 2067,
      "fuelConsumedGallons": 0.546,
      "maxSpeedMph": 30.9,
      "averageSpeedMph": 12.4,
      "safetyEvents": []
    },
    {
      "id": "trip_44865715_20250319_10845",
      "vehicleId": "44865715",
      "driverId": "20000046",
      "startMs": 1742361441000,
      "endMs": 1742363061000,
      "startAddress": "87961 Guzman Stream",
      "endAddress": "075 Aaron Locks Suite 286",
      "startCoords": {
        "latitude": 35.093226,
        "longitude": -106.630443
      },
      "endCoords": {
        "latitude": 35.101953,
        "longitude": -106.621069
      },
      "distanceMeters": 8840.1,
      "durationMs": 1620000,
      "drivingDurationMs": 1351673,
      "idlingDurationMs": 268327,
      "fuelConsumedMl": 1124,
      "fuelConsumedGallons": 0.297,
      "maxSpeedMph": 39.3,
      "averageSpeedMph": 12.2,
      "safetyEvents": []
    },
    {
      "id": "trip_44865715_20250319_10911",
      "vehicleId": "44865715",
      "driverId": "20000045",
      "startMs": 1742395649000,
      "endMs": 1742400273000,
      "startAddress": "967 Maldonado Locks Apt. 919",
      "endAddress": "17616 Anderson Mills Apt. 110",
      "startCoords": {
        "latitude": 35.096019,
        "longitude": -106.631083
      },
      "endCoords": {
        "latitude": 35.131341,
        "longitude": -106.685465
      },
      "distanceMeters": 19597.5,
      "durationMs": 4624000,
      "drivingDurationMs": 3652829,
      "idlingDurationMs": 971171,
      "fuelConsumedMl": 2491,
      "fuelConsumedGallons": 0.658,
      "maxSpeedMph": 30.2,
      "averageSpeedMph": 9.5,
      "safetyEvents": []
    },
    {
      "id": "trip_44865715_20250319_10937",
      "vehicleId": "44865715",
      "driverId": "20000046",
      "startMs": 1742408776000,
      "endMs": 1742410276000,
      "startAddress": "062 Hannah Island",
      "endAddress": "44054 Davis Trace Apt. 612",
      "startCoords": {
        "latitude": 35.182257,
        "longitude": -106.635531
      },
      "endCoords": {
        "latitude": 35.163007,
        "longitude": -106.59783
      },
      "distanceMeters": 11396.2,
      "durationMs": 1500000,
      "drivingDurationMs": 1331656,
      "idlingDurationMs": 168344,
      "fuelConsumedMl": 1450,
      "fuelConsumedGallons": 0.383,
      "maxSpeedMph": 35.5,
      "averageSpeedMph": 17.0,
      "safetyEvents": []
    },
    {
      "id": "trip_44865715_20250319_10978",
      "vehicleId": "44865715",
      "driverId": "20000044",
      "startMs": 1742428041000,
      "endMs": 1742429841000,
      "startAddress": "66497 Justin Glens",
      "endAddress": "0532 Jonathan Key",
      "startCoords": {
        "latitude": 35.119396,
        "longitude": -106.555964
      },
      "endCoords": {
        "latitude": 35.113643,
        "longitude": -106.556296
      },
      "distanceMeters": 7356.2,
      "durationMs": 1800000,
      "drivingDurationMs": 1369048,
      "idlingDurationMs": 430952,
      "fuelConsumedMl": 935,
      "fuelConsumedGallons": 0.247,
      "maxSpeedMph": 34.7,
      "averageSpeedMph": 9.1,
      "safetyEvents": []
    },
    {
      "id": "trip_44865715_20250320_11016",
      "vehicleId": "44865715",
      "driverId": "20000044",
      "startMs": 1742453011000,
      "endMs": 1742454691000,
      "startAddress": "8874 Wood Summit",
      "endAddress": "62694 Julia Inlet",
      "startCoords": {
        "latitude": 35.121067,
        "longitude": -106.676635
      },
      "endCoords": {
        "latitude": 35.15981,
        "longitude": -106.608436
      },
      "distanceMeters": 7435.4,
      "durationMs": 1680000,
      "drivingDurationMs": 1271798,
      "idlingDurationMs": 408202,
      "fuelConsumedMl": 946,
      "fuelConsumedGallons": 0.25,
      "maxSpeedMph": 27.2,
      "averageSpeedMph": 9.9,
      "safetyEvents": []
    },
    {
      "id": "trip_44865715_20250320_11070",
      "vehicleId": "44865715",
      "driverId": "20000045",
      "startMs": 1742479593000,
      "endMs": 1742481857000,
      "startAddress": "37658 Melissa Camp Apt. 201",
      "endAddress": "59227 Heather Flat Apt. 429",
      "startCoords": {
        "latitude": 35.169668,
        "longitude": -106.622593
      },
      "endCoords": {
        "latitude": 35.038582,
        "longitude": -106.660042
      },
      "distanceMeters": 13044.5,
      "durationMs": 2264000,
      "drivingDurationMs": 1861038,
      "idlingDurationMs": 402962,
      "fuelConsumedMl": 1658,
      "fuelConsumedGallons": 0.438,
      "maxSpeedMph": 39.8,
      "averageSpeedMph": 12.9,
      "safetyEvents": []
    },
    {
      "id": "trip_44865715_20250321_11133",
      "vehicleId": "44865715",
      "driverId": "20000045",
      "startMs": 1742517885000,
      "endMs": 1742529053000,
      "startAddress": "518 Henderson Bypass",
      "endAddress": "8648 White Crossroad",
      "startCoords": {
        "latitude": 35.144838,
        "longitude": -106.612846
      },
      "endCoords": {
        "latitude": 35.154876,
        "longitude": -106.588052
      },
      "distanceMeters": 80381.8,
      "durationMs": 11168000,
      "drivingDurationMs": 9947533,
      "idlingDurationMs": 1220467,
      "fuelConsumedMl": 10221,
      "fuelConsumedGallons": 2.7,
      "maxSpeedMph": 28.8,
      "averageSpeedMph": 16.1,
      "safetyEvents": []
    },
    {
      "id": "trip_44865715_20250321_11207",
      "vehicleId": "44865715",
      "driverId": "20000046",
      "startMs": 1742560054000,
      "endMs": 1742563014000,
      "startAddress": "922 Matthew Fork",
      "endAddress": "84318 Sandra Circles",
      "startCoords": {
        "latitude": 35.163413,
        "longitude": -106.62552
      },
      "endCoords": {
        "latitude": 35.101493,
        "longitude": -106.682629
      },
      "distanceMeters": 13273.9,
      "durationMs": 2960000,
      "drivingDurationMs": 2514860,
      "idlingDurationMs": 445140,
      "fuelConsumedMl": 1688,
      "fuelConsumedGallons": 0.446,
      "maxSpeedMph": 39.2,
      "averageSpeedMph": 10.0,
      "safetyEvents": []
    },
    {
      "id": "trip_44865715_20250321_11238",
      "vehicleId": "44865715",
      "driverId": "20000044",
      "startMs": 1742576262000,
      "endMs": 1742578242000,
      "startAddress": "7748 Thomas Point",
      "endAddress": "897 Chandler Loop Apt. 611",
      "startCoords": {
        "latitude": 35.04532,
        "longitude": -106.704987
      },
      "endCoords": {
        "latitude": 35.075493,
        "longitude": -106.622513
      },
      "distanceMeters": 13419.1,
      "durationMs": 1980000,
      "drivingDurationMs": 1630556,
      "idlingDurationMs": 349444,
      "fuelConsumedMl": 1707,
      "fuelConsumedGallons": 0.451,
      "maxSpeedMph": 31.6,
      "averageSpeedMph": 15.2,
      "safetyEvents": []
    },
    {
      "id": "trip_44865715_20250321_11280",
      "vehicleId": "44865715",
      "driverId": "20000045",
      "startMs": 1742598186000,
      "endMs": 1742600286000,
      "startAddress": "56864 William Groves",
      "endAddress": "186 Johnson Mills Suite 476",
      "startCoords": {
        "latitude": 35.140476,
        "longitude": -106.605684
      },
      "endCoords": {
        "latitude": 35.156906,
        "longitude": -106.538258
      },
      "distanceMeters": 12605.2,
      "durationMs": 2100000,
      "drivingDurationMs": 1769166,
      "idlingDurationMs": 330834,
      "fuelConsumedMl": 1601,
      "fuelConsumedGallons": 0.423,
      "maxSpeedMph": 31.3,
      "averageSpeedMph": 13.4,
      "safetyEvents": []
    },
    {
      "id": "trip_44865715_20250322_11295",
      "vehicleId": "44865715",
      "driverId": "20000044",
      "startMs": 1742607509000,
      "endMs": 1742610089000,
      "startAddress": "210 Devin Divide",
      "endAddress": "6273 Norton Highway Apt. 529",
      "startCoords": {
        "latitude": 35.084522,
        "longitude": -106.648787
      },
      "endCoords": {
        "latitude": 35.136047,
        "longitude": -106.543305
      },
      "distanceMeters": 12449.2,
      "durationMs": 2580000,
      "drivingDurationMs": 1957068,
      "idlingDurationMs": 622932,
      "fuelConsumedMl": 1582,
      "fuelConsumedGallons": 0.418,
      "maxSpeedMph": 27.2,
      "averageSpeedMph": 10.8,
      "safetyEvents": []
    },
    {
      "id": "trip_44865715_20250322_11329",
      "vehicleId": "44865715",
      "driverId": "20000044",
      "startMs": 1742631090000,
      "endMs": 1742636891000,
      "startAddress": "7223 Brandi Tunnel",
      "endAddress": "9732 Phillips Light",
      "startCoords": {
        "latitude": 35.082752,
        "longitude": -106.687973
      },
      "endCoords": {
        "latitude": 35.175284,
        "longitude": -106.638746
      },
      "distanceMeters": 31024.3,
      "durationMs": 5801000,
      "drivingDurationMs": 4535240,
      "idlingDurationMs": 1265760,
      "fuelConsumedMl": 3944,
      "fuelConsumedGallons": 1.042,
      "maxSpeedMph": 27.3,
      "averageSpeedMph": 12.0,
      "safetyEvents": []
    },
    {
      "id": "trip_44865715_20250322_11375",
      "vehicleId": "44865715",
      "driverId": "20000046",
      "startMs": 1742652601000,
      "endMs": 1742658360000,
      "startAddress": "2551 Parker Manors",
      "endAddress": "321 Green Port",
      "startCoords": {
        "latitude": 35.162869,
        "longitude": -106.600198
      },
      "endCoords": {
        "latitude": 35.100461,
        "longitude": -106.691387
      },
      "distanceMeters": 33776.4,
      "durationMs": 5759000,
      "drivingDurationMs": 4396338,
      "idlingDurationMs": 1362662,
      "fuelConsumedMl": 4293,
      "fuelConsumedGallons": 1.134,
      "maxSpeedMph": 37.4,
      "averageSpeedMph": 13.1,
      "safetyEvents": []
    },
    {
      "id": "trip_44865715_20250322_11406",
      "vehicleId": "44865715",
      "driverId": "20000044",
      "startMs": 1742666741000,
      "endMs": 1742669261000,
      "startAddress": "3392 Philip Square Suite 904",
      "endAddress": "499 Acosta Place",
      "startCoords": {
        "latitude": 35.17298,
        "longitude": -106.712463
      },
      "endCoords": {
        "latitude": 35.069502,
        "longitude": -106.609123
      },
      "distanceMeters": 12802.8,
      "durationMs": 2520000,
      "drivingDurationMs": 2184597,
      "idlingDurationMs": 335403,
      "fuelConsumedMl": 1628,
      "fuelConsumedGallons": 0.43,
      "maxSpeedMph": 30.3,
      "averageSpeedMph": 11.4,
      "safetyEvents": []
    },
    {
      "id": "trip_44865715_20250323_11451",
      "vehicleId": "44865715",
      "driverId": "20000045",
      "startMs": 1742704501000,
      "endMs": 1742706181000,
      "startAddress": "704 Schmitt Knoll Apt. 146",
      "endAddress": "102 Joseph Bypass",
      "startCoords": {
        "latitude": 35.134723,
        "longitude": -106.70974
      },
      "endCoords": {
        "latitude": 35.12375,
        "longitude": -106.674494
      },
      "distanceMeters": 7233.2,
      "durationMs": 1680000,
      "drivingDurationMs": 1437384,
      "idlingDurationMs": 242616,
      "fuelConsumedMl": 920,
      "fuelConsumedGallons": 0.243,
      "maxSpeedMph": 33.0,
      "averageSpeedMph": 9.6,
      "safetyEvents": []
    },
    {
      "id": "trip_44865715_20250323_11493",
      "vehicleId": "44865715",
      "driverId": "20000044",
      "startMs": 1742731550000,
      "endMs": 1742733290000,
      "startAddress": "880 Cole Station Apt. 615",
      "endAddress": "3721 Velazquez Mountains Suite 607",
      "startCoords": {
        "latitude": 35.074142,
        "longitude": -106.622653
      },
      "endCoords": {
        "latitude": 35.11714,
        "longitude": -106.591667
      },
      "distanceMeters": 10934.7,
      "durationMs": 1740000,
      "drivingDurationMs": 1448652,
      "idlingDurationMs": 291348,
      "fuelConsumedMl": 1389,
      "fuelConsumedGallons": 0.367,
      "maxSpeedMph": 28.9,
      "averageSpeedMph": 14.1,
      "safetyEvents": []
    },
    {
      "id": "trip_44865715_20250323_11514",
      "vehicleId": "44865715",
      "driverId": "20000046",
      "startMs": 1742747161000,
      "endMs": 1742748661000,
      "startAddress": "148 Ramos Rue Apt. 455",
      "endAddress": "421 Paul Burgs",
      "startCoords": {
        "latitude": 35.125692,
        "longitude": -106.579819
      },
      "endCoords": {
        "latitude": 35.110664,
        "longitude": -106.5643
      },
      "distanceMeters": 8564.1,
      "durationMs": 1500000,
      "drivingDurationMs": 1138764,
      "idlingDurationMs": 361236,
      "fuelConsumedMl": 1090,
      "fuelConsumedGallons": 0.288,
      "maxSpeedMph": 31.2,
      "averageSpeedMph": 12.8,
      "safetyEvents": []
    },
    {
      "id": "trip_44865715_20250324_11567",
      "vehicleId": "44865715",
      "driverId": "20000046",
      "startMs": 1742805500000,
      "endMs": 1742808080000,
      "startAddress": "47058 Benjamin Parkways Suite 243",
      "endAddress": "266 Taylor Forks",
      "startCoords": {
        "latitude": 35.137329,
        "longitude": -106.566333
      },
      "endCoords": {
        "latitude": 35.051466,
        "longitude": -106.548354
      },
      "distanceMeters": 13605.7,
      "durationMs": 2580000,
      "drivingDurationMs": 2279241,
      "idlingDurationMs": 300759,
      "fuelConsumedMl": 1730,
      "fuelConsumedGallons": 0.457,
      "maxSpeedMph": 34.5,
      "averageSpeedMph": 11.8,
      "safetyEvents": []
    },
    {
      "id": "trip_44865715_20250324_11597",
      "vehicleId": "44865715",
      "driverId": "20000044",
      "startMs": 1742819037000,
      "endMs": 1742820477000,
      "startAddress": "6022 Calderon Falls",
      "endAddress": "697 Emily Islands",
      "startCoords": {
        "latitude": 35.149035,
        "longitude": -106.636513
      },
      "endCoords": {
        "latitude": 35.091897,
        "longitude": -106.674552
      },
      "distanceMeters": 7139.6,
      "durationMs": 1440000,
      "drivingDurationMs": 1199122,
      "idlingDurationMs": 240878,
      "fuelConsumedMl": 908,
      "fuelConsumedGallons": 0.24,
      "maxSpeedMph": 29.0,
      "averageSpeedMph": 11.1,
      "safetyEvents": []
    },
    {
      "id": "trip_44865715_20250324_11636",
      "vehicleId": "44865715",
      "driverId": "20000044",
      "startMs": 1742839110000,
      "endMs": 1742840970000,
      "startAddress": "9940 Jeffrey Pass",
      "endAddress": "98364 Davis Stravenue",
      "startCoords": {
        "latitude": 35.110168,
        "longitude": -106.602528
      },
      "endCoords": {
        "latitude": 35.053955,
        "longitude": -106.691213
      },
      "distanceMeters": 10707.4,
      "durationMs": 1860000,
      "drivingDurationMs": 1671490,
      "idlingDurationMs": 188510,
      "fuelConsumedMl": 1363,
      "fuelConsumedGallons": 0.36,
      "maxSpeedMph": 36.9,
      "averageSpeedMph": 12.9,
      "safetyEvents": []
    },
    {
      "id": "trip_44865715_20250325_11686",
      "vehicleId": "44865715",
      "driverId": "20000044",
      "startMs": 1742864115000,
      "endMs": 1742865615000,
      "startAddress": "46514 Patrick Circle",
      "endAddress": "2602 Montgomery Turnpike",
      "startCoords": {
        "latitude": 35.053142,
        "longitude": -106.712102
      },
      "endCoords": {
        "latitude": 35.051067,
        "longitude": -106.620526
      },
      "distanceMeters": 6668.3,
      "durationMs": 1500000,
      "drivingDurationMs": 1174267,
      "idlingDurationMs": 325733,
      "fuelConsumedMl": 848,
      "fuelConsumedGallons": 0.224,
      "maxSpeedMph": 39.0,
      "averageSpeedMph": 9.9,
      "safetyEvents": []
    },
    {
      "id": "trip_44865715_20250325_11722",
      "vehicleId": "44865715",
      "driverId": "20000044",
      "startMs": 1742884075000,
      "endMs": 1742885515000,
      "startAddress": "90035 Aimee Valley",
      "endAddress": "39754 Miranda Curve Suite 311",
      "startCoords": {
        "latitude": 35.08118,
        "longitude": -106.675503
      },
      "endCoords": {
        "latitude": 35.145774,
        "longitude": -106.722871
      },
      "distanceMeters": 6881.4,
      "durationMs": 1440000,
      "drivingDurationMs": 1160598,
      "idlingDurationMs": 279402,
      "fuelConsumedMl": 874,
      "fuelConsumedGallons": 0.231,
      "maxSpeedMph": 37.0,
      "averageSpeedMph": 10.7,
      "safetyEvents": []
    },
    {
      "id": "trip_44865715_20250325_11760",
      "vehicleId": "44865715",
      "driverId": "20000044",
      "startMs": 1742900071000,
      "endMs": 1742907866000,
      "startAddress": "1073 Daniel Isle",
      "endAddress": "20700 Elizabeth Club",
      "startCoords": {
        "latitude": 35.096108,
        "longitude": -106.586317
      },
      "endCoords": {
        "latitude": 35.086931,
        "longitude": -106.553958
      },
      "distanceMeters": 55278.5,
      "durationMs": 7795000,
      "drivingDurationMs": 6506534,
      "idlingDurationMs": 1288466,
      "fuelConsumedMl": 7030,
      "fuelConsumedGallons": 1.857,
      "maxSpeedMph": 37.4,
      "averageSpeedMph": 15.9,
      "safetyEvents": []
    },
    {
      "id": "trip_44865715_20250325_11795",
      "vehicleId": "44865715",
      "driverId": "20000046",
      "startMs": 1742917575000,
      "endMs": 1742925884000,
      "startAddress": "410 Alexis Via",
      "endAddress": "494 Adams Underpass",
      "startCoords": {
        "latitude": 35.077579,
        "longitude": -106.676718
      },
      "endCoords": {
        "latitude": 35.158021,
        "longitude": -106.706949
      },
      "distanceMeters": 37528.8,
      "durationMs": 8309000,
      "drivingDurationMs": 6391030,
      "idlingDurationMs": 1917970,
      "fuelConsumedMl": 4773,
      "fuelConsumedGallons": 1.261,
      "maxSpeedMph": 35.9,
      "averageSpeedMph": 10.1,
      "safetyEvents": []
    },
    {
      "id": "trip_44865715_20250325_11834",
      "vehicleId": "44865715",
      "driverId": "20000044",
      "startMs": 1742938117000,
      "endMs": 1742939857000,
      "startAddress": "431 Wolfe Valleys Suite 802",
      "endAddress": "85025 Kelsey Overpass Apt. 661",
      "startCoords": {
        "latitude": 35.091635,
        "longitude": -106.631692
      },
      "endCoords": {
        "latitude": 35.058629,
        "longitude": -106.647414
      },
      "distanceMeters": 11071.5,
      "durationMs": 1740000,
      "drivingDurationMs": 1331662,
      "idlingDurationMs": 408338,
      "fuelConsumedMl": 1408,
      "fuelConsumedGallons": 0.372,
      "maxSpeedMph": 35.0,
      "averageSpeedMph": 14.2,
      "safetyEvents": []
    },
    {
      "id": "trip_44865715_20250326_11871",
      "vehicleId": "44865715",
      "driverId": "20000045",
      "startMs": 1742959873000,
      "endMs": 1742963843000,
      "startAddress": "817 Davis Landing Suite 298",
      "endAddress": "1138 Kelly Alley",
      "startCoords": {
        "latitude": 35.047594,
        "longitude": -106.646859
      },
      "endCoords": {
        "latitude": 35.072966,
        "longitude": -106.552633
      },
      "distanceMeters": 24083.7,
      "durationMs": 3970000,
      "drivingDurationMs": 3267870,
      "idlingDurationMs": 702130,
      "fuelConsumedMl": 3062,
      "fuelConsumedGallons": 0.809,
      "maxSpeedMph": 39.6,
      "averageSpeedMph": 13.6,
      "safetyEvents": []
    },
    {
      "id": "trip_44865715_20250326_11906",
      "vehicleId": "44865715",
      "driverId": "20000045",
      "startMs": 1742979344000,
      "endMs": 1742980964000,
      "startAddress": "934 Phillip Prairie",
      "endAddress": "2806 Romero Stream",
      "startCoords": {
        "latitude": 35.078052,
        "longitude": -106.697978
      },
      "endCoords": {
        "latitude": 35.10331,
        "longitude": -106.605891
      },
      "distanceMeters": 7039.8,
      "durationMs": 1620000,
      "drivingDurationMs": 1312677,
      "idlingDurationMs": 307323,
      "fuelConsumedMl": 893,
      "fuelConsumedGallons": 0.236,
      "maxSpeedMph": 31.4,
      "averageSpeedMph": 9.7,
      "safetyEvents": []
    },
    {
      "id": "trip_44865715_20250326_11959",
      "vehicleId": "44865715",
      "driverId": "20000045",
      "startMs": 1743007444000,
      "endMs": 1743008644000,
      "startAddress": "43541 Jane Parkways",
      "endAddress": "541 Grimes Garden",
      "startCoords": {
        "latitude": 35.178975,
        "longitude": -106.61095
      },
      "endCoords": {
        "latitude": 35.153888,
        "longitude": -106.652794
      },
      "distanceMeters": 6249.6,
      "durationMs": 1200000,
      "drivingDurationMs": 1013387,
      "idlingDurationMs": 186613,
      "fuelConsumedMl": 795,
      "fuelConsumedGallons": 0.21,
      "maxSpeedMph": 32.5,
      "averageSpeedMph": 11.6,
      "safetyEvents": []
    },
    {
      "id": "trip_44865715_20250327_12021",
      "vehicleId": "44865715",
      "driverId": "20000044",
      "startMs": 1743039560000,
      "endMs": 1743041180000,
      "startAddress": "6805 Wilkerson Lodge Suite 241",
      "endAddress": "746 Charles Spring",
      "startCoords": {
        "latitude": 35.172157,
        "longitude": -106.635803
      },
      "endCoords": {
        "latitude": 35.160136,
        "longitude": -106.715339
      },
      "distanceMeters": 10765.4,
      "durationMs": 1620000,
      "drivingDurationMs": 1366162,
      "idlingDurationMs": 253838,
      "fuelConsumedMl": 1370,
      "fuelConsumedGallons": 0.362,
      "maxSpeedMph": 31.9,
      "averageSpeedMph": 14.9,
      "safetyEvents": []
    },
    {
      "id": "trip_44865715_20250327_12064",
      "vehicleId": "44865715",
      "driverId": "20000044",
      "startMs": 1743066118000,
      "endMs": 1743068098000,
      "startAddress": "10664 Jones Plaza",
      "endAddress": "14058 Michael Glens",
      "startCoords": {
        "latitude": 35.124716,
        "longitude": -106.548639
      },
      "endCoords": {
        "latitude": 35.102465,
        "longitude": -106.689564
      },
      "distanceMeters": 11671.0,
      "durationMs": 1980000,
      "drivingDurationMs": 1548236,
      "idlingDurationMs": 431764,
      "fuelConsumedMl": 1484,
      "fuelConsumedGallons": 0.392,
      "maxSpeedMph": 27.5,
      "averageSpeedMph": 13.2,
      "safetyEvents": []
    },
    {
      "id": "trip_44865715_20250327_12106",
      "vehicleId": "44865715",
      "driverId": "20000044",
      "startMs": 1743085891000,
      "endMs": 1743093535000,
      "startAddress": "183 Jay Lock",
      "endAddress": "0530 Susan Via",
      "startCoords": {
        "latitude": 35.049076,
        "longitude": -106.65369
      },
      "endCoords": {
        "latitude": 35.147912,
        "longitude": -106.608655
      },
      "distanceMeters": 54182.6,
      "durationMs": 7644000,
      "drivingDurationMs": 6450900,
      "idlingDurationMs": 1193100,
      "fuelConsumedMl": 6889,
      "fuelConsumedGallons": 1.82,
      "maxSpeedMph": 27.1,
      "averageSpeedMph": 15.9,
      "safetyEvents": []
    },
    {
      "id": "trip_44865715_20250327_12159",
      "vehicleId": "44865715",
      "driverId": "20000044",
      "startMs": 1743109377000,
      "endMs": 1743120459000,
      "startAddress": "03867 Julia Crossing",
      "endAddress": "5821 Berger Parkways",
      "startCoords": {
        "latitude": 35.039736,
        "longitude": -106.538949
      },
      "endCoords": {
        "latitude": 35.066435,
        "longitude": -106.683943
      },
      "distanceMeters": 53897.1,
      "durationMs": 11082000,
      "drivingDurationMs": 8640300,
      "idlingDurationMs": 2441700,
      "fuelConsumedMl": 6852,
      "fuelConsumedGallons": 1.81,
      "maxSpeedMph": 31.4,
      "averageSpeedMph": 10.9,
      "safetyEvents": []
    },
    {
      "id": "trip_44865715_20250328_12207",
      "vehicleId": "44865715",
      "driverId": "20000044",
      "startMs": 1743136895000,
      "endMs": 1743138635000,
      "startAddress": "9479 Richard Manors Suite 921",
      "endAddress": "469 Meyers Glen Suite 803",
      "startCoords": {
        "latitude": 35.114709,
        "longitude": -106.578032
      },
      "endCoords": {
        "latitude": 35.11563,
        "longitude": -106.658068
      },
      "distanceMeters": 12031.2,
      "durationMs": 1740000,
      "drivingDurationMs": 1424926,
      "idlingDurationMs": 315074,
      "fuelConsumedMl": 1529,
      "fuelConsumedGallons": 0.404,
      "maxSpeedMph": 31.7,
      "averageSpeedMph": 15.5,
      "safetyEvents": []
    },
    {
      "id": "trip_44865715_20250328_12261",
      "vehicleId": "44865715",
      "driverId": "20000046",
      "startMs": 1743162214000,
      "endMs": 1743164314000,
      "startAddress": "12308 Kent Brook",
      "endAddress": "42573 Ramos Oval Suite 057",
      "startCoords": {
        "latitude": 35.126706,
        "longitude": -106.653152
      },
      "endCoords": {
        "latitude": 35.040123,
        "longitude": -106.681152
      },
      "distanceMeters": 12179.8,
      "durationMs": 2100000,
      "drivingDurationMs": 1615979,
      "idlingDurationMs": 484021,
      "fuelConsumedMl": 1548,
      "fuelConsumedGallons": 0.409,
      "maxSpeedMph": 38.7,
      "averageSpeedMph": 13.0,
      "safetyEvents": []
    },
    {
      "id": "trip_44865715_20250328_12294",
      "vehicleId": "44865715",
      "driverId": "20000045",
      "startMs": 1743177675000,
      "endMs": 1743179415000,
      "startAddress": "4066 Brandon Locks",
      "endAddress": "8246 Williams Corner",
      "startCoords": {
        "latitude": 35.117895,
        "longitude": -106.568943
      },
      "endCoords": {
        "latitude": 35.08545,
        "longitude": -106.616635
      },
      "distanceMeters": 9058.8,
      "durationMs": 1740000,
      "drivingDurationMs": 1441281,
      "idlingDurationMs": 298719,
      "fuelConsumedMl": 1151,
      "fuelConsumedGallons": 0.304,
      "maxSpeedMph": 39.7,
      "averageSpeedMph": 11.6,
      "safetyEvents": []
    },
    {
      "id": "trip_44865715_20250328_12351",
      "vehicleId": "44865715",
      "driverId": "20000046",
      "startMs": 1743203943000,
      "endMs": 1743205983000,
      "startAddress": "1012 Evans Views",
      "endAddress": "94838 Amanda Locks Suite 595",
      "startCoords": {
        "latitude": 35.099678,
        "longitude": -106.681243
      },
      "endCoords": {
        "latitude": 35.171358,
        "longitude": -106.559739
      },
      "distanceMeters": 12780.0,
      "durationMs": 2040000,
      "drivingDurationMs": 1575060,
      "idlingDurationMs": 464940,
      "fuelConsumedMl": 1624,
      "fuelConsumedGallons": 0.429,
      "maxSpeedMph": 37.7,
      "averageSpeedMph": 14.0,
      "safetyEvents": []
    },
    {
      "id": "trip_44865715_20250329_12387",
      "vehicleId": "44865715",
      "driverId": "20000046",
      "startMs": 1743231178000,
      "endMs": 1743233458000,
      "startAddress": "627 Rojas Village Apt. 582",
      "endAddress": "0073 Stanley Village",
      "startCoords": {
        "latitude": 35.127194,
        "longitude": -106.565595
      },
      "endCoords": {
        "latitude": 35.1765,
        "longitude": -106.682813
      },
      "distanceMeters": 9584.5,
      "durationMs": 2280000,
      "drivingDurationMs": 1747404,
      "idlingDurationMs": 532596,
      "fuelConsumedMl": 1219,
      "fuelConsumedGallons": 0.322,
      "maxSpeedMph": 34.2,
      "averageSpeedMph": 9.4,
      "safetyEvents": []
    },
    {
      "id": "trip_44865715_20250329_12442",
      "vehicleId": "44865715",
      "driverId": "20000045",
      "startMs": 1743258849000,
      "endMs": 1743261960000,
      "startAddress": "2127 Robertson Fall",
      "endAddress": "319 Stevens Villages",
      "startCoords": {
        "latitude": 35.093193,
        "longitude": -106.569187
      },
      "endCoords": {
        "latitude": 35.134183,
        "longitude": -106.589046
      },
      "distanceMeters": 20345.7,
      "durationMs": 3111000,
      "drivingDurationMs": 2570399,
      "idlingDurationMs": 540601,
      "fuelConsumedMl": 2585,
      "fuelConsumedGallons": 0.683,
      "maxSpeedMph": 30.9,
      "averageSpeedMph": 14.6,
      "safetyEvents": []
    },
    {
      "id": "trip_44865715_20250330_12525",
      "vehicleId": "44865715",
      "driverId": "20000046",
      "startMs": 1743316524000,
      "endMs": 1743324101000,
      "startAddress": "7970 Esparza Course",
      "endAddress": "0104 Mark River Apt. 202",
      "startCoords": {
        "latitude": 35.148987,
        "longitude": -106.56402
      },
      "endCoords": {
        "latitude": 35.071537,
        "longitude": -106.664638
      },
      "distanceMeters": 40277.8,
      "durationMs": 7577000,
      "drivingDurationMs": 6816796,
      "idlingDurationMs": 760204,
      "fuelConsumedMl": 5122,
      "fuelConsumedGallons": 1.353,
      "maxSpeedMph": 30.7,
      "averageSpeedMph": 11.9,
      "safetyEvents": []
    },
    {
      "id": "trip_44865715_20250330_12554",
      "vehicleId": "44865715",
      "driverId": "20000044",
      "startMs": 1743338368000,
      "endMs": 1743339868000,
      "startAddress": "82061 Williams Cape",
      "endAddress": "898 Jenny Center",
      "startCoords": {
        "latitude": 35.050589,
        "longitude": -106.648903
      },
      "endCoords": {
        "latitude": 35.094622,
        "longitude": -106.611725
      },
      "distanceMeters": 10495.0,
      "durationMs": 1500000,
      "drivingDurationMs": 1341391,
      "idlingDurationMs": 158609,
      "fuelConsumedMl": 1336,
      "fuelConsumedGallons": 0.353,
      "maxSpeedMph": 31.8,
      "averageSpeedMph": 15.7,
      "safetyEvents": []
    },
    {
      "id": "trip_44865715_20250330_12586",
      "vehicleId": "44865715",
      "driverId": "20000044",
      "startMs": 1743362181000,
      "endMs": 1743364461000,
      "startAddress": "23200 Myers Spring",
      "endAddress": "31957 Burke Mill Apt. 308",
      "startCoords": {
        "latitude": 35.100317,
        "longitude": -106.591069
      },
      "endCoords": {
        "latitude": 35.170264,
        "longitude": -106.716917
      },
      "distanceMeters": 12284.9,
      "durationMs": 2280000,
      "drivingDurationMs": 1790592,
      "idlingDurationMs": 489408,
      "fuelConsumedMl": 1563,
      "fuelConsumedGallons": 0.413,
      "maxSpeedMph": 39.7,
      "averageSpeedMph": 12.1,
      "safetyEvents": []
    },
    {
      "id": "trip_44865715_20250331_12616",
      "vehicleId": "44865715",
      "driverId": "20000045",
      "startMs": 1743395461000,
      "endMs": 1743397441000,
      "startAddress": "8747 Green Extensions",
      "endAddress": "163 Tiffany Ports",
      "startCoords": {
        "latitude": 35.165693,
        "longitude": -106.539895
      },
      "endCoords": {
        "latitude": 35.077678,
        "longitude": -106.608563
      },
      "distanceMeters": 10709.1,
      "durationMs": 1980000,
      "drivingDurationMs": 1668517,
      "idlingDurationMs": 311483,
      "fuelConsumedMl": 1363,
      "fuelConsumedGallons": 0.36,
      "maxSpeedMph": 27.9,
      "averageSpeedMph": 12.1,
      "safetyEvents": []
    },
    {
      "id": "trip_44865715_20250331_12663",
      "vehicleId": "44865715",
      "driverId": "20000044",
      "startMs": 1743424774000,
      "endMs": 1743434906000,
      "startAddress": "76563 Hall Lake",
      "endAddress": "4113 Scott Knolls Suite 099",
      "startCoords": {
        "latitude": 35.074953,
        "longitude": -106.677744
      },
      "endCoords": {
        "latitude": 35.119398,
        "longitude": -106.54254
      },
      "distanceMeters": 53329.8,
      "durationMs": 10132000,
      "drivingDurationMs": 8271062,
      "idlingDurationMs": 1860938,
      "fuelConsumedMl": 6780,
      "fuelConsumedGallons": 1.791,
      "maxSpeedMph": 29.8,
      "averageSpeedMph": 11.8,
      "safetyEvents": []
    },
    {
      "id": "trip_44865715_20250331_12707",
      "vehicleId": "44865715",
      "driverId": "20000045",
      "startMs": 1743446262000,
      "endMs": 1743459234000,
      "startAddress": "52734 Miller Mount",
      "endAddress": "98642 Hernandez Pine Apt. 605",
      "startCoords": {
        "latitude": 35.103027,
        "longitude": -106.603669
      },
      "endCoords": {
        "latitude": 35.151628,
        "longitude": -106.564422
      },
      "distanceMeters": 59690.6,
      "durationMs": 12972000,
      "drivingDurationMs": 10977328,
      "idlingDurationMs": 1994672,
      "fuelConsumedMl": 7590,
      "fuelConsumedGallons": 2.005,
      "maxSpeedMph": 31.5,
      "averageSpeedMph": 10.3,
      "safetyEvents": []
    }
  ]
}