{
  "vehicleId": "48271925",
  "vehicleName": "SLC-VAN-03",
  "month": "2025_03",
  "pagination": {
    "endCursor": "trip_48271925_20250331_12710",
    "hasNextPage": false
  },
  "trips": [
    {
      "id": "trip_48271925_20250301_8187",
      "vehicleId": "48271925",
      "driverId": "20000036",
      "startMs": 1740815403000,
      "endMs": 1740817940000,
      "startAddress": "01381 Mitchell Club Apt. 507",
      "endAddress": "51982 Lawson Bridge Apt. 689",
      "startCoords": {
        "latitude": 40.771587,
        "longitude": -111.914219
      },
      "endCoords": {
        "latitude": 40.706316,
        "longitude": -111.871232
      },
      "distanceMeters": 17692.6,
      "durationMs": 2537000,
      "drivingDurationMs": 2252794,
      "idlingDurationMs": 284206,
      "fuelConsumedMl": 2249,
      "fuelConsumedGallons": 0.594,
      "maxSpeedMph": 39.2,
      "averageSpeedMph": 15.6,
      "safetyEvents": []
    },
    {
      "id": "trip_48271925_20250301_8235",
      "vehicleId": "48271925",
      "driverId": "20000035",
      "startMs": 1740838680000,
      "endMs": 1740841560000,
      "startAddress": "47839 Hannah Village Apt. 392",
      "endAddress": "919 Johnson Oval Suite 632",
      "startCoords": {
        "latitude": 40.737219,
        "longitude": -111.842162
      },
      "endCoords": {
        "latitude": 40.796384,
        "longitude": -111.828858
      },
      "distanceMeters": 16341.3,
      "durationMs": 2880000,
      "drivingDurationMs": 2398530,
      "idlingDurationMs": 481470,
      "fuelConsumedMl": 2078,
      "fuelConsumedGallons": 0.549,
      "maxSpeedMph": 26.0,
      "averageSpeedMph": 12.7,
      "safetyEvents": []
    },
    {
      "id": "trip_48271925_20250301_8298",
      "vehicleId": "48271925",
      "driverId": "20000036",
      "startMs": 1740872499000,
      "endMs": 1740874599000,
      "startAddress": "0902 Murphy Rest",
      "endAddress": "4903 Brown Mount",
      "startCoords": {
        "latitude": 40.751193,
        "longitude": -111.863925
      },
      "endCoords": {
        "latitude": 40.671702,
        "longitude": -111.844105
      },
      "distanceMeters": 8223.2,
      "durationMs": 2100000,
      "drivingDurationMs": 1600429,
      "idlingDurationMs": 499571,
      "fuelConsumedMl": 1045,
      "fuelConsumedGallons": 0.276,
      "maxSpeedMph": 27.6,
      "averageSpeedMph": 8.8,
      "safetyEvents": []
    },
    {
      "id": "trip_48271925_20250302_8335",
      "vehicleId": "48271925",
      "driverId": "20000033",
      "startMs": 1740904575000,
      "endMs": 1740906555000,
      "startAddress": "096 Hawkins Turnpike Suite 978",
      "endAddress": "958 Jennifer Branch Suite 589",
      "startCoords": {
        "latitude": 40.751609,
        "longitude": -111.835461
      },
      "endCoords": {
        "latitude": 40.735718,
        "longitude": -111.942162
      },
      "distanceMeters": 12487.3,
      "durationMs": 1980000,
      "drivingDurationMs": 1769323,
      "idlingDurationMs": 210677,
      "fuelConsumedMl": 1586,
      "fuelConsumedGallons": 0.419,
      "maxSpeedMph": 34.2,
      "averageSpeedMph": 14.1,
      "safetyEvents": []
    },
    {
      "id": "trip_48271925_20250302_8392",
      "vehicleId": "48271925",
      "driverId": "20000036",
      "startMs": 1740946485000,
      "endMs": 1740947925000,
      "startAddress": "419 Phillip Ports",
      "endAddress": "654 Sharp Plains",
      "startCoords": {
        "latitude": 40.659659,
        "longitude": -111.938824
      },
      "endCoords": {
        "latitude": 40.696312,
        "longitude": -111.78988
      },
      "distanceMeters": 9851.7,
      "durationMs": 1440000,
      "drivingDurationMs": 1125893,
      "idlingDurationMs": 314107,
      "fuelConsumedMl": 1253,
      "fuelConsumedGallons": 0.331,
      "maxSpeedMph": 28.2,
      "averageSpeedMph": 15.3,
      "safetyEvents": []
    },
    {
      "id": "trip_48271925_20250303_8447",
      "vehicleId": "48271925",
      "driverId": "20000034",
      "startMs": 1741002712000,
      "endMs": 1741004452000,
      "startAddress": "10254 Jackson Valley",
      "endAddress": "11245 Cannon Ville",
      "startCoords": {
        "latitude": 40.728221,
        "longitude": -111.791436
      },
      "endCoords": {
        "latitude": 40.737533,
        "longitude": -111.807245
      },
      "distanceMeters": 10314.7,
      "durationMs": 1740000,
      "drivingDurationMs": 1375048,
      "idlingDurationMs": 364952,
      "fuelConsumedMl": 1310,
      "fuelConsumedGallons": 0.346,
      "maxSpeedMph": 32.0,
      "averageSpeedMph": 13.3,
      "safetyEvents": []
    },
    {
      "id": "trip_48271925_20250303_8483",
      "vehicleId": "48271925",
      "driverId": "20000039",
      "startMs": 1741018148000,
      "endMs": 1741020488000,
      "startAddress": "997 Anderson Forge Apt. 509",
      "endAddress": "231 Christopher Island Suite 148",
      "startCoords": {
        "latitude": 40.693579,
        "longitude": -111.865446
      },
      "endCoords": {
        "latitude": 40.683227,
        "longitude": -111.800517
      },
      "distanceMeters": 13922.1,
      "durationMs": 2340000,
      "drivingDurationMs": 1852711,
      "idlingDurationMs": 487289,
      "fuelConsumedMl": 1772,
      "fuelConsumedGallons": 0.468,
      "maxSpeedMph": 29.3,
      "averageSpeedMph": 13.3,
      "safetyEvents": []
    },
    {
      "id": "trip_48271925_20250303_8524",
      "vehicleId": "48271925",
      "driverId": "20000035",
      "startMs": 1741035883000,
      "endMs": 1741038103000,
      "startAddress": "956 Richard Heights Apt. 033",
      "endAddress": "105 Wayne Junctions",
      "startCoords": {
        "latitude": 40.72251,
        "longitude": -111.777504
      },
      "endCoords": {
        "latitude": 40.793862,
        "longitude": -111.851363
      },
      "distanceMeters": 14126.2,
      "durationMs": 2220000,
      "drivingDurationMs": 1966112,
      "idlingDurationMs": 253888,
      "fuelConsumedMl": 1794,
      "fuelConsumedGallons": 0.474,
      "maxSpeedMph": 33.5,
      "averageSpeedMph": 14.2,
      "safetyEvents": []
    },
    {
      "id": "trip_48271925_20250304_8564",
      "vehicleId": "48271925",
      "driverId": "20000035",
      "startMs": 1741063636000,
      "endMs": 1741068832000,
      "startAddress": "8484 Joanna Center Suite 885",
      "endAddress": "6170 Jennifer Viaduct Suite 094",
      "startCoords": {
        "latitude": 40.753468,
        "longitude": -111.888479
      },
      "endCoords": {
        "latitude": 40.670521,
        "longitude": -111.81842
      },
      "distanceMeters": 37265.7,
      "durationMs": 5196000,
      "drivingDurationMs": 4258600,
      "idlingDurationMs": 937400,
      "fuelConsumedMl": 4739,
      "fuelConsumedGallons": 1.252,
      "maxSpeedMph": 30.9,
      "averageSpeedMph": 16.0,
      "safetyEvents": []
    },
    {
      "id": "trip_48271925_20250304_8607",
      "vehicleId": "48271925",
      "driverId": "20000039",
      "startMs": 1741084945000,
      "endMs": 1741086565000,
      "startAddress": "33806 Smith Fort",
      "endAddress": "0407 Antonio Pines",
      "startCoords": {
        "latitude": 40.660284,
        "longitude": -111.935511
      },
      "endCoords": {
        "latitude": 40.784833,
        "longitude": -111.954418
      },
      "distanceMeters": 7537.0,
      "durationMs": 1620000,
      "drivingDurationMs": 1223466,
      "idlingDurationMs": 396534,
      "fuelConsumedMl": 958,
      "fuelConsumedGallons": 0.253,
      "maxSpeedMph": 35.3,
      "averageSpeedMph": 10.4,
      "safetyEvents": []
    },
    {
      "id": "trip_48271925_20250304_8651",
      "vehicleId": "48271925",
      "driverId": "20000037",
      "startMs": 1741105583000,
      "endMs": 1741115442000,
      "startAddress": "22000 Andrea Place Suite 759",
      "endAddress": "33213 Wayne Course Apt. 137",
      "startCoords": {
        "latitude": 40.725857,
        "longitude": -111.838153
      },
      "endCoords": {
        "latitude": 40.745873,
        "longitude": -111.807707
      },
      "distanceMeters": 45102.8,
      "durationMs": 9859000,
      "drivingDurationMs": 7980447,
      "idlingDurationMs": 1878553,
      "fuelConsumedMl": 5735,
      "fuelConsumedGallons": 1.515,
      "maxSpeedMph": 34.8,
      "averageSpeedMph": 10.2,
      "safetyEvents": []
    },
    {
      "id": "trip_48271925_20250304_8691",
      "vehicleId": "48271925",
      "driverId": "20000034",
      "startMs": 1741124972000,
      "endMs": 1741137626000,
      "startAddress": "906 Shawn Spurs Apt. 401",
      "endAddress": "9421 Gibbs Street",
      "startCoords": {
        "latitude": 40.794908,
        "longitude": -111.779087
      },
      "endCoords": {
        "latitude": 40.664708,
        "longitude": -111.792124
      },
      "distanceMeters": 89481.2,
      "durationMs": 12654000,
      "drivingDurationMs": 11133596,
      "idlingDurationMs": 1520404,
      "fuelConsumedMl": 11375,
      "fuelConsumedGallons": 3.005,
      "maxSpeedMph": 37.7,
      "averageSpeedMph": 15.8,
      "safetyEvents": []
    },
    {
      "id": "trip_48271925_20250305_8739",
      "vehicleId": "48271925",
      "driverId": "20000038",
      "startMs": 1741153198000,
      "endMs": 1741155358000,
      "startAddress": "877 Morgan Inlet Apt. 077",
      "endAddress": "40319 Moore Shores Apt. 597",
      "startCoords": {
        "latitude": 40.793921,
        "longitude": -111.814639
      },
      "endCoords": {
        "latitude": 40.703042,
        "longitude": -111.953473
      },
      "distanceMeters": 13647.4,
      "durationMs": 2160000,
      "drivingDurationMs": 1814646,
      "idlingDurationMs": 345354,
      "fuelConsumedMl": 1734,
      "fuelConsumedGallons": 0.458,
      "maxSpeedMph": 30.5,
      "averageSpeedMph": 14.1,
      "safetyEvents": []
    },
    {
      "id": "trip_48271925_20250305_8777",
      "vehicleId": "48271925",
      "driverId": "20000036",
      "startMs": 1741172202000,
      "endMs": 1741178787000,
      "startAddress": "44166 Mark Knoll",
      "endAddress": "0631 Tricia Divide Apt. 851",
      "startCoords": {
        "latitude": 40.705938,
        "longitude": -111.84929
      },
      "endCoords": {
        "latitude": 40.678308,
        "longitude": -111.831953
      },
      "distanceMeters": 34750.0,
      "durationMs": 6585000,
      "drivingDurationMs": 5606024,
      "idlingDurationMs": 978976,
      "fuelConsumedMl": 4418,
      "fuelConsumedGallons": 1.167,
      "maxSpeedMph": 36.8,
      "averageSpeedMph": 11.8,
      "safetyEvents": []
    },
    {
      "id": "trip_48271925_20250305_8826",
      "vehicleId": "48271925",
      "driverId": "20000033",
      "startMs": 1741193824000,
      "endMs": 1741195564000,
      "startAddress": "14436 Greene Forge Suite 969",
      "endAddress": "93837 Morales Road Suite 426",
      "startCoords": {
        "latitude": 40.709916,
        "longitude": -111.791138
      },
      "endCoords": {
        "latitude": 40.683519,
        "longitude": -111.791921
      },
      "distanceMeters": 11749.7,
      "durationMs": 1740000,
      "drivingDurationMs": 1556215,
      "idlingDurationMs": 183785,
      "fuelConsumedMl": 1495,
      "fuelConsumedGallons": 0.395,
      "maxSpeedMph": 30.9,
      "averageSpeedMph": 15.1,
      "safetyEvents": []
    },
    {
      "id": "trip_48271925_20250305_8855",
      "vehicleId": "48271925",
      "driverId": "20000036",
      "startMs": 1741208361000,
      "endMs": 1741209921000,
      "startAddress": "737 Coleman Lane Apt. 196",
      "endAddress": "49626 Wright Hollow",
      "startCoords": {
        "latitude": 40.657962,
        "longitude": -111.840615
      },
      "endCoords": {
        "latitude": 40.772279,
        "longitude": -111.797339
      },
      "distanceMeters": 9994.8,
      "durationMs": 1560000,
      "drivingDurationMs": 1403547,
      "idlingDurationMs": 156453,
      "fuelConsumedMl": 1272,
      "fuelConsumedGallons": 0.336,
      "maxSpeedMph": 34.5,
      "averageSpeedMph": 14.3,
      "safetyEvents": []
    },
    {
      "id": "trip_48271925_20250306_8902",
      "vehicleId": "48271925",
      "driverId": "20000035",
      "startMs": 1741238750000,
      "endMs": 1741240610000,
      "startAddress": "489 Coleman Park Suite 553",
      "endAddress": "39207 Marquez Divide",
      "startCoords": {
        "latitude": 40.686042,
        "longitude": -111.81344
      },
      "endCoords": {
        "latitude": 40.772578,
        "longitude": -111.935078
      },
      "distanceMeters": 11550.4,
      "durationMs": 1860000,
      "drivingDurationMs": 1640501,
      "idlingDurationMs": 219499,
      "fuelConsumedMl": 1469,
      "fuelConsumedGallons": 0.388,
      "maxSpeedMph": 33.9,
      "averageSpeedMph": 13.9,
      "safetyEvents": []
    },
    {
      "id": "trip_48271925_20250306_8946",
      "vehicleId": "48271925",
      "driverId": "20000034",
      "startMs": 1741261139000,
      "endMs": 1741264512000,
      "startAddress": "94606 Wolfe Island Suite 612",
      "endAddress": "03472 Elizabeth Radial Apt. 207",
      "startCoords": {
        "latitude": 40.660166,
        "longitude": -111.879096
      },
      "endCoords": {
        "latitude": 40.709247,
        "longitude": -111.811388
      },
      "distanceMeters": 15849.1,
      "durationMs": 3373000,
      "drivingDurationMs": 2695290,
      "idlingDurationMs": 677710,
      "fuelConsumedMl": 2014,
      "fuelConsumedGallons": 0.532,
      "maxSpeedMph": 33.6,
      "averageSpeedMph": 10.5,
      "safetyEvents": []
    },
    {
      "id": "trip_48271925_20250306_8989",
      "vehicleId": "48271925",
      "driverId": "20000035",
      "startMs": 1741282145000,
      "endMs": 1741284785000,
      "startAddress": "53924 Suzanne Ville Apt. 593",
      "endAddress": "758 Ashlee River Apt. 507",
      "startCoords": {
        "latitude": 40.660973,
        "longitude": -111.947239
      },
      "endCoords": {
        "latitude": 40.76705,
        "longitude": -111.930483
      },
      "distanceMeters": 19903.9,
      "durationMs": 2640000,
      "drivingDurationMs": 2283856,
      "idlingDurationMs": 356144,
      "fuelConsumedMl": 2532,
      "fuelConsumedGallons": 0.669,
      "maxSpeedMph": 35.4,
      "averageSpeedMph": 16.9,
      "safetyEvents": []
    },
    {
      "id": "trip_48271925_20250306_9025",
      "vehicleId": "48271925",
      "driverId": "20000039",
      "startMs": 1741303952000,
      "endMs": 1741308930000,
      "startAddress": "6330 Brown Freeway Suite 569",
      "endAddress": "862 Rodgers Falls Suite 090",
      "startCoords": {
        "latitude": 40.78653,
        "longitude": -111.840531
      },
      "endCoords": {
        "latitude": 40.76805,
        "longitude": -111.866046
      },
      "distanceMeters": 34564.0,
      "durationMs": 4978000,
      "drivingDurationMs": 4385477,
      "idlingDurationMs": 592523,
      "fuelConsumedMl": 4395,
      "fuelConsumedGallons": 1.161,
      "maxSpeedMph": 33.2,
      "averageSpeedMph": 15.5,
      "safetyEvents": []
    },
    {
      "id": "trip_48271925_20250307_9093",
      "vehicleId": "48271925",
      "driverId": "20000037",
      "startMs": 1741346225000,
      "endMs": 1741352541000,
      "startAddress": "90800 Amber Flat Suite 503",
      "endAddress": "4533 Jason Prairie",
      "startCoords": {
        "latitude": 40.711329,
        "longitude": -111.841598
      },
      "endCoords": {
        "latitude": 40.77024,
        "longitude": -111.778552
      },
      "distanceMeters": 39827.3,
      "durationMs": 6316000,
      "drivingDurationMs": 4982466,
      "idlingDurationMs": 1333534,
      "fuelConsumedMl": 5065,
      "fuelConsumedGallons": 1.338,
      "maxSpeedMph": 33.2,
      "averageSpeedMph": 14.1,
      "safetyEvents": []
    },
    {
      "id": "trip_48271925_20250307_9138",
      "vehicleId": "48271925",
      "driverId": "20000037",
      "startMs": 1741367080000,
      "endMs": 1741381175000,
      "startAddress": "7705 Mary Mills",
      "endAddress": "216 Trevor Avenue Suite 043",
      "startCoords": {
        "latitude": 40.757965,
        "longitude": -111.917754
      },
      "endCoords": {
        "latitude": 40.707532,
        "longitude": -111.868279
      },
      "distanceMeters": 72206.4,
      "durationMs": 14095000,
      "drivingDurationMs": 12637559,
      "idlingDurationMs": 1457441,
      "fuelConsumedMl": 9180,
      "fuelConsumedGallons": 2.425,
      "maxSpeedMph": 38.3,
      "averageSpeedMph": 11.5,
      "safetyEvents": []
    },
    {
      "id": "trip_48271925_20250308_9212",
      "vehicleId": "48271925",
      "driverId": "20000039",
      "startMs": 1741412640000,
      "endMs": 1741414500000,
      "startAddress": "94716 Nguyen Falls",
      "endAddress": "8015 Guerra Forges",
      "startCoords": {
        "latitude": 40.78385,
        "longitude": -111.847282
      },
      "endCoords": {
        "latitude": 40.695022,
        "longitude": -111.880641
      },
      "distanceMeters": 11837.3,
      "durationMs": 1860000,
      "drivingDurationMs": 1672563,
      "idlingDurationMs": 187437,
      "fuelConsumedMl": 1507,
      "fuelConsumedGallons": 0.398,
      "maxSpeedMph": 38.5,
      "averageSpeedMph": 14.2,
      "safetyEvents": []
    },
    {
      "id": "trip_48271925_20250308_9257",
      "vehicleId": "48271925",
      "driverId": "20000039",
      "startMs": 1741434044000,
      "endMs": 1741438013000,
      "startAddress": "796 Smith Street",
      "endAddress": "8470 Costa Stream Apt. 754",
      "startCoords": {
        "latitude": 40.740573,
        "longitude": -111.861296
      },
      "endCoords": {
        "latitude": 40.690464,
        "longitude": -111.897038
      },
      "distanceMeters": 17929.5,
      "durationMs": 3969000,
      "drivingDurationMs": 3286503,
      "idlingDurationMs": 682497,
      "fuelConsumedMl": 2279,
      "fuelConsumedGallons": 0.602,
      "maxSpeedMph": 28.9,
      "averageSpeedMph": 10.1,
      "safetyEvents": []
    },
    {
      "id": "trip_48271925_20250308_9307",
      "vehicleId": "48271925",
      "driverId": "20000034",
      "startMs": 1741457036000,
      "endMs": 1741464119000,
      "startAddress": "02016 Amanda View",
      "endAddress": "13670 Russell Skyway",
      "startCoords": {
        "latitude": 40.679377,
        "longitude": -111.900423
      },
      "endCoords": {
        "latitude": 40.796975,
        "longitude": -111.821885
      },
      "distanceMeters": 46937.3,
      "durationMs": 7083000,
      "drivingDurationMs": 5969698,
      "idlingDurationMs": 1113302,
      "fuelConsumedMl": 5970,
      "fuelConsumedGallons": 1.577,
      "maxSpeedMph": 39.2,
      "averageSpeedMph": 14.8,
      "safetyEvents": []
    },
    {
      "id": "trip_48271925_20250309_9354",
      "vehicleId": "48271925",
      "driverId": "20000033",
      "startMs": 1741481780000,
      "endMs": 1741483640000,
      "startAddress": "391 Anderson Freeway",
      "endAddress": "388 Daniel Terrace Suite 533",
      "startCoords": {
        "latitude": 40.799796,
        "longitude": -111.90923
      },
      "endCoords": {
        "latitude": 40.775746,
        "longitude": -111.863096
      },
      "distanceMeters": 9691.5,
      "durationMs": 1860000,
      "drivingDurationMs": 1618571,
      "idlingDurationMs": 241429,
      "fuelConsumedMl": 1234,
      "fuelConsumedGallons": 0.326,
      "maxSpeedMph": 36.3,
      "averageSpeedMph": 11.7,
      "safetyEvents": []
    },
    {
      "id": "trip_48271925_20250309_9402",
      "vehicleId": "48271925",
      "driverId": "20000039",
      "startMs": 1741517401000,
      "endMs": 1741525042000,
      "startAddress": "1789 Bruce Spur",
      "endAddress": "9139 Proctor Course",
      "startCoords": {
        "latitude": 40.672221,
        "longitude": -111.886276
      },
      "endCoords": {
        "latitude": 40.732564,
        "longitude": -111.958157
      },
      "distanceMeters": 44772.2,
      "durationMs": 7641000,
      "drivingDurationMs": 6035743,
      "idlingDurationMs": 1605257,
      "fuelConsumedMl": 5693,
      "fuelConsumedGallons": 1.504,
      "maxSpeedMph": 31.8,
      "averageSpeedMph": 13.1,
      "safetyEvents": []
    },
    {
      "id": "trip_48271925_20250310_9468",
      "vehicleId": "48271925",
      "driverId": "20000033",
      "startMs": 1741584896000,
      "endMs": 1741587236000,
      "startAddress": "11249 Amanda Gateway",
      "endAddress": "385 Acevedo Station Apt. 352",
      "startCoords": {
        "latitude": 40.703936,
        "longitude": -111.889534
      },
      "endCoords": {
        "latitude": 40.693949,
        "longitude": -111.864087
      },
      "distanceMeters": 15084.5,
      "durationMs": 2340000,
      "drivingDurationMs": 2036380,
      "idlingDurationMs": 303620,
      "fuelConsumedMl": 1919,
      "fuelConsumedGallons": 0.507,
      "maxSpeedMph": 38.2,
      "averageSpeedMph": 14.4,
      "safetyEvents": []
    },
    {
      "id": "trip_48271925_20250310_9524",
      "vehicleId": "48271925",
      "driverId": "20000038",
      "startMs": 1741614434000,
      "endMs": 1741617773000,
      "startAddress": "5485 Carmen Loop Suite 310",
      "endAddress": "671 Eaton Trail",
      "startCoords": {
        "latitude": 40.678857,
        "longitude": -111.816112
      },
      "endCoords": {
        "latitude": 40.787009,
        "longitude": -111.834842
      },
      "distanceMeters": 13342.1,
      "durationMs": 3339000,
      "drivingDurationMs": 2638135,
      "idlingDurationMs": 700865,
      "fuelConsumedMl": 1696,
      "fuelConsumedGallons": 0.448,
      "maxSpeedMph": 37.1,
      "averageSpeedMph": 8.9,
      "safetyEvents": []
    },
    {
      "id": "trip_48271925_20250310_9563",
      "vehicleId": "48271925",
      "driverId": "20000037",
      "startMs": 1741631394000,
      "endMs": 1741638757000,
      "startAddress": "34684 Ray Branch",
      "endAddress": "1582 Austin Walk Suite 340",
      "startCoords": {
        "latitude": 40.669314,
        "longitude": -111.85456
      },
      "endCoords": {
        "latitude": 40.767501,
        "longitude": -111.88958
      },
      "distanceMeters": 41761.3,
      "durationMs": 7363000,
      "drivingDurationMs": 6061307,
      "idlingDurationMs": 1301693,
      "fuelConsumedMl": 5311,
      "fuelConsumedGallons": 1.403,
      "maxSpeedMph": 31.7,
      "averageSpeedMph": 12.7,
      "safetyEvents": []
    },
    {
      "id": "trip_48271925_20250311_9605",
      "vehicleId": "48271925",
      "driverId": "20000036",
      "startMs": 1741655070000,
      "endMs": 1741665371000,
      "startAddress": "74214 Emma Green",
      "endAddress": "817 Haley Circles",
      "startCoords": {
        "latitude": 40.746093,
        "longitude": -111.891783
      },
      "endCoords": {
        "latitude": 40.689366,
        "longitude": -111.88205
      },
      "distanceMeters": 61318.5,
      "durationMs": 10301000,
      "drivingDurationMs": 8584546,
      "idlingDurationMs": 1716454,
      "fuelConsumedMl": 7798,
      "fuelConsumedGallons": 2.06,
      "maxSpeedMph": 39.5,
      "averageSpeedMph": 13.3,
      "safetyEvents": []
    },
    {
      "id": "trip_48271925_20250311_9653",
      "vehicleId": "48271925",
      "driverId": "20000034",
      "startMs": 1741684647000,
      "endMs": 1741687443000,
      "startAddress": "88806 Hudson Crossing",
      "endAddress": "752 Hays Villages Apt. 213",
      "startCoords": {
        "latitude": 40.754849,
        "longitude": -111.849928
      },
      "endCoords": {
        "latitude": 40.703863,
        "longitude": -111.828282
      },
      "distanceMeters": 14164.9,
      "durationMs": 2796000,
      "drivingDurationMs": 2342164,
      "idlingDurationMs": 453836,
      "fuelConsumedMl": 1802,
      "fuelConsumedGallons": 0.476,
      "maxSpeedMph": 33.8,
      "averageSpeedMph": 11.3,
      "safetyEvents": []
    },
    {
      "id": "trip_48271925_20250311_9690",
      "vehicleId": "48271925",
      "driverId": "20000035",
      "startMs": 1741704091000,
      "endMs": 1741706671000,
      "startAddress": "863 Danielle Passage Suite 223",
      "endAddress": "872 Jennings Lights",
      "startCoords": {
        "latitude": 40.723277,
        "longitude": -111.928795
      },
      "endCoords": {
        "latitude": 40.757032,
        "longitude": -111.848717
      },
      "distanceMeters": 15373.8,
      "durationMs": 2580000,
      "drivingDurationMs": 1951593,
      "idlingDurationMs": 628407,
      "fuelConsumedMl": 1953,
      "fuelConsumedGallons": 0.516,
      "maxSpeedMph": 35.0,
      "averageSpeedMph": 13.3,
      "safetyEvents": []
    },
    {
      "id": "trip_48271925_20250311_9739",
      "vehicleId": "48271925",
      "driverId": "20000037",
      "startMs": 1741728110000,
      "endMs": 1741730330000,
      "startAddress": "2504 Mendez Forks Apt. 487",
      "endAddress": "2136 Walker Square",
      "startCoords": {
        "latitude": 40.776196,
        "longitude": -111.929013
      },
      "endCoords": {
        "latitude": 40.715647,
        "longitude": -111.890658
      },
      "distanceMeters": 9752.7,
      "durationMs": 2220000,
      "drivingDurationMs": 1916609,
      "idlingDurationMs": 303391,
      "fuelConsumedMl": 1242,
      "fuelConsumedGallons": 0.328,
      "maxSpeedMph": 32.3,
      "averageSpeedMph": 9.8,
      "safetyEvents": []
    },
    {
      "id": "trip_48271925_20250312_9789",
      "vehicleId": "48271925",
      "driverId": "20000037",
      "startMs": 1741761437000,
      "endMs": 1741763657000,
      "startAddress": "3607 David Junction",
      "endAddress": "9150 Bridget Burg Suite 620",
      "startCoords": {
        "latitude": 40.712149,
        "longitude": -111.924652
      },
      "endCoords": {
        "latitude": 40.756438,
        "longitude": -111.911879
      },
      "distanceMeters": 11576.8,
      "durationMs": 2220000,
      "drivingDurationMs": 1957158,
      "idlingDurationMs": 262842,
      "fuelConsumedMl": 1473,
      "fuelConsumedGallons": 0.389,
      "maxSpeedMph": 33.9,
      "averageSpeedMph": 11.7,
      "safetyEvents": []
    },
    {
      "id": "trip_48271925_20250312_9831",
      "vehicleId": "48271925",
      "driverId": "20000038",
      "startMs": 1741781706000,
      "endMs": 1741787568000,
      "startAddress": "84934 Omar Inlet Suite 532",
      "endAddress": "87404 Robinson Well Suite 091",
      "startCoords": {
        "latitude": 40.663,
        "longitude": -111.961832
      },
      "endCoords": {
        "latitude": 40.728447,
        "longitude": -111.944866
      },
      "distanceMeters": 40269.2,
      "durationMs": 5862000,
      "drivingDurationMs": 4786723,
      "idlingDurationMs": 1075277,
      "fuelConsumedMl": 5122,
      "fuelConsumedGallons": 1.353,
      "maxSpeedMph": 30.9,
      "averageSpeedMph": 15.4,
      "safetyEvents": []
    },
    {
      "id": "trip_48271925_20250312_9877",
      "vehicleId": "48271925",
      "driverId": "20000035",
      "startMs": 1741803412000,
      "endMs": 1741810002000,
      "startAddress": "570 Andrea Track",
      "endAddress": "0671 Smith Rapids Apt. 498",
      "startCoords": {
        "latitude": 40.791375,
        "longitude": -111.891344
      },
      "endCoords": {
        "latitude": 40.736164,
        "longitude": -111.922236
      },
      "distanceMeters": 35263.1,
      "durationMs": 6590000,
      "drivingDurationMs": 5527232,
      "idlingDurationMs": 1062768,
      "fuelConsumedMl": 4482,
      "fuelConsumedGallons": 1.184,
      "maxSpeedMph": 27.0,
      "averageSpeedMph": 12.0,
      "safetyEvents": []
    },
    {
      "id": "trip_48271925_20250313_9925",
      "vehicleId": "48271925",
      "driverId": "20000034",
      "startMs": 1741830116000,
      "endMs": 1741831976000,
      "startAddress": "745 Patrick Branch",
      "endAddress": "9777 Andrew Green",
      "startCoords": {
        "latitude": 40.729347,
        "longitude": -111.928363
      },
      "endCoords": {
        "latitude": 40.760974,
        "longitude": -111.85214
      },
      "distanceMeters": 9806.7,
      "durationMs": 1860000,
      "drivingDurationMs": 1395002,
      "idlingDurationMs": 464998,
      "fuelConsumedMl": 1245,
      "fuelConsumedGallons": 0.329,
      "maxSpeedMph": 26.8,
      "averageSpeedMph": 11.8,
      "safetyEvents": []
    },
    {
      "id": "trip_48271925_20250313_9964",
      "vehicleId": "48271925",
      "driverId": "20000038",
      "startMs": 1741851193000,
      "endMs": 1741857817000,
      "startAddress": "9033 Emily Garden Apt. 738",
      "endAddress": "7649 Elizabeth Lock",
      "startCoords": {
        "latitude": 40.748573,
        "longitude": -111.916333
      },
      "endCoords": {
        "latitude": 40.746139,
        "longitude": -111.863094
      },
      "distanceMeters": 40026.2,
      "durationMs": 6624000,
      "drivingDurationMs": 5529065,
      "idlingDurationMs": 1094935,
      "fuelConsumedMl": 5088,
      "fuelConsumedGallons": 1.344,
      "maxSpeedMph": 32.1,
      "averageSpeedMph": 13.5,
      "safetyEvents": []
    },
    {
      "id": "trip_48271925_20250313_10010",
      "vehicleId": "48271925",
      "driverId": "20000037",
      "startMs": 1741876815000,
      "endMs": 1741887399000,
      "startAddress": "10200 Christopher Center",
      "endAddress": "759 James Rapid",
      "startCoords": {
        "latitude": 40.730695,
        "longitude": -111.903276
      },
      "endCoords": {
        "latitude": 40.742623,
        "longitude": -111.868788
      },
      "distanceMeters": 67867.3,
      "durationMs": 10584000,
      "drivingDurationMs": 8775275,
      "idlingDurationMs": 1808725,
      "fuelConsumedMl": 8631,
      "fuelConsumedGallons": 2.28,
      "maxSpeedMph": 37.2,
      "averageSpeedMph": 14.3,
      "safetyEvents": []
    },
    {
      "id": "trip_48271925_20250313_10050",
      "vehicleId": "48271925",
      "driverId": "20000039",
      "startMs": 1741898442000,
      "endMs": 1741902606000,
      "startAddress": "831 Denise Row",
      "endAddress": "5897 Ashley Street",
      "startCoords": {
        "latitude": 40.719224,
        "longitude": -111.810384
      },
      "endCoords": {
        "latitude": 40.690824,
        "longitude": -111.824098
      },
      "distanceMeters": 19968.0,
      "durationMs": 4164000,
      "drivingDurationMs": 3663153,
      "idlingDurationMs": 500847,
      "fuelConsumedMl": 2540,
      "fuelConsumedGallons": 0.671,
      "maxSpeedMph": 33.6,
      "averageSpeedMph": 10.7,
      "safetyEvents": []
    },
    {
      "id": "trip_48271925_20250314_10097",
      "vehicleId": "48271925",
      "driverId": "20000034",
      "startMs": 1741922317000,
      "endMs": 1741923937000,
      "startAddress": "76781 Carey Throughway Apt. 298",
      "endAddress": "08054 Nicole Port Suite 361",
      "startCoords": {
        "latitude": 40.731707,
        "longitude": -111.921978
      },
      "endCoords": {
        "latitude": 40.708628,
        "longitude": -111.808206
      },
      "distanceMeters": 10828.5,
      "durationMs": 1620000,
      "drivingDurationMs": 1344668,
      "idlingDurationMs": 275332,
      "fuelConsumedMl": 1378,
      "fuelConsumedGallons": 0.364,
      "maxSpeedMph": 34.8,
      "averageSpeedMph": 15.0,
      "safetyEvents": []
    },
    {
      "id": "trip_48271925_20250314_10150",
      "vehicleId": "48271925",
      "driverId": "20000039",
      "startMs": 1741949024000,
      "endMs": 1741950464000,
      "startAddress": "4750 Elizabeth Plains Suite 236",
      "endAddress": "98677 Gonzalez Highway",
      "startCoords": {
        "latitude": 40.731737,
        "longitude": -111.914451
      },
      "endCoords": {
        "latitude": 40.734468,
        "longitude": -111.916306
      },
      "distanceMeters": 9941.6,
      "durationMs": 1440000,
      "drivingDurationMs": 1247178,
      "idlingDurationMs": 192822,
      "fuelConsumedMl": 1264,
      "fuelConsumedGallons": 0.334,
      "maxSpeedMph": 32.7,
      "averageSpeedMph": 15.4,
      "safetyEvents": []
    },
    {
      "id": "trip_48271925_20250314_10178",
      "vehicleId": "48271925",
      "driverId": "20000033",
      "startMs": 1741960363000,
      "endMs": 1741962448000,
      "startAddress": "67171 Ashley Lock Suite 437",
      "endAddress": "838 Bradley Club Apt. 298",
      "startCoords": {
        "latitude": 40.668966,
        "longitude": -111.779481
      },
      "endCoords": {
        "latitude": 40.734784,
        "longitude": -111.821258
      },
      "distanceMeters": 10887.1,
      "durationMs": 2085000,
      "drivingDurationMs": 1621321,
      "idlingDurationMs": 463679,
      "fuelConsumedMl": 1385,
      "fuelConsumedGallons": 0.366,
      "maxSpeedMph": 29.8,
      "averageSpeedMph": 11.7,
      "safetyEvents": []
    },
    {
      "id": "trip_48271925_20250314_10223",
      "vehicleId": "48271925",
      "driverId": "20000039",
      "startMs": 1741986841000,
      "endMs": 1741988275000,
      "startAddress": "782 Calderon Flat",
      "endAddress": "3175 Angela Falls Suite 582",
      "startCoords": {
        "latitude": 40.691064,
        "longitude": -111.785672
      },
      "endCoords": {
        "latitude": 40.661202,
        "longitude": -111.816323
      },
      "distanceMeters": 10639.2,
      "durationMs": 1434000,
      "drivingDurationMs": 1197249,
      "idlingDurationMs": 236751,
      "fuelConsumedMl": 1351,
      "fuelConsumedGallons": 0.357,
      "maxSpeedMph": 28.2,
      "averageSpeedMph": 16.6,
      "safetyEvents": []
    },
    {
      "id": "trip_48271925_20250315_10267",
      "vehicleId": "48271925",
      "driverId": "20000033",
      "startMs": 1742011909000,
      "endMs": 1742014069000,
      "startAddress": "884 Diaz Route",
      "endAddress": "93055 Garcia Gateway Apt. 591",
      "startCoords": {
        "latitude": 40.662741,
        "longitude": -111.818624
      },
      "endCoords": {
        "latitude": 40.790657,
        "longitude": -111.885647
      },
      "distanceMeters": 15733.7,
      "durationMs": 2160000,
      "drivingDurationMs": 1889513,
      "idlingDurationMs": 270487,
      "fuelConsumedMl": 1999,
      "fuelConsumedGallons": 0.528,
      "maxSpeedMph": 33.7,
      "averageSpeedMph": 16.3,
      "safetyEvents": []
    },
    {
      "id": "trip_48271925_20250315_10321",
      "vehicleId": "48271925",
      "driverId": "20000033",
      "startMs": 1742041128000,
      "endMs": 1742043768000,
      "startAddress": "225 Joann Oval",
      "endAddress": "9884 Russell Land Suite 099",
      "startCoords": {
        "latitude": 40.68655,
        "longitude": -111.834419
      },
      "endCoords": {
        "latitude": 40.728823,
        "longitude": -111.797826
      },
      "distanceMeters": 16849.6,
      "durationMs": 2640000,
      "drivingDurationMs": 2176165,
      "idlingDurationMs": 463835,
      "fuelConsumedMl": 2143,
      "fuelConsumedGallons": 0.566,
      "maxSpeedMph": 39.3,
      "averageSpeedMph": 14.3,
      "safetyEvents": []
    },
    {
      "id": "trip_48271925_20250315_10369",
      "vehicleId": "48271925",
      "driverId": "20000033",
      "startMs": 1742065353000,
      "endMs": 1742067333000,
      "startAddress": "150 Kirk Port Suite 341",
      "endAddress": "465 Roger Knoll",
      "startCoords": {
        "latitude": 40.689348,
        "longitude": -111.911032
      },
      "endCoords": {
        "latitude": 40.692385,
        "longitude": -111.822778
      },
      "distanceMeters": 9746.2,
      "durationMs": 1980000,
      "drivingDurationMs": 1653584,
      "idlingDurationMs": 326416,
      "fuelConsumedMl": 1238,
      "fuelConsumedGallons": 0.327,
      "maxSpeedMph": 35.5,
      "averageSpeedMph": 11.0,
      "safetyEvents": []
    },
    {
      "id": "trip_48271925_20250316_10414",
      "vehicleId": "48271925",
      "driverId": "20000039",
      "startMs": 1742098592000,
      "endMs": 1742101292000,
      "startAddress": "139 Young Pike",
      "endAddress": "8415 Horn Rest",
      "startCoords": {
        "latitude": 40.703223,
        "longitude": -111.916854
      },
      "endCoords": {
        "latitude": 40.743292,
        "longitude": -111.931371
      },
      "distanceMeters": 17767.6,
      "durationMs": 2700000,
      "drivingDurationMs": 2262662,
      "idlingDurationMs": 437338,
      "fuelConsumedMl": 2260,
      "fuelConsumedGallons": 0.597,
      "maxSpeedMph": 37.5,
      "averageSpeedMph": 14.7,
      "safetyEvents": []
    },
    {
      "id": "trip_48271925_20250316_10496",
      "vehicleId": "48271925",
      "driverId": "20000035",
      "startMs": 1742161195000,
      "endMs": 1742163175000,
      "startAddress": "591 Stephanie Corner Apt. 639",
      "endAddress": "533 Jodi Parks Apt. 000",
      "startCoords": {
        "latitude": 40.684673,
        "longitude": -111.834853
      },
      "endCoords": {
        "latitude": 40.695485,
        "longitude": -111.871018
      },
      "distanceMeters": 9787.6,
      "durationMs": 1980000,
      "drivingDurationMs": 1585678,
      "idlingDurationMs": 394322,
      "fuelConsumedMl": 1245,
      "fuelConsumedGallons": 0.329,
      "maxSpeedMph": 36.8,
      "averageSpeedMph": 11.1,
      "safetyEvents": []
    },
    {
      "id": "trip_48271925_20250317_10539",
      "vehicleId": "48271925",
      "driverId": "20000039",
      "startMs": 1742205952000,
      "endMs": 1742208197000,
      "startAddress": "7227 Brandy Road",
      "endAddress": "205 Brian Stravenue Apt. 089",
      "startCoords": {
        "latitude": 40.783238,
        "longitude": -111.801658
      },
      "endCoords": {
        "latitude": 40.797308,
        "longitude": -111.897271
      },
      "distanceMeters": 16683.5,
      "durationMs": 2245000,
      "drivingDurationMs": 2011513,
      "idlingDurationMs": 233487,
      "fuelConsumedMl": 2120,
      "fuelConsumedGallons": 0.56,
      "maxSpeedMph": 38.9,
      "averageSpeedMph": 16.6,
      "safetyEvents": []
    },
    {
      "id": "trip_48271925_20250317_10581",
      "vehicleId": "48271925",
      "driverId": "20000038",
      "startMs": 1742226018000,
      "endMs": 1742227458000,
      "startAddress": "220 Wells Summit Apt. 772",
      "endAddress": "07741 Jennifer Pine",
      "startCoords": {
        "latitude": 40.712074,
        "longitude": -111.837317
      },
      "endCoords": {
        "latitude": 40.692962,
        "longitude": -111.820526
      },
      "distanceMeters": 7471.7,
      "durationMs": 1440000,
      "drivingDurationMs": 1210923,
      "idlingDurationMs": 229077,
      "fuelConsumedMl": 950,
      "fuelConsumedGallons": 0.251,
      "maxSpeedMph": 35.9,
      "averageSpeedMph": 11.6,
      "safetyEvents": []
    },
    {
      "id": "trip_48271925_20250317_10626",
      "vehicleId": "48271925",
      "driverId": "20000037",
      "startMs": 1742248847000,
      "endMs": 1742250827000,
      "startAddress": "32612 Sanchez Stravenue Apt. 778",
      "endAddress": "569 Rogers Pass Apt. 086",
      "startCoords": {
        "latitude": 40.770158,
        "longitude": -111.808624
      },
      "endCoords": {
        "latitude": 40.678482,
        "longitude": -111.812605
      },
      "distanceMeters": 13793.9,
      "durationMs": 1980000,
      "drivingDurationMs": 1639878,
      "idlingDurationMs": 340122,
      "fuelConsumedMl": 1753,
      "fuelConsumedGallons": 0.463,
      "maxSpeedMph": 35.2,
      "averageSpeedMph": 15.6,
      "safetyEvents": []
    },
    {
      "id": "trip_48271925_20250318_10689",
      "vehicleId": "48271925",
      "driverId": "20000037",
      "startMs": 1742286822000,
      "endMs": 1742302067000,
      "startAddress": "83598 Hays Glen Apt. 498",
      "endAddress": "03154 Velez Valley",
      "startCoords": {
        "latitude": 40.775615,
        "longitude": -111.874081
      },
      "endCoords": {
        "latitude": 40.747818,
        "longitude": -111.837741
      },
      "distanceMeters": 81959.6,
      "durationMs": 15245000,
      "drivingDurationMs": 13718668,
      "idlingDurationMs": 1526332,
      "fuelConsumedMl": 10421,
      "fuelConsumedGallons": 2.753,
      "maxSpeedMph": 33.7,
      "averageSpeedMph": 12.0,
      "safetyEvents": []
    },
    {
      "id": "trip_48271925_20250318_10732",
      "vehicleId": "48271925",
      "driverId": "20000034",
      "startMs": 1742305621000,
      "endMs": 1742307841000,
      "startAddress": "3978 David Dam",
      "endAddress": "7804 Jenkins Neck",
      "startCoords": {
        "latitude": 40.795921,
        "longitude": -111.917054
      },
      "endCoords": {
        "latitude": 40.697936,
        "longitude": -111.913369
      },
      "distanceMeters": 11313.0,
      "durationMs": 2220000,
      "drivingDurationMs": 1757331,
      "idlingDurationMs": 462669,
      "fuelConsumedMl": 1438,
      "fuelConsumedGallons": 0.38,
      "maxSpeedMph": 38.7,
      "averageSpeedMph": 11.4,
      "safetyEvents": []
    },
    {
      "id": "trip_48271925_20250318_10764",
      "vehicleId": "48271925",
      "driverId": "20000034",
      "startMs": 1742319267000,
      "endMs": 1742332839000,
      "startAddress": "98392 Hinton Ridges Suite 278",
      "endAddress": "66058 Johnson Plain",
      "startCoords": {
        "latitude": 40.675487,
        "longitude": -111.781175
      },
      "endCoords": {
        "latitude": 40.701222,
        "longitude": -111.929635
      },
      "distanceMeters": 82000.3,
      "durationMs": 13572000,
      "drivingDurationMs": 10433131,
      "idlingDurationMs": 3138869,
      "fuelConsumedMl": 10425,
      "fuelConsumedGallons": 2.754,
      "maxSpeedMph": 38.3,
      "averageSpeedMph": 13.5,
      "safetyEvents": []
    },
    {
      "id": "trip_48271925_20250318_10798",
      "vehicleId": "48271925",
      "driverId": "20000034",
      "startMs": 1742339418000,
      "endMs": 1742342058000,
      "startAddress": "786 Christina Spurs Suite 853",
      "endAddress": "1955 Miranda Viaduct",
      "startCoords": {
        "latitude": 40.743664,
        "longitude": -111.952202
      },
      "endCoords": {
        "latitude": 40.783904,
        "longitude": -111.810679
      },
      "distanceMeters": 17936.9,
      "durationMs": 2640000,
      "drivingDurationMs": 2030440,
      "idlingDurationMs": 609560,
      "fuelConsumedMl": 2279,
      "fuelConsumedGallons": 0.602,
      "maxSpeedMph": 34.4,
      "averageSpeedMph": 15.2,
      "safetyEvents": []
    },
    {
      "id": "trip_48271925_20250319_10842",
      "vehicleId": "48271925",
      "driverId": "20000035",
      "startMs": 1742358976000,
      "endMs": 1742361196000,
      "startAddress": "3448 Michele Cove",
      "endAddress": "5250 Sophia Ways",
      "startCoords": {
        "latitude": 40.768967,
        "longitude": -111.946821
      },
      "endCoords": {
        "latitude": 40.718229,
        "longitude": -111.900673
      },
      "distanceMeters": 10449.0,
      "durationMs": 2220000,
      "drivingDurationMs": 1677723,
      "idlingDurationMs": 542277,
      "fuelConsumedMl": 1329,
      "fuelConsumedGallons": 0.351,
      "maxSpeedMph": 36.6,
      "averageSpeedMph": 10.5,
      "safetyEvents": []
    },
    {
      "id": "trip_48271925_20250319_10885",
      "vehicleId": "48271925",
      "driverId": "20000035",
      "startMs": 1742381870000,
      "endMs": 1742387130000,
      "startAddress": "5382 Hopkins Passage Apt. 488",
      "endAddress": "2352 Andrea Club Apt. 224",
      "startCoords": {
        "latitude": 40.698673,
        "longitude": -111.923283
      },
      "endCoords": {
        "latitude": 40.673482,
        "longitude": -111.880593
      },
      "distanceMeters": 21900.2,
      "durationMs": 5260000,
      "drivingDurationMs": 4234844,
      "idlingDurationMs": 1025156,
      "fuelConsumedMl": 2786,
      "fuelConsumedGallons": 0.736,
      "maxSpeedMph": 31.5,
      "averageSpeedMph": 9.3,
      "safetyEvents": []
    },
    {
      "id": "trip_48271925_20250319_10925",
      "vehicleId": "48271925",
      "driverId": "20000035",
      "startMs": 1742401417000,
      "endMs": 1742403817000,
      "startAddress": "99514 Omar Underpass",
      "endAddress": "43363 Shepard Plains Suite 870",
      "startCoords": {
        "latitude": 40.666433,
        "longitude": -111.798268
      },
      "endCoords": {
        "latitude": 40.725537,
        "longitude": -111.800597
      },
      "distanceMeters": 13296.8,
      "durationMs": 2400000,
      "drivingDurationMs": 1971961,
      "idlingDurationMs": 428039,
      "fuelConsumedMl": 1692,
      "fuelConsumedGallons": 0.447,
      "maxSpeedMph": 34.3,
      "averageSpeedMph": 12.4,
      "safetyEvents": []
    },
    {
      "id": "trip_48271925_20250319_10969",
      "vehicleId": "48271925",
      "driverId": "20000035",
      "startMs": 1742423916000,
      "endMs": 1742425836000,
      "startAddress": "7063 Shelia Path Apt. 308",
      "endAddress": "983 Brian Falls Apt. 411",
      "startCoords": {
        "latitude": 40.724187,
        "longitude": -111.799932
      },
      "endCoords": {
        "latitude": 40.691533,
        "longitude": -111.940939
      },
      "distanceMeters": 12872.9,
      "durationMs": 1920000,
      "drivingDurationMs": 1681669,
      "idlingDurationMs": 238331,
      "fuelConsumedMl": 1635,
      "fuelConsumedGallons": 0.432,
      "maxSpeedMph": 28.4,
      "averageSpeedMph": 15.0,
      "safetyEvents": []
    },
    {
      "id": "trip_48271925_20250320_11024",
      "vehicleId": "48271925",
      "driverId": "20000033",
      "startMs": 1742457872000,
      "endMs": 1742461255000,
      "startAddress": "319 Moody Knoll",
      "endAddress": "84725 Tammy Extensions",
      "startCoords": {
        "latitude": 40.735186,
        "longitude": -111.831764
      },
      "endCoords": {
        "latitude": 40.754719,
        "longitude": -111.84677
      },
      "distanceMeters": 23415.7,
      "durationMs": 3383000,
      "drivingDurationMs": 2710985,
      "idlingDurationMs": 672015,
      "fuelConsumedMl": 2975,
      "fuelConsumedGallons": 0.786,
      "maxSpeedMph": 37.3,
      "averageSpeedMph": 15.5,
      "safetyEvents": []
    },
    {
      "id": "trip_48271925_20250320_11066",
      "vehicleId": "48271925",
      "driverId": "20000035",
      "startMs": 1742478906000,
      "endMs": 1742480946000,
      "startAddress": "08035 Johnson Trace",
      "endAddress": "6668 Cooke Causeway Suite 367",
      "startCoords": {
        "latitude": 40.766482,
        "longitude": -111.829346
      },
      "endCoords": {
        "latitude": 40.767968,
        "longitude": -111.809891
      },
      "distanceMeters": 10832.5,
      "durationMs": 2040000,
      "drivingDurationMs": 1561501,
      "idlingDurationMs": 478499,
      "fuelConsumedMl": 1378,
      "fuelConsumedGallons": 0.364,
      "maxSpeedMph": 29.3,
      "averageSpeedMph": 11.9,
      "safetyEvents": []
    },
    {
      "id": "trip_48271925_20250320_11104",
      "vehicleId": "48271925",
      "driverId": "20000035",
      "startMs": 1742496560000,
      "endMs": 1742498960000,
      "startAddress": "93692 Samuel Lake Apt. 375",
      "endAddress": "8792 Michelle View",
      "startCoords": {
        "latitude": 40.67502,
        "longitude": -111.848954
      },
      "endCoords": {
        "latitude": 40.694678,
        "longitude": -111.902832
      },
      "distanceMeters": 12045.6,
      "durationMs": 2400000,
      "drivingDurationMs": 1934946,
      "idlingDurationMs": 465054,
      "fuelConsumedMl": 1533,
      "fuelConsumedGallons": 0.405,
      "maxSpeedMph": 37.5,
      "averageSpeedMph": 11.2,
      "safetyEvents": []
    },
    {
      "id": "trip_48271925_20250321_11131",
      "vehicleId": "48271925",
      "driverId": "20000035",
      "startMs": 1742516081000,
      "endMs": 1742518481000,
      "startAddress": "4175 Joshua Shore",
      "endAddress": "96759 Palmer Hill",
      "startCoords": {
        "latitude": 40.67678,
        "longitude": -111.957775
      },
      "endCoords": {
        "latitude": 40.795544,
        "longitude": -111.954635
      },
      "distanceMeters": 15873.0,
      "durationMs": 2400000,
      "drivingDurationMs": 1877532,
      "idlingDurationMs": 522468,
      "fuelConsumedMl": 2018,
      "fuelConsumedGallons": 0.533,
      "maxSpeedMph": 38.1,
      "averageSpeedMph": 14.8,
      "safetyEvents": []
    },
    {
      "id": "trip_48271925_20250321_11160",
      "vehicleId": "48271925",
      "driverId": "20000035",
      "startMs": 1742537016000,
      "endMs": 1742540232000,
      "startAddress": "843 Mark Via",
      "endAddress": "72354 Turner Square Suite 094",
      "startCoords": {
        "latitude": 40.784541,
        "longitude": -111.783434
      },
      "endCoords": {
        "latitude": 40.677833,
        "longitude": -111.901605
      },
      "distanceMeters": 22465.9,
      "durationMs": 3216000,
      "drivingDurationMs": 2653305,
      "idlingDurationMs": 562695,
      "fuelConsumedMl": 2858,
      "fuelConsumedGallons": 0.755,
      "maxSpeedMph": 28.3,
      "averageSpeedMph": 15.6,
      "safetyEvents": []
    },
    {
      "id": "trip_48271925_20250321_11197",
      "vehicleId": "48271925",
      "driverId": "20000036",
      "startMs": 1742555483000,
      "endMs": 1742557403000,
      "startAddress": "1224 Angela Forge Suite 470",
      "endAddress": "69831 Torres Prairie Apt. 366",
      "startCoords": {
        "latitude": 40.67962,
        "longitude": -111.874207
      },
      "endCoords": {
        "latitude": 40.784373,
        "longitude": -111.773913
      },
      "distanceMeters": 12317.6,
      "durationMs": 1920000,
      "drivingDurationMs": 1544554,
      "idlingDurationMs": 375446,
      "fuelConsumedMl": 1567,
      "fuelConsumedGallons": 0.414,
      "maxSpeedMph": 36.0,
      "averageSpeedMph": 14.4,
      "safetyEvents": []
    },
    {
      "id": "trip_48271925_20250321_11231",
      "vehicleId": "48271925",
      "driverId": "20000034",
      "startMs": 1742572703000,
      "endMs": 1742574563000,
      "startAddress": "364 Anna Circles",
      "endAddress": "24987 Herrera Villages Apt. 129",
      "startCoords": {
        "latitude": 40.704978,
        "longitude": -111.947914
      },
      "endCoords": {
        "latitude": 40.780435,
        "longitude": -111.939756
      },
      "distanceMeters": 11654.0,
      "durationMs": 1860000,
      "drivingDurationMs": 1621949,
      "idlingDurationMs": 238051,
      "fuelConsumedMl": 1480,
      "fuelConsumedGallons": 0.391,
      "maxSpeedMph": 35.3,
      "averageSpeedMph": 14.0,
      "safetyEvents": []
    },
    {
      "id": "trip_48271925_20250321_11261",
      "vehicleId": "48271925",
      "driverId": "20000033",
      "startMs": 1742585250000,
      "endMs": 1742611967000,
      "startAddress": "05314 Mark Mills",
      "endAddress": "94420 Jacqueline Overpass Suite 056",
      "startCoords": {
        "latitude": 40.791014,
        "longitude": -111.79573
      },
      "endCoords": {
        "latitude": 40.794719,
        "longitude": -111.864047
      },
      "distanceMeters": 124718.5,
      "durationMs": 26717000,
      "drivingDurationMs": 20843732,
      "idlingDurationMs": 5873268,
      "fuelConsumedMl": 15857,
      "fuelConsumedGallons": 4.189,
      "maxSpeedMph": 28.6,
      "averageSpeedMph": 10.4,
      "safetyEvents": []
    },
    {
      "id": "trip_48271925_20250322_11335",
      "vehicleId": "48271925",
      "driverId": "20000033",
      "startMs": 1742636782000,
      "endMs": 1742639122000,
      "startAddress": "008 Atkinson Isle",
      "endAddress": "7221 Matthew Throughway",
      "startCoords": {
        "latitude": 40.697439,
        "longitude": -111.939207
      },
      "endCoords": {
        "latitude": 40.778491,
        "longitude": -111.903131
      },
      "distanceMeters": 13876.2,
      "durationMs": 2340000,
      "drivingDurationMs": 1978945,
      "idlingDurationMs": 361055,
      "fuelConsumedMl": 1764,
      "fuelConsumedGallons": 0.466,
      "maxSpeedMph": 30.4,
      "averageSpeedMph": 13.3,
      "safetyEvents": []
    },
    {
      "id": "trip_48271925_20250322_11371",
      "vehicleId": "48271925",
      "driverId": "20000035",
      "startMs": 1742651520000,
      "endMs": 1742652960000,
      "startAddress": "1081 Carlos Walks Apt. 987",
      "endAddress": "53948 Michelle Meadows Suite 463",
      "startCoords": {
        "latitude": 40.683803,
        "longitude": -111.886206
      },
      "endCoords": {
        "latitude": 40.672241,
        "longitude": -111.796982
      },
      "distanceMeters": 9105.9,
      "durationMs": 1440000,
      "drivingDurationMs": 1108619,
      "idlingDurationMs": 331381,
      "fuelConsumedMl": 1158,
      "fuelConsumedGallons": 0.306,
      "maxSpeedMph": 39.6,
      "averageSpeedMph": 14.1,
      "safetyEvents": []
    },
    {
      "id": "trip_48271925_20250322_11428",
      "vehicleId": "48271925",
      "driverId": "20000034",
      "startMs": 1742683582000,
      "endMs": 1742685202000,
      "startAddress": "3135 Villanueva Ranch Apt. 087",
      "endAddress": "823 Nicholas Summit Suite 067",
      "startCoords": {
        "latitude": 40.698668,
        "longitude": -111.895888
      },
      "endCoords": {
        "latitude": 40.732243,
        "longitude": -111.846026
      },
      "distanceMeters": 7210.8,
      "durationMs": 1620000,
      "drivingDurationMs": 1397647,
      "idlingDurationMs": 222353,
      "fuelConsumedMl": 916,
      "fuelConsumedGallons": 0.242,
      "maxSpeedMph": 32.2,
      "averageSpeedMph": 10.0,
      "safetyEvents": []
    },
    {
      "id": "trip_48271925_20250323_11471",
      "vehicleId": "48271925",
      "driverId": "20000034",
      "startMs": 1742717105000,
      "endMs": 1742718725000,
      "startAddress": "642 William Center Suite 133",
      "endAddress": "5166 Julie Course",
      "startCoords": {
        "latitude": 40.684405,
        "longitude": -111.893424
      },
      "endCoords": {
        "latitude": 40.663812,
        "longitude": -111.804552
      },
      "distanceMeters": 11405.9,
      "durationMs": 1620000,
      "drivingDurationMs": 1356042,
      "idlingDurationMs": 263958,
      "fuelConsumedMl": 1450,
      "fuelConsumedGallons": 0.383,
      "maxSpeedMph": 35.5,
      "averageSpeedMph": 15.7,
      "safetyEvents": []
    },
    {
      "id": "trip_48271925_20250323_11508",
      "vehicleId": "48271925",
      "driverId": "20000036",
      "startMs": 1742745373000,
      "endMs": 1742746633000,
      "startAddress": "350 Gary Garden Suite 133",
      "endAddress": "9482 Brandon Neck",
      "startCoords": {
        "latitude": 40.78132,
        "longitude": -111.94763
      },
      "endCoords": {
        "latitude": 40.765002,
        "longitude": -111.878179
      },
      "distanceMeters": 5789.8,
      "durationMs": 1260000,
      "drivingDurationMs": 1111041,
      "idlingDurationMs": 148959,
      "fuelConsumedMl": 734,
      "fuelConsumedGallons": 0.194,
      "maxSpeedMph": 35.3,
      "averageSpeedMph": 10.3,
      "safetyEvents": []
    },
    {
      "id": "trip_48271925_20250323_11546",
      "vehicleId": "48271925",
      "driverId": "20000034",
      "startMs": 1742771894000,
      "endMs": 1742773874000,
      "startAddress": "11093 Hutchinson Ferry Apt. 224",
      "endAddress": "49852 Benjamin View Apt. 426",
      "startCoords": {
        "latitude": 40.774089,
        "longitude": -111.951839
      },
      "endCoords": {
        "latitude": 40.720539,
        "longitude": -111.815619
      },
      "distanceMeters": 10877.0,
      "durationMs": 1980000,
      "drivingDurationMs": 1531709,
      "idlingDurationMs": 448291,
      "fuelConsumedMl": 1382,
      "fuelConsumedGallons": 0.365,
      "maxSpeedMph": 30.2,
      "averageSpeedMph": 12.3,
      "safetyEvents": []
    },
    {
      "id": "trip_48271925_20250324_11616",
      "vehicleId": "48271925",
      "driverId": "20000039",
      "startMs": 1742828444000,
      "endMs": 1742832899000,
      "startAddress": "31889 Robert Forest",
      "endAddress": "4082 Johnson Ranch",
      "startCoords": {
        "latitude": 40.672019,
        "longitude": -111.892499
      },
      "endCoords": {
        "latitude": 40.797832,
        "longitude": -111.876746
      },
      "distanceMeters": 30526.3,
      "durationMs": 4455000,
      "drivingDurationMs": 3762459,
      "idlingDurationMs": 692541,
      "fuelConsumedMl": 3880,
      "fuelConsumedGallons": 1.025,
      "maxSpeedMph": 34.7,
      "averageSpeedMph": 15.3,
      "safetyEvents": []
    },
    {
      "id": "trip_48271925_20250324_11646",
      "vehicleId": "48271925",
      "driverId": "20000039",
      "startMs": 1742842874000,
      "endMs": 1742845034000,
      "startAddress": "8479 Brandon Via Apt. 111",
      "endAddress": "665 Price Trail Suite 688",
      "startCoords": {
        "latitude": 40.762721,
        "longitude": -111.955109
      },
      "endCoords": {
        "latitude": 40.726419,
        "longitude": -111.808217
      },
      "distanceMeters": 11642.4,
      "durationMs": 2160000,
      "drivingDurationMs": 1647281,
      "idlingDurationMs": 512719,
      "fuelConsumedMl": 1480,
      "fuelConsumedGallons": 0.391,
      "maxSpeedMph": 27.0,
      "averageSpeedMph": 12.1,
      "safetyEvents": []
    },
    {
      "id": "trip_48271925_20250325_11681",
      "vehicleId": "48271925",
      "driverId": "20000034",
      "startMs": 1742862117000,
      "endMs": 1742864217000,
      "startAddress": "1500 Claire Parks",
      "endAddress": "235 Williams Motorway",
      "startCoords": {
        "latitude": 40.696135,
        "longitude": -111.81374
      },
      "endCoords": {
        "latitude": 40.762138,
        "longitude": -111.783768
      },
      "distanceMeters": 10473.9,
      "durationMs": 2100000,
      "drivingDurationMs": 1670191,
      "idlingDurationMs": 429809,
      "fuelConsumedMl": 1332,
      "fuelConsumedGallons": 0.352,
      "maxSpeedMph": 39.2,
      "averageSpeedMph": 11.2,
      "safetyEvents": []
    },
    {
      "id": "trip_48271925_20250325_11711",
      "vehicleId": "48271925",
      "driverId": "20000036",
      "startMs": 1742877837000,
      "endMs": 1742880057000,
      "startAddress": "9411 Lewis Drives",
      "endAddress": "073 Megan Trail",
      "startCoords": {
        "latitude": 40.698617,
        "longitude": -111.827149
      },
      "endCoords": {
        "latitude": 40.681089,
        "longitude": -111.827041
      },
      "distanceMeters": 14846.2,
      "durationMs": 2220000,
      "drivingDurationMs": 1744560,
      "idlingDurationMs": 475440,
      "fuelConsumedMl": 1889,
      "fuelConsumedGallons": 0.499,
      "maxSpeedMph": 36.7,
      "averageSpeedMph": 15.0,
      "safetyEvents": []
    },
    {
      "id": "trip_48271925_20250325_11761",
      "vehicleId": "48271925",
      "driverId": "20000039",
      "startMs": 1742901637000,
      "endMs": 1742914134000,
      "startAddress": "2594 Bauer Fords",
      "endAddress": "262 Jacobson Ridge Suite 275",
      "startCoords": {
        "latitude": 40.755901,
        "longitude": -111.961528
      },
      "endCoords": {
        "latitude": 40.692633,
        "longitude": -111.834938
      },
      "distanceMeters": 77174.3,
      "durationMs": 12497000,
      "drivingDurationMs": 10012070,
      "idlingDurationMs": 2484930,
      "fuelConsumedMl": 9812,
      "fuelConsumedGallons": 2.592,
      "maxSpeedMph": 31.5,
      "averageSpeedMph": 13.8,
      "safetyEvents": []
    },
    {
      "id": "trip_48271925_20250325_11804",
      "vehicleId": "48271925",
      "driverId": "20000039",
      "startMs": 1742921895000,
      "endMs": 1742935323000,
      "startAddress": "08460 Martinez Trail",
      "endAddress": "16172 Rowland Shoals",
      "startCoords": {
        "latitude": 40.768809,
        "longitude": -111.851836
      },
      "endCoords": {
        "latitude": 40.701149,
        "longitude": -111.960174
      },
      "distanceMeters": 58918.0,
      "durationMs": 13428000,
      "drivingDurationMs": 11384612,
      "idlingDurationMs": 2043388,
      "fuelConsumedMl": 7491,
      "fuelConsumedGallons": 1.979,
      "maxSpeedMph": 32.9,
      "averageSpeedMph": 9.8,
      "safetyEvents": []
    },
    {
      "id": "trip_48271925_20250325_11845",
      "vehicleId": "48271925",
      "driverId": "20000038",
      "startMs": 1742944441000,
      "endMs": 1742946241000,
      "startAddress": "5642 Suarez Fall Apt. 779",
      "endAddress": "81144 Ellison Curve Apt. 976",
      "startCoords": {
        "latitude": 40.747441,
        "longitude": -111.921999
      },
      "endCoords": {
        "latitude": 40.708617,
        "longitude": -111.811351
      },
      "distanceMeters": 9838.8,
      "durationMs": 1800000,
      "drivingDurationMs": 1514166,
      "idlingDurationMs": 285834,
      "fuelConsumedMl": 1249,
      "fuelConsumedGallons": 0.33,
      "maxSpeedMph": 38.4,
      "averageSpeedMph": 12.2,
      "safetyEvents": []
    },
    {
      "id": "trip_48271925_20250326_11901",
      "vehicleId": "48271925",
      "driverId": "20000035",
      "startMs": 1742978083000,
      "endMs": 1742980063000,
      "startAddress": "0463 Cynthia Plains Suite 621",
      "endAddress": "29229 Nancy Oval Suite 547",
      "startCoords": {
        "latitude": 40.709105,
        "longitude": -111.792616
      },
      "endCoords": {
        "latitude": 40.707951,
        "longitude": -111.925317
      },
      "distanceMeters": 13750.6,
      "durationMs": 1980000,
      "drivingDurationMs": 1567988,
      "idlingDurationMs": 412012,
      "fuelConsumedMl": 1749,
      "fuelConsumedGallons": 0.462,
      "maxSpeedMph": 28.9,
      "averageSpeedMph": 15.5,
      "safetyEvents": []
    },
    {
      "id": "trip_48271925_20250326_11937",
      "vehicleId": "48271925",
      "driverId": "20000033",
      "startMs": 1742996019000,
      "endMs": 1743005940000,
      "startAddress": "4563 English Way",
      "endAddress": "0819 Molina Mews",
      "startCoords": {
        "latitude": 40.753675,
        "longitude": -111.863239
      },
      "endCoords": {
        "latitude": 40.697846,
        "longitude": -111.905052
      },
      "distanceMeters": 44887.0,
      "durationMs": 9921000,
      "drivingDurationMs": 8392054,
      "idlingDurationMs": 1528946,
      "fuelConsumedMl": 5708,
      "fuelConsumedGallons": 1.508,
      "maxSpeedMph": 28.4,
      "averageSpeedMph": 10.1,
      "safetyEvents": []
    },
    {
      "id": "trip_48271925_20250326_11982",
      "vehicleId": "48271925",
      "driverId": "20000034",
      "startMs": 1743016559000,
      "endMs": 1743024197000,
      "startAddress": "8692 Estrada Islands",
      "endAddress": "817 Anna Mission",
      "startCoords": {
        "latitude": 40.783775,
        "longitude": -111.880169
      },
      "endCoords": {
        "latitude": 40.664932,
        "longitude": -111.823162
      },
      "distanceMeters": 40086.2,
      "durationMs": 7638000,
      "drivingDurationMs": 5754138,
      "idlingDurationMs": 1883862,
      "fuelConsumedMl": 5095,
      "fuelConsumedGallons": 1.346,
      "maxSpeedMph": 29.8,
      "averageSpeedMph": 11.7,
      "safetyEvents": []
    },
    {
      "id": "trip_48271925_20250327_12035",
      "vehicleId": "48271925",
      "driverId": "20000039",
      "startMs": 1743048585000,
      "endMs": 1743050205000,
      "startAddress": "5309 Victoria Corners Apt. 383",
      "endAddress": "037 Nicole Orchard Suite 937",
      "startCoords": {
        "latitude": 40.677345,
        "longitude": -111.959641
      },
      "endCoords": {
        "latitude": 40.705837,
        "longitude": -111.817582
      },
      "distanceMeters": 7748.7,
      "durationMs": 1620000,
      "drivingDurationMs": 1306822,
      "idlingDurationMs": 313178,
      "fuelConsumedMl": 984,
      "fuelConsumedGallons": 0.26,
      "maxSpeedMph": 31.6,
      "averageSpeedMph": 10.7,
      "safetyEvents": []
    },
    {
      "id": "trip_48271925_20250327_12081",
      "vehicleId": "48271925",
      "driverId": "20000036",
      "startMs": 1743073684000,
      "endMs": 1743075424000,
      "startAddress": "003 Adam Parks",
      "endAddress": "9824 Wesley Haven Apt. 429",
      "startCoords": {
        "latitude": 40.667682,
        "longitude": -111.800037
      },
      "endCoords": {
        "latitude": 40.68749,
        "longitude": -111.844979
      },
      "distanceMeters": 11122.3,
      "durationMs": 1740000,
      "drivingDurationMs": 1412323,
      "idlingDurationMs": 327677,
      "fuelConsumedMl": 1416,
      "fuelConsumedGallons": 0.374,
      "maxSpeedMph": 37.0,
      "averageSpeedMph": 14.3,
      "safetyEvents": []
    },
    {
      "id": "trip_48271925_20250327_12131",
      "vehicleId": "48271925",
      "driverId": "20000039",
      "startMs": 1743097560000,
      "endMs": 1743101693000,
      "startAddress": "198 Ellis Garden",
      "endAddress": "75114 David Mountain",
      "startCoords": {
        "latitude": 40.667901,
        "longitude": -111.895537
      },
      "endCoords": {
        "latitude": 40.726542,
        "longitude": -111.862282
      },
      "distanceMeters": 27057.3,
      "durationMs": 4133000,
      "drivingDurationMs": 3627743,
      "idlingDurationMs": 505257,
      "fuelConsumedMl": 3441,
      "fuelConsumedGallons": 0.909,
      "maxSpeedMph": 28.4,
      "averageSpeedMph": 14.6,
      "safetyEvents": []
    },
    {
      "id": "trip_48271925_20250327_12169",
      "vehicleId": "48271925",
      "driverId": "20000033",
      "startMs": 1743116918000,
      "endMs": 1743119378000,
      "startAddress": "07435 Thomas Key",
      "endAddress": "7514 Jordan Hill Suite 632",
      "startCoords": {
        "latitude": 40.668629,
        "longitude": -111.862476
      },
      "endCoords": {
        "latitude": 40.743852,
        "longitude": -111.900511
      },
      "distanceMeters": 14945.8,
      "durationMs": 2460000,
      "drivingDurationMs": 2017670,
      "idlingDurationMs": 442330,
      "fuelConsumedMl": 1900,
      "fuelConsumedGallons": 0.502,
      "maxSpeedMph": 30.2,
      "averageSpeedMph": 13.6,
      "safetyEvents": []
    },
    {
      "id": "trip_48271925_20250328_12216",
      "vehicleId": "48271925",
      "driverId": "20000034",
      "startMs": 1743142818000,
      "endMs": 1743146134000,
      "startAddress": "87779 Deborah Mall Suite 461",
      "endAddress": "360 King Island",
      "startCoords": {
        "latitude": 40.765156,
        "longitude": -111.882283
      },
      "endCoords": {
        "latitude": 40.799192,
        "longitude": -111.837164
      },
      "distanceMeters": 15349.8,
      "durationMs": 3316000,
      "drivingDurationMs": 2785033,
      "idlingDurationMs": 530967,
      "fuelConsumedMl": 1953,
      "fuelConsumedGallons": 0.516,
      "maxSpeedMph": 36.7,
      "averageSpeedMph": 10.4,
      "safetyEvents": []
    },
    {
      "id": "trip_48271925_20250328_12265",
      "vehicleId": "48271925",
      "driverId": "20000036",
      "startMs": 1743163349000,
      "endMs": 1743166286000,
      "startAddress": "3628 Dickson Knoll Suite 748",
      "endAddress": "46750 Freeman Field",
      "startCoords": {
        "latitude": 40.750349,
        "longitude": -111.925804
      },
      "endCoords": {
        "latitude": 40.785634,
        "longitude": -111.805166
      },
      "distanceMeters": 19002.7,
      "durationMs": 2937000,
      "drivingDurationMs": 2532989,
      "idlingDurationMs": 404011,
      "fuelConsumedMl": 2415,
      "fuelConsumedGallons": 0.638,
      "maxSpeedMph": 26.9,
      "averageSpeedMph": 14.5,
      "safetyEvents": []
    },
    {
      "id": "trip_48271925_20250328_12308",
      "vehicleId": "48271925",
      "driverId": "20000039",
      "startMs": 1743185738000,
      "endMs": 1743196616000,
      "startAddress": "72158 Joshua Neck",
      "endAddress": "5116 Rodriguez Square",
      "startCoords": {
        "latitude": 40.712557,
        "longitude": -111.950216
      },
      "endCoords": {
        "latitude": 40.749512,
        "longitude": -111.910659
      },
      "distanceMeters": 53320.0,
      "durationMs": 10878000,
      "drivingDurationMs": 8943359,
      "idlingDurationMs": 1934641,
      "fuelConsumedMl": 6780,
      "fuelConsumedGallons": 1.791,
      "maxSpeedMph": 39.7,
      "averageSpeedMph": 11.0,
      "safetyEvents": []
    },
    {
      "id": "trip_48271925_20250328_12342",
      "vehicleId": "48271925",
      "driverId": "20000036",
      "startMs": 1743201332000,
      "endMs": 1743203372000,
      "startAddress": "8109 Massey Hill",
      "endAddress": "9844 Sonya Landing Suite 349",
      "startCoords": {
        "latitude": 40.78244,
        "longitude": -111.78528
      },
      "endCoords": {
        "latitude": 40.741122,
        "longitude": -111.796686
      },
      "distanceMeters": 12725.3,
      "durationMs": 2040000,
      "drivingDurationMs": 1589398,
      "idlingDurationMs": 450602,
      "fuelConsumedMl": 1616,
      "fuelConsumedGallons": 0.427,
      "maxSpeedMph": 27.0,
      "averageSpeedMph": 14.0,
      "safetyEvents": []
    },
    {
      "id": "trip_48271925_20250329_12391",
      "vehicleId": "48271925",
      "driverId": "20000036",
      "startMs": 1743232988000,
      "endMs": 1743234848000,
      "startAddress": "12668 Atkinson Pass",
      "endAddress": "94491 Wallace Path",
      "startCoords": {
        "latitude": 40.678741,
        "longitude": -111.93975
      },
      "endCoords": {
        "latitude": 40.743064,
        "longitude": -111.95417
      },
      "distanceMeters": 9566.2,
      "durationMs": 1860000,
      "drivingDurationMs": 1487266,
      "idlingDurationMs": 372734,
      "fuelConsumedMl": 1215,
      "fuelConsumedGallons": 0.321,
      "maxSpeedMph": 35.3,
      "averageSpeedMph": 11.5,
      "safetyEvents": []
    },
    {
      "id": "trip_48271925_20250329_12435",
      "vehicleId": "48271925",
      "driverId": "20000035",
      "startMs": 1743256192000,
      "endMs": 1743258352000,
      "startAddress": "245 May Crescent Apt. 421",
      "endAddress": "41053 Collins Inlet Apt. 453",
      "startCoords": {
        "latitude": 40.724074,
        "longitude": -111.911022
      },
      "endCoords": {
        "latitude": 40.675403,
        "longitude": -111.886459
      },
      "distanceMeters": 13555.7,
      "durationMs": 2160000,
      "drivingDurationMs": 1799440,
      "idlingDurationMs": 360560,
      "fuelConsumedMl": 1722,
      "fuelConsumedGallons": 0.455,
      "maxSpeedMph": 37.6,
      "averageSpeedMph": 14.0,
      "safetyEvents": []
    },
    {
      "id": "trip_48271925_20250329_12485",
      "vehicleId": "48271925",
      "driverId": "20000038",
      "startMs": 1743282013000,
      "endMs": 1743283993000,
      "startAddress": "92498 Alexandra Springs",
      "endAddress": "540 Torres Loop",
      "startCoords": {
        "latitude": 40.792077,
        "longitude": -111.889579
      },
      "endCoords": {
        "latitude": 40.729105,
        "longitude": -111.877947
      },
      "distanceMeters": 14587.1,
      "durationMs": 1980000,
      "drivingDurationMs": 1646869,
      "idlingDurationMs": 333131,
      "fuelConsumedMl": 1855,
      "fuelConsumedGallons": 0.49,
      "maxSpeedMph": 35.5,
      "averageSpeedMph": 16.5,
      "safetyEvents": []
    },
    {
      "id": "trip_48271925_20250330_12541",
      "vehicleId": "48271925",
      "driverId": "20000036",
      "startMs": 1743331053000,
      "endMs": 1743332613000,
      "startAddress": "78057 Lambert Trafficway Suite 455",
      "endAddress": "57518 Carolyn Forges Apt. 155",
      "startCoords": {
        "latitude": 40.710369,
        "longitude": -111.801572
      },
      "endCoords": {
        "latitude": 40.794049,
        "longitude": -111.949676
      },
      "distanceMeters": 12406.7,
      "durationMs": 1560000,
      "drivingDurationMs": 1403022,
      "idlingDurationMs": 156978,
      "fuelConsumedMl": 1579,
      "fuelConsumedGallons": 0.417,
      "maxSpeedMph": 31.0,
      "averageSpeedMph": 17.8,
      "safetyEvents": []
    },
    {
      "id": "trip_48271925_20250330_12572",
      "vehicleId": "48271925",
      "driverId": "20000037",
      "startMs": 1743351015000,
      "endMs": 1743353055000,
      "startAddress": "2104 Ross Park",
      "endAddress": "6973 Monroe Courts Suite 637",
      "startCoords": {
        "latitude": 40.782042,
        "longitude": -111.796801
      },
      "endCoords": {
        "latitude": 40.755433,
        "longitude": -111.916915
      },
      "distanceMeters": 13739.8,
      "durationMs": 2040000,
      "drivingDurationMs": 1813767,
      "idlingDurationMs": 226233,
      "fuelConsumedMl": 1745,
      "fuelConsumedGallons": 0.461,
      "maxSpeedMph": 27.2,
      "averageSpeedMph": 15.1,
      "safetyEvents": []
    },
    {
      "id": "trip_48271925_20250331_12627",
      "vehicleId": "48271925",
      "driverId": "20000035",
      "startMs": 1743410284000,
      "endMs": 1743416854000,
      "startAddress": "14307 Erica Union Apt. 259",
      "endAddress": "3338 Taylor Greens",
      "startCoords": {
        "latitude": 40.694457,
        "longitude": -111.889228
      },
      "endCoords": {
        "latitude": 40.743926,
        "longitude": -111.79225
      },
      "distanceMeters": 34905.4,
      "durationMs": 6570000,
      "drivingDurationMs": 5146104,
      "idlingDurationMs": 1423896,
      "fuelConsumedMl": 4437,
      "fuelConsumedGallons": 1.172,
      "maxSpeedMph": 31.0,
      "averageSpeedMph": 11.9,
      "safetyEvents": []
    },
    {
      "id": "trip_48271925_20250331_12673",
      "vehicleId": "48271925",
      "driverId": "20000037",
      "startMs": 1743430791000,
      "endMs": 1743436312000,
      "startAddress": "09991 Beth Stravenue Suite 424",
      "endAddress": "4165 Lauren Park",
      "startCoords": {
        "latitude": 40.792238,
        "longitude": -111.908896
      },
      "endCoords": {
        "latitude": 40.758169,
        "longitude": -111.829694
      },
      "distanceMeters": 24279.0,
      "durationMs": 5521000,
      "drivingDurationMs": 4776785,
      "idlingDurationMs": 744215,
      "fuelConsumedMl": 3085,
      "fuelConsumedGallons": 0.815,
      "maxSpeedMph": 28.3,
      "averageSpeedMph": 9.8,
      "safetyEvents": []
    },
    {
      "id": "trip_48271925_20250331_12710",
      "vehicleId": "48271925",
      "driverId": "20000036",
      "startMs": 1743447874000,
      "endMs": 1743451890000,
      "startAddress": "6955 Myers Plain",
      "endAddress": "441 Taylor Plains Apt. 552",
      "startCoords": {
        "latitude": 40.665941,
        "longitude": -111.893585
      },
      "endCoords": {
        "latitude": 40.743571,
        "longitude": -111.846548
      },
      "distanceMeters": 20516.5,
      "durationMs": 4016000,
      "drivingDurationMs": 3257397,
      "idlingDurationMs": 758603,
      "fuelConsumedMl": 2608,
      "fuelConsumedGallons": 0.689,
      "maxSpeedMph": 28.8,
      "averageSpeedMph": 11.4,
      "safetyEvents": []
    }
  ]
}