{
  "vehicleId": "44865715",
  "vehicleName": "ABQ-VAN-01",
  "month": "2025_03",
  "pagination": {
    "endCursor": "trip_44865715_20250331_002",
    "hasNextPage": false
  },
  "trips": [
    {
      "id": "trip_44865715_20250301_001",
      "vehicleId": "44865715",
      "driverId": "20000045",
      "startMs": 1740849360000,
      "endMs": 1740860704517,
      "startAddress": "391 Preston Row",
      "endAddress": "99644 Allen Rue Apt. 833",
      "startCoords": {
        "latitude": 35.162921,
        "longitude": -106.54275
      },
      "endCoords": {
        "latitude": 35.123612,
        "longitude": -106.57722
      },
      "distanceMeters": 60076.2,
      "durationMs": 11344518,
      "drivingDurationMs": 9166302,
      "idlingDurationMs": 2178215,
      "fuelConsumedMl": 7639,
      "fuelConsumedGallons": 2.018,
      "maxSpeedMph": 64.3,
      "averageSpeedMph": 11.8,
      "safetyEvents": []
    },
    {
      "id": "trip_44865715_20250301_002",
      "vehicleId": "44865715",
      "driverId": "20000045",
      "startMs": 1740821520000,
      "endMs": 1740836120433,
      "startAddress": "101 Pierce Burg",
      "endAddress": "73984 Moore Pines Suite 628",
      "startCoords": {
        "latitude": 35.057589,
        "longitude": -106.553121
      },
      "endCoords": {
        "latitude": 35.066296,
        "longitude": -106.679089
      },
      "distanceMeters": 61463.4,
      "durationMs": 14600434,
      "drivingDurationMs": 11762641,
      "idlingDurationMs": 2837793,
      "fuelConsumedMl": 7813,
      "fuelConsumedGallons": 2.064,
      "maxSpeedMph": 67.3,
      "averageSpeedMph": 9.4,
      "safetyEvents": [
        {
          "type": "speeding",
          "startMs": 1740829440000,
          "maxSpeedMph": 67.3
        }
      ]
    },
    {
      "id": "trip_44865715_20250302_001",
      "vehicleId": "44865715",
      "driverId": "20000044",
      "startMs": 1740934620000,
      "endMs": 1740939476521,
      "startAddress": "1713 Anderson Junctions Apt. 458",
      "endAddress": "676 Herman Pine Apt. 500",
      "startCoords": {
        "latitude": 35.152766,
        "longitude": -106.645356
      },
      "endCoords": {
        "latitude": 35.095057,
        "longitude": -106.585344
      },
      "distanceMeters": 39374.9,
      "durationMs": 4856521,
      "drivingDurationMs": 4610027,
      "idlingDurationMs": 246494,
      "fuelConsumedMl": 5008,
      "fuelConsumedGallons": 1.323,
      "maxSpeedMph": 59.7,
      "averageSpeedMph": 18.1,
      "safetyEvents": []
    },
    {
      "id": "trip_44865715_20250303_001",
      "vehicleId": "44865715",
      "driverId": "20000045",
      "startMs": 1740989640000,
      "endMs": 1740994469873,
      "startAddress": "22378 Mcfarland Crossing",
      "endAddress": "438 Brooks Radial Suite 561",
      "startCoords": {
        "latitude": 35.104792,
        "longitude": -106.632741
      },
      "endCoords": {
        "latitude": 35.087867,
        "longitude": -106.680766
      },
      "distanceMeters": 22418.0,
      "durationMs": 4829873,
      "drivingDurationMs": 3875610,
      "idlingDurationMs": 954263,
      "fuelConsumedMl": 2850,
      "fuelConsumedGallons": 0.753,
      "maxSpeedMph": 71.9,
      "averageSpeedMph": 10.4,
      "safetyEvents": [
        {
          "type": "speeding",
          "startMs": 1740991080000,
          "maxSpeedMph": 71.9
        }
      ]
    },
    {
      "id": "trip_44865715_20250303_002",
      "vehicleId": "44865715",
      "driverId": "20000045",
      "startMs": 1741019820000,
      "endMs": 1741021047797,
      "startAddress": "5183 Contreras Neck Suite 775",
      "endAddress": "950 Smith Loaf",
      "startCoords": {
        "latitude": 35.065016,
        "longitude": -106.710072
      },
      "endCoords": {
        "latitude": 35.150459,
        "longitude": -106.620644
      },
      "distanceMeters": 8487.0,
      "durationMs": 1227797,
      "drivingDurationMs": 1014332,
      "idlingDurationMs": 213465,
      "fuelConsumedMl": 1079,
      "fuelConsumedGallons": 0.285,
      "maxSpeedMph": 28.3,
      "averageSpeedMph": 15.5,
      "safetyEvents": []
    },
    {
      "id": "trip_44865715_20250303_003",
      "vehicleId": "44865715",
      "driverId": "20000045",
      "startMs": 1741027020000,
      "endMs": 1741035300835,
      "startAddress": "3944 Andrew Plains",
      "endAddress": "78810 Peterson Underpass",
      "startCoords": {
        "latitude": 35.152781,
        "longitude": -106.651458
      },
      "endCoords": {
        "latitude": 35.15434,
        "longitude": -106.672309
      },
      "distanceMeters": 59558.5,
      "durationMs": 8280836,
      "drivingDurationMs": 6971998,
      "idlingDurationMs": 1308838,
      "fuelConsumedMl": 7571,
      "fuelConsumedGallons": 2.0,
      "maxSpeedMph": 63.0,
      "averageSpeedMph": 16.1,
      "safetyEvents": []
    },
    {
      "id": "trip_44865715_20250303_004",
      "vehicleId": "44865715",
      "driverId": "20000045",
      "startMs": 1741004700000,
      "endMs": 1741009511504,
      "startAddress": "5214 Jackson Square Suite 879",
      "endAddress": "8960 Miller Greens",
      "startCoords": {
        "latitude": 35.172909,
        "longitude": -106.578395
      },
      "endCoords": {
        "latitude": 35.075178,
        "longitude": -106.57242
      },
      "distanceMeters": 26057.0,
      "durationMs": 4811504,
      "drivingDurationMs": 4349556,
      "idlingDurationMs": 461948,
      "fuelConsumedMl": 3312,
      "fuelConsumedGallons": 0.875,
      "maxSpeedMph": 33.8,
      "averageSpeedMph": 12.1,
      "safetyEvents": []
    },
    {
      "id": "trip_44865715_20250304_001",
      "vehicleId": "44865715",
      "driverId": "20000044",
      "startMs": 1741071000000,
      "endMs": 1741076845383,
      "startAddress": "5753 Dominique Viaduct Apt. 845",
      "endAddress": "427 Jones Manors Suite 967",
      "startCoords": {
        "latitude": 35.076655,
        "longitude": -106.623365
      },
      "endCoords": {
        "latitude": 35.11116,
        "longitude": -106.694335
      },
      "distanceMeters": 25472.8,
      "durationMs": 5845383,
      "drivingDurationMs": 4796351,
      "idlingDurationMs": 1049032,
      "fuelConsumedMl": 3240,
      "fuelConsumedGallons": 0.856,
      "maxSpeedMph": 49.2,
      "averageSpeedMph": 9.7,
      "safetyEvents": []
    },
    {
      "id": "trip_44865715_20250304_002",
      "vehicleId": "44865715",
      "driverId": null,
      "startMs": 1741095300000,
      "endMs": 1741100758169,
      "startAddress": "3569 Philip Roads",
      "endAddress": "65788 Tapia Islands",
      "startCoords": {
        "latitude": 35.094011,
        "longitude": -106.670802
      },
      "endCoords": {
        "latitude": 35.120269,
        "longitude": -106.616715
      },
      "distanceMeters": 25294.8,
      "durationMs": 5458169,
      "drivingDurationMs": 4534166,
      "idlingDurationMs": 924003,
      "fuelConsumedMl": 3218,
      "fuelConsumedGallons": 0.85,
      "maxSpeedMph": 64.3,
      "averageSpeedMph": 10.4,
      "safetyEvents": []
    },
    {
      "id": "trip_44865715_20250304_003",
      "vehicleId": "44865715",
      "driverId": "20000044",
      "startMs": 1741086600000,
      "endMs": 1741100360140,
      "startAddress": "98008 Murphy Spurs Apt. 849",
      "endAddress": "272 Andrew Valley",
      "startCoords": {
        "latitude": 35.166053,
        "longitude": -106.603137
      },
      "endCoords": {
        "latitude": 35.056826,
        "longitude": -106.605852
      },
      "distanceMeters": 78231.3,
      "durationMs": 13760141,
      "drivingDurationMs": 12545010,
      "idlingDurationMs": 1215130,
      "fuelConsumedMl": 9948,
      "fuelConsumedGallons": 2.628,
      "maxSpeedMph": 50.5,
      "averageSpeedMph": 12.7,
      "safetyEvents": []
    },
    {
      "id": "trip_44865715_20250304_004",
      "vehicleId": "44865715",
      "driverId": "20000044",
      "startMs": 1741087620000,
      "endMs": 1741097628184,
      "startAddress": "210 Devin Divide",
      "endAddress": "6273 Norton Highway Apt. 529",
      "startCoords": {
        "latitude": 35.046115,
        "longitude": -106.644939
      },
      "endCoords": {
        "latitude": 35.050277,
        "longitude": -106.540968
      },
      "distanceMeters": 82861.5,
      "durationMs": 10008185,
      "drivingDurationMs": 9517124,
      "idlingDurationMs": 491061,
      "fuelConsumedMl": 10535,
      "fuelConsumedGallons": 2.783,
      "maxSpeedMph": 36.3,
      "averageSpeedMph": 18.5,
      "safetyEvents": []
    },
    {
      "id": "trip_44865715_20250304_005",
      "vehicleId": "44865715",
      "driverId": "20000044",
      "startMs": 1741099080000,
      "endMs": 1741108814612,
      "startAddress": "9103 Barry Course",
      "endAddress": "343 Santos Field",
      "startCoords": {
        "latitude": 35.167867,
        "longitude": -106.670782
      },
      "endCoords": {
        "latitude": 35.076733,
        "longitude": -106.621129
      },
      "distanceMeters": 70890.4,
      "durationMs": 9734612,
      "drivingDurationMs": 8088243,
      "idlingDurationMs": 1646370,
      "fuelConsumedMl": 9013,
      "fuelConsumedGallons": 2.381,
      "maxSpeedMph": 45.9,
      "averageSpeedMph": 16.3,
      "safetyEvents": []
    },
    {
      "id": "trip_44865715_20250304_006",
      "vehicleId": "44865715",
      "driverId": "20000044",
      "startMs": 1741080780000,
      "endMs": 1741094246423,
      "startAddress": "64099 Kristen Lodge Suite 667",
      "endAddress": "99637 Arnold Neck Apt. 977",
      "startCoords": {
        "latitude": 35.041535,
        "longitude": -106.644647
      },
      "endCoords": {
        "latitude": 35.040622,
        "longitude": -106.644135
      },
      "distanceMeters": 61001.2,
      "durationMs": 13466424,
      "drivingDurationMs": 11359862,
      "idlingDurationMs": 2106562,
      "fuelConsumedMl": 7756,
      "fuelConsumedGallons": 2.049,
      "maxSpeedMph": 53.5,
      "averageSpeedMph": 10.1,
      "safetyEvents": []
    },
    {
      "id": "trip_44865715_20250305_001",
      "vehicleId": "44865715",
      "driverId": "20000045",
      "startMs": 1741169700000,
      "endMs": 1741180997849,
      "startAddress": "0886 Arias Route",
      "endAddress": "825 Helen Gateway",
      "startCoords": {
        "latitude": 35.091611,
        "longitude": -106.710984
      },
      "endCoords": {
        "latitude": 35.128361,
        "longitude": -106.663611
      },
      "distanceMeters": 83721.4,
      "durationMs": 11297849,
      "drivingDurationMs": 9555706,
      "idlingDurationMs": 1742143,
      "fuelConsumedMl": 10645,
      "fuelConsumedGallons": 2.812,
      "maxSpeedMph": 58.7,
      "averageSpeedMph": 16.6,
      "safetyEvents": []
    },
    {
      "id": "trip_44865715_20250305_002",
      "vehicleId": "44865715",
      "driverId": "20000045",
      "startMs": 1741185120000,
      "endMs": 1741187518824,
      "startAddress": "47652 Mendoza Circle",
      "endAddress": "76276 Charles Coves",
      "startCoords": {
        "latitude": 35.085655,
        "longitude": -106.688502
      },
      "endCoords": {
        "latitude": 35.074065,
        "longitude": -106.702766
      },
      "distanceMeters": 16779.7,
      "durationMs": 2398824,
      "drivingDurationMs": 1993174,
      "idlingDurationMs": 405650,
      "fuelConsumedMl": 2135,
      "fuelConsumedGallons": 0.564,
      "maxSpeedMph": 30.3,
      "averageSpeedMph": 15.6,
      "safetyEvents": []
    },
    {
      "id": "trip_44865715_20250305_003",
      "vehicleId": "44865715",
      "driverId": "20000045",
      "startMs": 1741177440000,
      "endMs": 1741186978395,
      "startAddress": "447 Benjamin Lake",
      "endAddress": "459 Taylor Knoll",
      "startCoords": {
        "latitude": 35.057771,
        "longitude": -106.654871
      },
      "endCoords": {
        "latitude": 35.110507,
        "longitude": -106.658238
      },
      "distanceMeters": 76394.0,
      "durationMs": 9538395,
      "drivingDurationMs": 9225181,
      "idlingDurationMs": 313214,
      "fuelConsumedMl": 9713,
      "fuelConsumedGallons": 2.566,
      "maxSpeedMph": 29.3,
      "averageSpeedMph": 17.9,
      "safetyEvents": []
    },
    {
      "id": "trip_44865715_20250306_001",
      "vehicleId": "44865715",
      "driverId": "20000045",
      "startMs": 1741271220000,
      "endMs": 1741280289915,
      "startAddress": "40991 Carol Prairie Suite 047",
      "endAddress": "90226 Kelsey Pines Suite 914",
      "startCoords": {
        "latitude": 35.039411,
        "longitude": -106.646664
      },
      "endCoords": {
        "latitude": 35.078489,
        "longitude": -106.703391
      },
      "distanceMeters": 44294.1,
      "durationMs": 9069916,
      "drivingDurationMs": 7839622,
      "idlingDurationMs": 1230293,
      "fuelConsumedMl": 5633,
      "fuelConsumedGallons": 1.488,
      "maxSpeedMph": 66.8,
      "averageSpeedMph": 10.9,
      "safetyEvents": [
        {
          "type": "speeding",
          "startMs": 1741273080000,
          "maxSpeedMph": 66.8
        }
      ]
    },
    {
      "id": "trip_44865715_20250306_002",
      "vehicleId": "44865715",
      "driverId": "20000045",
      "startMs": 1741257540000,
      "endMs": 1741262730906,
      "startAddress": "7590 Sean Meadows Apt. 783",
      "endAddress": "1866 Chandler Haven",
      "startCoords": {
        "latitude": 35.153677,
        "longitude": -106.594472
      },
      "endCoords": {
        "latitude": 35.08629,
        "longitude": -106.668205
      },
      "distanceMeters": 35835.2,
      "durationMs": 5190906,
      "drivingDurationMs": 4520074,
      "idlingDurationMs": 670832,
      "fuelConsumedMl": 4558,
      "fuelConsumedGallons": 1.204,
      "maxSpeedMph": 40.2,
      "averageSpeedMph": 15.4,
      "safetyEvents": []
    },
    {
      "id": "trip_44865715_20250306_003",
      "vehicleId": "44865715",
      "driverId": "20000045",
      "startMs": 1741273560000,
      "endMs": 1741275360032,
      "startAddress": "07399 Conway Lake",
      "endAddress": "886 Christine Fork Suite 005",
      "startCoords": {
        "latitude": 35.131826,
        "longitude": -106.596168
      },
      "endCoords": {
        "latitude": 35.08607,
        "longitude": -106.579526
      },
      "distanceMeters": 11732.3,
      "durationMs": 1800033,
      "drivingDurationMs": 1512570,
      "idlingDurationMs": 287463,
      "fuelConsumedMl": 1491,
      "fuelConsumedGallons": 0.394,
      "maxSpeedMph": 57.8,
      "averageSpeedMph": 14.6,
      "safetyEvents": []
    },
    {
      "id": "trip_44865715_20250307_001",
      "vehicleId": "44865715",
      "driverId": "20000046",
      "startMs": 1741332780000,
      "endMs": 1741344382508,
      "startAddress": "5452 Anthony Dam Apt. 649",
      "endAddress": "788 Leslie Fort",
      "startCoords": {
        "latitude": 35.056656,
        "longitude": -106.561186
      },
      "endCoords": {
        "latitude": 35.0558,
        "longitude": -106.6715
      },
      "distanceMeters": 58570.4,
      "durationMs": 11602508,
      "drivingDurationMs": 11148042,
      "idlingDurationMs": 454466,
      "fuelConsumedMl": 7446,
      "fuelConsumedGallons": 1.967,
      "maxSpeedMph": 52.5,
      "averageSpeedMph": 11.3,
      "safetyEvents": []
    },
    {
      "id": "trip_44865715_20250307_002",
      "vehicleId": "44865715",
      "driverId": "20000046",
      "startMs": 1741364580000,
      "endMs": 1741367876294,
      "startAddress": "862 Tucker Extension",
      "endAddress": "75405 Melissa Hollow Suite 914",
      "startCoords": {
        "latitude": 35.171738,
        "longitude": -106.581037
      },
      "endCoords": {
        "latitude": 35.108718,
        "longitude": -106.61819
      },
      "distanceMeters": 14700.9,
      "durationMs": 3296294,
      "drivingDurationMs": 2751399,
      "idlingDurationMs": 544895,
      "fuelConsumedMl": 1870,
      "fuelConsumedGallons": 0.494,
      "maxSpeedMph": 59.3,
      "averageSpeedMph": 10.0,
      "safetyEvents": []
    },
    {
      "id": "trip_44865715_20250308_001",
      "vehicleId": "44865715",
      "driverId": "20000044",
      "startMs": 1741441080000,
      "endMs": 1741444862727,
      "startAddress": "66706 Brandi Rue Apt. 371",
      "endAddress": "9084 Wendy Station Suite 929",
      "startCoords": {
        "latitude": 35.109309,
        "longitude": -106.556889
      },
      "endCoords": {
        "latitude": 35.054407,
        "longitude": -106.699744
      },
      "distanceMeters": 19055.3,
      "durationMs": 3782728,
      "drivingDurationMs": 3344749,
      "idlingDurationMs": 437979,
      "fuelConsumedMl": 2423,
      "fuelConsumedGallons": 0.64,
      "maxSpeedMph": 69.4,
      "averageSpeedMph": 11.3,
      "safetyEvents": [
        {
          "type": "speeding",
          "startMs": 1741441380000,
          "maxSpeedMph": 69.4
        }
      ]
    },
    {
      "id": "trip_44865715_20250308_002",
      "vehicleId": "44865715",
      "driverId": "20000044",
      "startMs": 1741450020000,
      "endMs": 1741452001975,
      "startAddress": "198 Ellis Garden",
      "endAddress": "75114 David Mountain",
      "startCoords": {
        "latitude": 35.047559,
        "longitude": -106.591277
      },
      "endCoords": {
        "latitude": 35.041362,
        "longitude": -106.645927
      },
      "distanceMeters": 12692.3,
      "durationMs": 1981975,
      "drivingDurationMs": 1725001,
      "idlingDurationMs": 256975,
      "fuelConsumedMl": 1613,
      "fuelConsumedGallons": 0.426,
      "maxSpeedMph": 63.7,
      "averageSpeedMph": 14.3,
      "safetyEvents": []
    },
    {
      "id": "trip_44865715_20250308_003",
      "vehicleId": "44865715",
      "driverId": "20000044",
      "startMs": 1741456020000,
      "endMs": 1741466891215,
      "startAddress": "815 Hunter Forks Apt. 291",
      "endAddress": "2082 Tim Run",
      "startCoords": {
        "latitude": 35.058514,
        "longitude": -106.547666
      },
      "endCoords": {
        "latitude": 35.179589,
        "longitude": -106.686949
      },
      "distanceMeters": 51861.6,
      "durationMs": 10871216,
      "drivingDurationMs": 9430836,
      "idlingDurationMs": 1440380,
      "fuelConsumedMl": 6594,
      "fuelConsumedGallons": 1.742,
      "maxSpeedMph": 42.7,
      "averageSpeedMph": 10.7,
      "safetyEvents": []
    },
    {
      "id": "trip_44865715_20250308_004",
      "vehicleId": "44865715",
      "driverId": "20000044",
      "startMs": 1741440240000,
      "endMs": 1741458945493,
      "startAddress": "8684 Seth Shoal",
      "endAddress": "53763 Hudson Union Suite 220",
      "startCoords": {
        "latitude": 35.145761,
        "longitude": -106.624093
      },
      "endCoords": {
        "latitude": 35.085991,
        "longitude": -106.626685
      },
      "distanceMeters": 81322.3,
      "durationMs": 18705493,
      "drivingDurationMs": 15854085,
      "idlingDurationMs": 2851408,
      "fuelConsumedMl": 10338,
      "fuelConsumedGallons": 2.731,
      "maxSpeedMph": 37.0,
      "averageSpeedMph": 9.7,
      "safetyEvents": []
    },
    {
      "id": "trip_44865715_20250309_001",
      "vehicleId": "44865715",
      "driverId": "20000046",
      "startMs": 1741523340000,
      "endMs": 1741538954322,
      "startAddress": "6477 Walker Junctions",
      "endAddress": "0800 Barry Avenue Suite 881",
      "startCoords": {
        "latitude": 35.063262,
        "longitude": -106.645142
      },
      "endCoords": {
        "latitude": 35.162873,
        "longitude": -106.646621
      },
      "distanceMeters": 76145.8,
      "durationMs": 15614322,
      "drivingDurationMs": 13559233,
      "idlingDurationMs": 2055090,
      "fuelConsumedMl": 9683,
      "fuelConsumedGallons": 2.558,
      "maxSpeedMph": 66.3,
      "averageSpeedMph": 10.9,
      "safetyEvents": [
        {
          "type": "speeding",
          "startMs": 1741532520000,
          "maxSpeedMph": 66.3
        }
      ]
    },
    {
      "id": "trip_44865715_20250310_001",
      "vehicleId": "44865715",
      "driverId": "20000045",
      "startMs": 1741621740000,
      "endMs": 1741630857605,
      "startAddress": "335 Anna Underpass Apt. 131",
      "endAddress": "8779 Christina Via Suite 875",
      "startCoords": {
        "latitude": 35.131535,
        "longitude": -106.696648
      },
      "endCoords": {
        "latitude": 35.124186,
        "longitude": -106.547341
      },
      "distanceMeters": 64039.6,
      "durationMs": 9117606,
      "drivingDurationMs": 8280920,
      "idlingDurationMs": 836685,
      "fuelConsumedMl": 8142,
      "fuelConsumedGallons": 2.151,
      "maxSpeedMph": 58.1,
      "averageSpeedMph": 15.7,
      "safetyEvents": []
    },
    {
      "id": "trip_44865715_20250310_002",
      "vehicleId": "44865715",
      "driverId": "20000045",
      "startMs": 1741614360000,
      "endMs": 1741616940717,
      "startAddress": "1754 Christopher Fork Suite 479",
      "endAddress": "29659 Bell Isle",
      "startCoords": {
        "latitude": 35.153589,
        "longitude": -106.632213
      },
      "endCoords": {
        "latitude": 35.090066,
        "longitude": -106.691713
      },
      "distanceMeters": 13478.8,
      "durationMs": 2580718,
      "drivingDurationMs": 2364166,
      "idlingDurationMs": 216551,
      "fuelConsumedMl": 1715,
      "fuelConsumedGallons": 0.453,
      "maxSpeedMph": 63.4,
      "averageSpeedMph": 11.7,
      "safetyEvents": []
    },
    {
      "id": "trip_44865715_20250311_001",
      "vehicleId": "44865715",
      "driverId": "20000046",
      "startMs": 1741696560000,
      "endMs": 1741704324561,
      "startAddress": "46883 Jennifer Green",
      "endAddress": "1712 Payne Crescent Apt. 000",
      "startCoords": {
        "latitude": 35.077726,
        "longitude": -106.665173
      },
      "endCoords": {
        "latitude": 35.084982,
        "longitude": -106.70089
      },
      "distanceMeters": 34738.4,
      "durationMs": 7764562,
      "drivingDurationMs": 6578051,
      "idlingDurationMs": 1186510,
      "fuelConsumedMl": 4418,
      "fuelConsumedGallons": 1.167,
      "maxSpeedMph": 29.4,
      "averageSpeedMph": 10.0,
      "safetyEvents": []
    },
    {
      "id": "trip_44865715_20250311_002",
      "vehicleId": "44865715",
      "driverId": "20000046",
      "startMs": 1741691400000,
      "endMs": 1741703967513,
      "startAddress": "07779 Foster Views Apt. 127",
      "endAddress": "832 Joseph Square",
      "startCoords": {
        "latitude": 35.142593,
        "longitude": -106.627619
      },
      "endCoords": {
        "latitude": 35.150864,
        "longitude": -106.576596
      },
      "distanceMeters": 67157.2,
      "durationMs": 12567514,
      "drivingDurationMs": 10660871,
      "idlingDurationMs": 1906642,
      "fuelConsumedMl": 8540,
      "fuelConsumedGallons": 2.256,
      "maxSpeedMph": 42.1,
      "averageSpeedMph": 12.0,
      "safetyEvents": []
    },
    {
      "id": "trip_44865715_20250312_001",
      "vehicleId": "44865715",
      "driverId": "20000045",
      "startMs": 1741770720000,
      "endMs": 1741782683907,
      "startAddress": "87537 Richard Harbors",
      "endAddress": "77286 Andrews Canyon",
      "startCoords": {
        "latitude": 35.126466,
        "longitude": -106.580714
      },
      "endCoords": {
        "latitude": 35.149847,
        "longitude": -106.626057
      },
      "distanceMeters": 72730.4,
      "durationMs": 11963907,
      "drivingDurationMs": 10823756,
      "idlingDurationMs": 1140152,
      "fuelConsumedMl": 9248,
      "fuelConsumedGallons": 2.443,
      "maxSpeedMph": 57.3,
      "averageSpeedMph": 13.6,
      "safetyEvents": []
    },
    {
      "id": "trip_44865715_20250312_002",
      "vehicleId": "44865715",
      "driverId": "20000045",
      "startMs": 1741782300000,
      "endMs": 1741789679162,
      "startAddress": "4995 Kathy Parks Apt. 197",
      "endAddress": "59214 Parker Station Suite 757",
      "startCoords": {
        "latitude": 35.078229,
        "longitude": -106.565893
      },
      "endCoords": {
        "latitude": 35.053741,
        "longitude": -106.696295
      },
      "distanceMeters": 36853.9,
      "durationMs": 7379163,
      "drivingDurationMs": 6806954,
      "idlingDurationMs": 572209,
      "fuelConsumedMl": 4686,
      "fuelConsumedGallons": 1.238,
      "maxSpeedMph": 69.4,
      "averageSpeedMph": 11.2,
      "safetyEvents": [
        {
          "type": "speeding",
          "startMs": 1741784400000,
          "maxSpeedMph": 69.4
        }
      ]
    },
    {
      "id": "trip_44865715_20250312_003",
      "vehicleId": "44865715",
      "driverId": "20000045",
      "startMs": 1741797480000,
      "endMs": 1741804968954,
      "startAddress": "033 Martinez Greens Apt. 358",
      "endAddress": "7544 Douglas Trail Apt. 323",
      "startCoords": {
        "latitude": 35.064,
        "longitude": -106.608817
      },
      "endCoords": {
        "latitude": 35.167118,
        "longitude": -106.685306
      },
      "distanceMeters": 35148.2,
      "durationMs": 7488955,
      "drivingDurationMs": 6264751,
      "idlingDurationMs": 1224204,
      "fuelConsumedMl": 4471,
      "fuelConsumedGallons": 1.181,
      "maxSpeedMph": 40.1,
      "averageSpeedMph": 10.5,
      "safetyEvents": []
    },
    {
      "id": "trip_44865715_20250312_004",
      "vehicleId": "44865715",
      "driverId": "20000045",
      "startMs": 1741787160000,
      "endMs": 1741792549372,
      "startAddress": "255 David Wells",
      "endAddress": "92542 Lee Springs Suite 135",
      "startCoords": {
        "latitude": 35.073078,
        "longitude": -106.625179
      },
      "endCoords": {
        "latitude": 35.158972,
        "longitude": -106.700733
      },
      "distanceMeters": 31505.2,
      "durationMs": 5389373,
      "drivingDurationMs": 4739816,
      "idlingDurationMs": 649556,
      "fuelConsumedMl": 4005,
      "fuelConsumedGallons": 1.058,
      "maxSpeedMph": 52.1,
      "averageSpeedMph": 13.1,
      "safetyEvents": []
    },
    {
      "id": "trip_44865715_20250312_005",
      "vehicleId": "44865715",
      "driverId": "20000045",
      "startMs": 1741804620000,
      "endMs": 1741813200000,
      "startAddress": "0808 Elizabeth Plaza",
      "endAddress": "0484 Brandy Fork",
      "startCoords": {
        "latitude": 35.168448,
        "longitude": -106.695123
      },
      "endCoords": {
        "latitude": 35.133606,
        "longitude": -106.688628
      },
      "distanceMeters": 43552.1,
      "durationMs": 8580000,
      "drivingDurationMs": 6864000,
      "idlingDurationMs": 1716000,
      "fuelConsumedMl": 5538,
      "fuelConsumedGallons": 1.463,
      "maxSpeedMph": 51.3,
      "averageSpeedMph": 11.4,
      "safetyEvents": []
    },
    {
      "id": "trip_44865715_20250312_006",
      "vehicleId": "44865715",
      "driverId": "20000045",
      "startMs": 1741797360000,
      "endMs": 1741811631193,
      "startAddress": "466 Gould Dam",
      "endAddress": "392 Nguyen Spring",
      "startCoords": {
        "latitude": 35.154882,
        "longitude": -106.621949
      },
      "endCoords": {
        "latitude": 35.14149,
        "longitude": -106.686729
      },
      "distanceMeters": 81490.7,
      "durationMs": 14271193,
      "drivingDurationMs": 12898454,
      "idlingDurationMs": 1372739,
      "fuelConsumedMl": 10361,
      "fuelConsumedGallons": 2.737,
      "maxSpeedMph": 31.2,
      "averageSpeedMph": 12.8,
      "safetyEvents": []
    },
    {
      "id": "trip_44865715_20250313_001",
      "vehicleId": "44865715",
      "driverId": "20000044",
      "startMs": 1741855500000,
      "endMs": 1741872864177,
      "startAddress": "371 Sophia Squares",
      "endAddress": "69562 Guerrero Rue Suite 132",
      "startCoords": {
        "latitude": 35.15178,
        "longitude": -106.631282
      },
      "endCoords": {
        "latitude": 35.053957,
        "longitude": -106.687759
      },
      "distanceMeters": 77449.1,
      "durationMs": 17364177,
      "drivingDurationMs": 15015365,
      "idlingDurationMs": 2348812,
      "fuelConsumedMl": 9846,
      "fuelConsumedGallons": 2.601,
      "maxSpeedMph": 37.9,
      "averageSpeedMph": 10.0,
      "safetyEvents": []
    },
    {
      "id": "trip_44865715_20250313_002",
      "vehicleId": "44865715",
      "driverId": "20000044",
      "startMs": 1741865040000,
      "endMs": 1741873568016,
      "startAddress": "889 Bowers Mount Suite 246",
      "endAddress": "71600 Smith Lodge",
      "startCoords": {
        "latitude": 35.091787,
        "longitude": -106.631203
      },
      "endCoords": {
        "latitude": 35.076701,
        "longitude": -106.660286
      },
      "distanceMeters": 53685.9,
      "durationMs": 8528016,
      "drivingDurationMs": 7601827,
      "idlingDurationMs": 926189,
      "fuelConsumedMl": 6825,
      "fuelConsumedGallons": 1.803,
      "maxSpeedMph": 70.8,
      "averageSpeedMph": 14.1,
      "safetyEvents": [
        {
          "type": "speeding",
          "startMs": 1741867080000,
          "maxSpeedMph": 70.8
        }
      ]
    },
    {
      "id": "trip_44865715_20250313_003",
      "vehicleId": "44865715",
      "driverId": "20000044",
      "startMs": 1741885980000,
      "endMs": 1741896557724,
      "startAddress": "9085 Johnson Expressway",
      "endAddress": "1806 Johnson Ford Suite 156",
      "startCoords": {
        "latitude": 35.172759,
        "longitude": -106.666367
      },
      "endCoords": {
        "latitude": 35.077315,
        "longitude": -106.60199
      },
      "distanceMeters": 53252.4,
      "durationMs": 10577725,
      "drivingDurationMs": 9472866,
      "idlingDurationMs": 1104859,
      "fuelConsumedMl": 6772,
      "fuelConsumedGallons": 1.789,
      "maxSpeedMph": 70.5,
      "averageSpeedMph": 11.3,
      "safetyEvents": [
        {
          "type": "speeding",
          "startMs": 1741892760000,
          "maxSpeedMph": 70.5
        }
      ]
    },
    {
      "id": "trip_44865715_20250314_001",
      "vehicleId": "44865715",
      "driverId": "20000045",
      "startMs": 1741963740000,
      "endMs": 1741976750312,
      "startAddress": "01249 Cook Mission",
      "endAddress": "386 Brian Extension",
      "startCoords": {
        "latitude": 35.10937,
        "longitude": -106.544387
      },
      "endCoords": {
        "latitude": 35.042166,
        "longitude": -106.537473
      },
      "distanceMeters": 77907.7,
      "durationMs": 13010312,
      "drivingDurationMs": 11933140,
      "idlingDurationMs": 1077172,
      "fuelConsumedMl": 9906,
      "fuelConsumedGallons": 2.617,
      "maxSpeedMph": 52.9,
      "averageSpeedMph": 13.4,
      "safetyEvents": []
    },
    {
      "id": "trip_44865715_20250314_002",
      "vehicleId": "44865715",
      "driverId": "20000045",
      "startMs": 1741967040000,
      "endMs": 1741970634530,
      "startAddress": "8151 Davis Vista Suite 313",
      "endAddress": "24343 Joel Plaza",
      "startCoords": {
        "latitude": 35.124746,
        "longitude": -106.553555
      },
      "endCoords": {
        "latitude": 35.147016,
        "longitude": -106.694631
      },
      "distanceMeters": 17161.3,
      "durationMs": 3594531,
      "drivingDurationMs": 2966843,
      "idlingDurationMs": 627688,
      "fuelConsumedMl": 2180,
      "fuelConsumedGallons": 0.576,
      "maxSpeedMph": 38.1,
      "averageSpeedMph": 10.7,
      "safetyEvents": []
    },
    {
      "id": "trip_44865715_20250314_003",
      "vehicleId": "44865715",
      "driverId": "20000045",
      "startMs": 1741957920000,
      "endMs": 1741973564535,
      "startAddress": "855 Mills Prairie",
      "endAddress": "7485 Bonilla Wells Apt. 902",
      "startCoords": {
        "latitude": 35.104106,
        "longitude": -106.61619
      },
      "endCoords": {
        "latitude": 35.070162,
        "longitude": -106.651358
      },
      "distanceMeters": 83602.7,
      "durationMs": 15644536,
      "drivingDurationMs": 14777505,
      "idlingDurationMs": 867031,
      "fuelConsumedMl": 10629,
      "fuelConsumedGallons": 2.808,
      "maxSpeedMph": 56.6,
      "averageSpeedMph": 12.0,
      "safetyEvents": []
    },
    {
      "id": "trip_44865715_20250314_004",
      "vehicleId": "44865715",
      "driverId": "20000045",
      "startMs": 1741951200000,
      "endMs": 1741960750480,
      "startAddress": "7395 Davis Vista Suite 947",
      "endAddress": "005 Horton Trail Apt. 137",
      "startCoords": {
        "latitude": 35.099018,
        "longitude": -106.5698
      },
      "endCoords": {
        "latitude": 35.182349,
        "longitude": -106.672792
      },
      "distanceMeters": 52027.1,
      "durationMs": 9550480,
      "drivingDurationMs": 9149845,
      "idlingDurationMs": 400636,
      "fuelConsumedMl": 6613,
      "fuelConsumedGallons": 1.747,
      "maxSpeedMph": 61.8,
      "averageSpeedMph": 12.2,
      "safetyEvents": []
    },
    {
      "id": "trip_44865715_20250314_005",
      "vehicleId": "44865715",
      "driverId": "20000045",
      "startMs": 1741968660000,
      "endMs": 1741979241680,
      "startAddress": "648 Perez Rue",
      "endAddress": "29946 Stacey Dale Apt. 254",
      "startCoords": {
        "latitude": 35.069774,
        "longitude": -106.618241
      },
      "endCoords": {
        "latitude": 35.071054,
        "longitude": -106.581278
      },
      "distanceMeters": 68891.1,
      "durationMs": 10581681,
      "drivingDurationMs": 8788913,
      "idlingDurationMs": 1792768,
      "fuelConsumedMl": 8759,
      "fuelConsumedGallons": 2.314,
      "maxSpeedMph": 49.7,
      "averageSpeedMph": 14.6,
      "safetyEvents": []
    },
    {
      "id": "trip_44865715_20250315_001",
      "vehicleId": "44865715",
      "driverId": "20000045",
      "startMs": 1742060760000,
      "endMs": 1742072400000,
      "startAddress": "161 Jacqueline Hill Suite 431",
      "endAddress": "2118 Thomas Spurs",
      "startCoords": {
        "latitude": 35.041632,
        "longitude": -106.565426
      },
      "endCoords": {
        "latitude": 35.143312,
        "longitude": -106.71854
      },
      "distanceMeters": 71438.1,
      "durationMs": 11640000,
      "drivingDurationMs": 9312000,
      "idlingDurationMs": 2328000,
      "fuelConsumedMl": 9081,
      "fuelConsumedGallons": 2.399,
      "maxSpeedMph": 45.3,
      "averageSpeedMph": 13.7,
      "safetyEvents": []
    },
    {
      "id": "trip_44865715_20250315_002",
      "vehicleId": "44865715",
      "driverId": "20000045",
      "startMs": 1742037060000,
      "endMs": 1742045319143,
      "startAddress": "67601 Burgess Estate",
      "endAddress": "0868 King Viaduct",
      "startCoords": {
        "latitude": 35.100845,
        "longitude": -106.704689
      },
      "endCoords": {
        "latitude": 35.103814,
        "longitude": -106.608165
      },
      "distanceMeters": 56272.1,
      "durationMs": 8259143,
      "drivingDurationMs": 6881741,
      "idlingDurationMs": 1377402,
      "fuelConsumedMl": 7154,
      "fuelConsumedGallons": 1.89,
      "maxSpeedMph": 67.5,
      "averageSpeedMph": 15.2,
      "safetyEvents": [
        {
          "type": "speeding",
          "startMs": 1742037180000,
          "maxSpeedMph": 67.5
        }
      ]
    },
    {
      "id": "trip_44865715_20250316_001",
      "vehicleId": "44865715",
      "driverId": "20000046",
      "startMs": 1742133000000,
      "endMs": 1742141136310,
      "startAddress": "5853 Carter Villages",
      "endAddress": "392 Jimenez Extensions",
      "startCoords": {
        "latitude": 35.078162,
        "longitude": -106.576272
      },
      "endCoords": {
        "latitude": 35.108427,
        "longitude": -106.672541
      },
      "distanceMeters": 57426.7,
      "durationMs": 8136310,
      "drivingDurationMs": 7339702,
      "idlingDurationMs": 796608,
      "fuelConsumedMl": 7302,
      "fuelConsumedGallons": 1.929,
      "maxSpeedMph": 59.7,
      "averageSpeedMph": 15.8,
      "safetyEvents": []
    },
    {
      "id": "trip_44865715_20250316_002",
      "vehicleId": "44865715",
      "driverId": "20000046",
      "startMs": 1742106900000,
      "endMs": 1742117057675,
      "startAddress": "41842 Justin Junctions",
      "endAddress": "196 Sandra Walks",
      "startCoords": {
        "latitude": 35.137381,
        "longitude": -106.673127
      },
      "endCoords": {
        "latitude": 35.106307,
        "longitude": -106.66178
      },
      "distanceMeters": 75481.4,
      "durationMs": 10157676,
      "drivingDurationMs": 8729418,
      "idlingDurationMs": 1428258,
      "fuelConsumedMl": 9596,
      "fuelConsumedGallons": 2.535,
      "maxSpeedMph": 45.3,
      "averageSpeedMph": 16.6,
      "safetyEvents": []
    },
    {
      "id": "trip_44865715_20250316_003",
      "vehicleId": "44865715",
      "driverId": "20000046",
      "startMs": 1742148060000,
      "endMs": 1742149209849,
      "startAddress": "56937 Laurie Divide Apt. 027",
      "endAddress": "904 White Motorway",
      "startCoords": {
        "latitude": 35.167839,
        "longitude": -106.55292
      },
      "endCoords": {
        "latitude": 35.139581,
        "longitude": -106.545763
      },
      "distanceMeters": 8257.8,
      "durationMs": 1149849,
      "drivingDurationMs": 948032,
      "idlingDurationMs": 201817,
      "fuelConsumedMl": 1049,
      "fuelConsumedGallons": 0.277,
      "maxSpeedMph": 69.1,
      "averageSpeedMph": 16.1,
      "safetyEvents": [
        {
          "type": "speeding",
          "startMs": 1742148720000,
          "maxSpeedMph": 69.1
        }
      ]
    },
    {
      "id": "trip_44865715_20250316_004",
      "vehicleId": "44865715",
      "driverId": "20000046",
      "startMs": 1742137380000,
      "endMs": 1742140076338,
      "startAddress": "19869 Perez Rest",
      "endAddress": "982 Blake Lake",
      "startCoords": {
        "latitude": 35.131814,
        "longitude": -106.603381
      },
      "endCoords": {
        "latitude": 35.11441,
        "longitude": -106.655364
      },
      "distanceMeters": 11747.6,
      "durationMs": 2696339,
      "drivingDurationMs": 2265496,
      "idlingDurationMs": 430842,
      "fuelConsumedMl": 1495,
      "fuelConsumedGallons": 0.395,
      "maxSpeedMph": 44.3,
      "averageSpeedMph": 9.7,
      "safetyEvents": []
    },
    {
      "id": "trip_44865715_20250317_001",
      "vehicleId": "44865715",
      "driverId": "20000045",
      "startMs": 1742217540000,
      "endMs": 1742232933820,
      "startAddress": "09396 Natalie Parks",
      "endAddress": "210 Michael Streets Suite 197",
      "startCoords": {
        "latitude": 35.092918,
        "longitude": -106.599332
      },
      "endCoords": {
        "latitude": 35.078668,
        "longitude": -106.691895
      },
      "distanceMeters": 84582.0,
      "durationMs": 15393820,
      "drivingDurationMs": 14401774,
      "idlingDurationMs": 992047,
      "fuelConsumedMl": 10754,
      "fuelConsumedGallons": 2.841,
      "maxSpeedMph": 28.0,
      "averageSpeedMph": 12.3,
      "safetyEvents": []
    },
    {
      "id": "trip_44865715_20250317_002",
      "vehicleId": "44865715",
      "driverId": "20000045",
      "startMs": 1742221200000,
      "endMs": 1742232344580,
      "startAddress": "927 Evans Ridges",
      "endAddress": "6052 Foley Lodge",
      "startCoords": {
        "latitude": 35.051472,
        "longitude": -106.552473
      },
      "endCoords": {
        "latitude": 35.145052,
        "longitude": -106.573537
      },
      "distanceMeters": 79486.6,
      "durationMs": 11144581,
      "drivingDurationMs": 10669159,
      "idlingDurationMs": 475422,
      "fuelConsumedMl": 10107,
      "fuelConsumedGallons": 2.67,
      "maxSpeedMph": 68.6,
      "averageSpeedMph": 16.0,
      "safetyEvents": [
        {
          "type": "speeding",
          "startMs": 1742225340000,
          "maxSpeedMph": 68.6
        }
      ]
    },
    {
      "id": "trip_44865715_20250317_003",
      "vehicleId": "44865715",
      "driverId": "20000045",
      "startMs": 1742218500000,
      "endMs": 1742226450704,
      "startAddress": "51105 Hernandez Port Suite 922",
      "endAddress": "42220 Patterson Loop",
      "startCoords": {
        "latitude": 35.117173,
        "longitude": -106.585729
      },
      "endCoords": {
        "latitude": 35.074546,
        "longitude": -106.625734
      },
      "distanceMeters": 41259.6,
      "durationMs": 7950704,
      "drivingDurationMs": 6439161,
      "idlingDurationMs": 1511543,
      "fuelConsumedMl": 5247,
      "fuelConsumedGallons": 1.386,
      "maxSpeedMph": 39.4,
      "averageSpeedMph": 11.6,
      "safetyEvents": []
    },
    {
      "id": "trip_44865715_20250318_001",
      "vehicleId": "44865715",
      "driverId": "20000044",
      "startMs": 1742305380000,
      "endMs": 1742312792514,
      "startAddress": "744 Robertson Lodge",
      "endAddress": "648 Leslie Greens Apt. 758",
      "startCoords": {
        "latitude": 35.17118,
        "longitude": -106.550733
      },
      "endCoords": {
        "latitude": 35.121146,
        "longitude": -106.611535
      },
      "distanceMeters": 54042.5,
      "durationMs": 7412514,
      "drivingDurationMs": 6180328,
      "idlingDurationMs": 1232187,
      "fuelConsumedMl": 6871,
      "fuelConsumedGallons": 1.815,
      "maxSpeedMph": 57.6,
      "averageSpeedMph": 16.3,
      "safetyEvents": []
    },
    {
      "id": "trip_44865715_20250318_002",
      "vehicleId": "44865715",
      "driverId": "20000044",
      "startMs": 1742317500000,
      "endMs": 1742323922837,
      "startAddress": "9840 Michael Mission",
      "endAddress": "225 Meghan Vista",
      "startCoords": {
        "latitude": 35.133124,
        "longitude": -106.665042
      },
      "endCoords": {
        "latitude": 35.044196,
        "longitude": -106.664291
      },
      "distanceMeters": 39570.5,
      "durationMs": 6422837,
      "drivingDurationMs": 5402959,
      "idlingDurationMs": 1019878,
      "fuelConsumedMl": 5031,
      "fuelConsumedGallons": 1.329,
      "maxSpeedMph": 48.6,
      "averageSpeedMph": 13.8,
      "safetyEvents": []
    },
    {
      "id": "trip_44865715_20250318_003",
      "vehicleId": "44865715",
      "driverId": "20000044",
      "startMs": 1742301480000,
      "endMs": 1742309307864,
      "startAddress": "3578 Gary Glen",
      "endAddress": "765 Maria Village",
      "startCoords": {
        "latitude": 35.119762,
        "longitude": -106.693771
      },
      "endCoords": {
        "latitude": 35.039454,
        "longitude": -106.663181
      },
      "distanceMeters": 41301.3,
      "durationMs": 7827865,
      "drivingDurationMs": 6744265,
      "idlingDurationMs": 1083599,
      "fuelConsumedMl": 5250,
      "fuelConsumedGallons": 1.387,
      "maxSpeedMph": 30.2,
      "averageSpeedMph": 11.8,
      "safetyEvents": []
    },
    {
      "id": "trip_44865715_20250318_004",
      "vehicleId": "44865715",
      "driverId": "20000044",
      "startMs": 1742290800000,
      "endMs": 1742293021581,
      "startAddress": "3095 Lang Mission Apt. 003",
      "endAddress": "83699 Clark Cliffs",
      "startCoords": {
        "latitude": 35.17445,
        "longitude": -106.687485
      },
      "endCoords": {
        "latitude": 35.159802,
        "longitude": -106.636375
      },
      "distanceMeters": 11914.5,
      "durationMs": 2221581,
      "drivingDurationMs": 1895477,
      "idlingDurationMs": 326104,
      "fuelConsumedMl": 1514,
      "fuelConsumedGallons": 0.4,
      "maxSpeedMph": 44.0,
      "averageSpeedMph": 12.0,
      "safetyEvents": []
    },
    {
      "id": "trip_44865715_20250319_001",
      "vehicleId": "44865715",
      "driverId": "20000044",
      "startMs": 1742379840000,
      "endMs": 1742385319333,
      "startAddress": "0084 Lawrence Circle Apt. 367",
      "endAddress": "7787 Sandra Plaza",
      "startCoords": {
        "latitude": 35.119675,
        "longitude": -106.652585
      },
      "endCoords": {
        "latitude": 35.121812,
        "longitude": -106.679384
      },
      "distanceMeters": 36031.3,
      "durationMs": 5479333,
      "drivingDurationMs": 4624462,
      "idlingDurationMs": 854871,
      "fuelConsumedMl": 4580,
      "fuelConsumedGallons": 1.21,
      "maxSpeedMph": 59.7,
      "averageSpeedMph": 14.7,
      "safetyEvents": []
    },
    {
      "id": "trip_44865715_20250319_002",
      "vehicleId": "44865715",
      "driverId": "20000044",
      "startMs": 1742408520000,
      "endMs": 1742418000000,
      "startAddress": "0282 Cruz Village",
      "endAddress": "405 Martinez Fords Apt. 491",
      "startCoords": {
        "latitude": 35.168967,
        "longitude": -106.615829
      },
      "endCoords": {
        "latitude": 35.134,
        "longitude": -106.622077
      },
      "distanceMeters": 55339.4,
      "durationMs": 9480000,
      "drivingDurationMs": 8308540,
      "idlingDurationMs": 1171460,
      "fuelConsumedMl": 7037,
      "fuelConsumedGallons": 1.859,
      "maxSpeedMph": 71.0,
      "averageSpeedMph": 13.1,
      "safetyEvents": [
        {
          "type": "speeding",
          "startMs": 1742415660000,
          "maxSpeedMph": 71.0
        }
      ]
    },
    {
      "id": "trip_44865715_20250319_003",
      "vehicleId": "44865715",
      "driverId": "20000044",
      "startMs": 1742389560000,
      "endMs": 1742393704648,
      "startAddress": "5362 Wood Hills",
      "endAddress": "1669 Julia Ways",
      "startCoords": {
        "latitude": 35.084422,
        "longitude": -106.573149
      },
      "endCoords": {
        "latitude": 35.1444,
        "longitude": -106.709131
      },
      "distanceMeters": 29666.8,
      "durationMs": 4144649,
      "drivingDurationMs": 3488740,
      "idlingDurationMs": 655909,
      "fuelConsumedMl": 3770,
      "fuelConsumedGallons": 0.996,
      "maxSpeedMph": 31.5,
      "averageSpeedMph": 16.0,
      "safetyEvents": []
    },
    {
      "id": "trip_44865715_20250319_004",
      "vehicleId": "44865715",
      "driverId": "20000044",
      "startMs": 1742400780000,
      "endMs": 1742409005668,
      "startAddress": "3754 Olson Causeway Apt. 424",
      "endAddress": "13066 Fitzpatrick Gardens Apt. 081",
      "startCoords": {
        "latitude": 35.054209,
        "longitude": -106.687413
      },
      "endCoords": {
        "latitude": 35.042521,
        "longitude": -106.627878
      },
      "distanceMeters": 44196.5,
      "durationMs": 8225668,
      "drivingDurationMs": 7151836,
      "idlingDurationMs": 1073832,
      "fuelConsumedMl": 5618,
      "fuelConsumedGallons": 1.484,
      "maxSpeedMph": 45.7,
      "averageSpeedMph": 12.0,
      "safetyEvents": []
    },
    {
      "id": "trip_44865715_20250320_001",
      "vehicleId": "44865715",
      "driverId": "20000046",
      "startMs": 1742461200000,
      "endMs": 1742463789581,
      "startAddress": "3947 Hodge Skyway Apt. 610",
      "endAddress": "59423 Hicks Locks",
      "startCoords": {
        "latitude": 35.118104,
        "longitude": -106.550187
      },
      "endCoords": {
        "latitude": 35.178743,
        "longitude": -106.709148
      },
      "distanceMeters": 14123.0,
      "durationMs": 2589582,
      "drivingDurationMs": 2155664,
      "idlingDurationMs": 433917,
      "fuelConsumedMl": 1794,
      "fuelConsumedGallons": 0.474,
      "maxSpeedMph": 57.6,
      "averageSpeedMph": 12.2,
      "safetyEvents": []
    },
    {
      "id": "trip_44865715_20250320_002",
      "vehicleId": "44865715",
      "driverId": "20000046",
      "startMs": 1742485500000,
      "endMs": 1742488775503,
      "startAddress": "037 Brenda Circle",
      "endAddress": "0366 Porter Neck",
      "startCoords": {
        "latitude": 35.098773,
        "longitude": -106.578406
      },
      "endCoords": {
        "latitude": 35.084813,
        "longitude": -106.690517
      },
      "distanceMeters": 15063.9,
      "durationMs": 3275504,
      "drivingDurationMs": 2723877,
      "idlingDurationMs": 551626,
      "fuelConsumedMl": 1915,
      "fuelConsumedGallons": 0.506,
      "maxSpeedMph": 68.3,
      "averageSpeedMph": 10.3,
      "safetyEvents": [
        {
          "type": "speeding",
          "startMs": 1742487240000,
          "maxSpeedMph": 68.3
        }
      ]
    },
    {
      "id": "trip_44865715_20250320_003",
      "vehicleId": "44865715",
      "driverId": "20000046",
      "startMs": 1742495340000,
      "endMs": 1742504400000,
      "startAddress": "07180 Wallace Island Apt. 877",
      "endAddress": "288 Barnes Square Suite 989",
      "startCoords": {
        "latitude": 35.094163,
        "longitude": -106.657068
      },
      "endCoords": {
        "latitude": 35.118581,
        "longitude": -106.586546
      },
      "distanceMeters": 47199.4,
      "durationMs": 9060000,
      "drivingDurationMs": 7328577,
      "idlingDurationMs": 1731423,
      "fuelConsumedMl": 6000,
      "fuelConsumedGallons": 1.585,
      "maxSpeedMph": 54.8,
      "averageSpeedMph": 11.7,
      "safetyEvents": []
    },
    {
      "id": "trip_44865715_20250320_004",
      "vehicleId": "44865715",
      "driverId": "20000046",
      "startMs": 1742469180000,
      "endMs": 1742471932554,
      "startAddress": "8703 Lori Stravenue Suite 959",
      "endAddress": "51670 Swanson River Suite 826",
      "startCoords": {
        "latitude": 35.176034,
        "longitude": -106.599597
      },
      "endCoords": {
        "latitude": 35.156265,
        "longitude": -106.572285
      },
      "distanceMeters": 22172.7,
      "durationMs": 2752554,
      "drivingDurationMs": 2570994,
      "idlingDurationMs": 181560,
      "fuelConsumedMl": 2820,
      "fuelConsumedGallons": 0.745,
      "maxSpeedMph": 67.8,
      "averageSpeedMph": 18.0,
      "safetyEvents": [
        {
          "type": "speeding",
          "startMs": 1742469480000,
          "maxSpeedMph": 67.8
        }
      ]
    },
    {
      "id": "trip_44865715_20250321_001",
      "vehicleId": "44865715",
      "driverId": "20000046",
      "startMs": 1742576100000,
      "endMs": 1742590800000,
      "startAddress": "25975 Brenda Centers Suite 760",
      "endAddress": "8575 Daniel Crescent Apt. 132",
      "startCoords": {
        "latitude": 35.172929,
        "longitude": -106.673566
      },
      "endCoords": {
        "latitude": 35.090931,
        "longitude": -106.544785
      },
      "distanceMeters": 64493.0,
      "durationMs": 14700000,
      "drivingDurationMs": 11760000,
      "idlingDurationMs": 2940000,
      "fuelConsumedMl": 8199,
      "fuelConsumedGallons": 2.166,
      "maxSpeedMph": 55.1,
      "averageSpeedMph": 9.8,
      "safetyEvents": []
    },
    {
      "id": "trip_44865715_20250321_002",
      "vehicleId": "44865715",
      "driverId": "20000046",
      "startMs": 1742570220000,
      "endMs": 1742574099021,
      "startAddress": "683 Hartman Mountains",
      "endAddress": "1506 Schmidt Wall",
      "startCoords": {
        "latitude": 35.155249,
        "longitude": -106.681014
      },
      "endCoords": {
        "latitude": 35.178002,
        "longitude": -106.690203
      },
      "distanceMeters": 29264.7,
      "durationMs": 3879022,
      "drivingDurationMs": 3501488,
      "idlingDurationMs": 377534,
      "fuelConsumedMl": 3721,
      "fuelConsumedGallons": 0.983,
      "maxSpeedMph": 32.5,
      "averageSpeedMph": 16.9,
      "safetyEvents": []
    },
    {
      "id": "trip_44865715_20250321_003",
      "vehicleId": "44865715",
      "driverId": "20000046",
      "startMs": 1742565660000,
      "endMs": 1742568307332,
      "startAddress": "2687 Christine Crescent Apt. 794",
      "endAddress": "5328 Gray Cliff",
      "startCoords": {
        "latitude": 35.076672,
        "longitude": -106.712346
      },
      "endCoords": {
        "latitude": 35.167758,
        "longitude": -106.625422
      },
      "distanceMeters": 12281.2,
      "durationMs": 2647332,
      "drivingDurationMs": 2238007,
      "idlingDurationMs": 409326,
      "fuelConsumedMl": 1560,
      "fuelConsumedGallons": 0.412,
      "maxSpeedMph": 41.9,
      "averageSpeedMph": 10.4,
      "safetyEvents": []
    },
    {
      "id": "trip_44865715_20250321_004",
      "vehicleId": "44865715",
      "driverId": "20000046",
      "startMs": 1742570880000,
      "endMs": 1742577231267,
      "startAddress": "50506 Jason Locks",
      "endAddress": "866 Barnett Rue",
      "startCoords": {
        "latitude": 35.171568,
        "longitude": -106.705114
      },
      "endCoords": {
        "latitude": 35.07535,
        "longitude": -106.644929
      },
      "distanceMeters": 32903.9,
      "durationMs": 6351267,
      "drivingDurationMs": 5528319,
      "idlingDurationMs": 822948,
      "fuelConsumedMl": 4183,
      "fuelConsumedGallons": 1.105,
      "maxSpeedMph": 31.3,
      "averageSpeedMph": 11.6,
      "safetyEvents": []
    },
    {
      "id": "trip_44865715_20250322_001",
      "vehicleId": "44865715",
      "driverId": "20000045",
      "startMs": 1742646120000,
      "endMs": 1742663776015,
      "startAddress": "40595 Cindy Avenue Suite 760",
      "endAddress": "484 Baker Drives Suite 785",
      "startCoords": {
        "latitude": 35.066042,
        "longitude": -106.636124
      },
      "endCoords": {
        "latitude": 35.072646,
        "longitude": -106.620345
      },
      "distanceMeters": 84851.8,
      "durationMs": 17656016,
      "drivingDurationMs": 15567514,
      "idlingDurationMs": 2088502,
      "fuelConsumedMl": 10788,
      "fuelConsumedGallons": 2.85,
      "maxSpeedMph": 47.0,
      "averageSpeedMph": 10.8,
      "safetyEvents": []
    },
    {
      "id": "trip_44865715_20250322_002",
      "vehicleId": "44865715",
      "driverId": "20000045",
      "startMs": 1742653380000,
      "endMs": 1742658236520,
      "startAddress": "667 Riley Inlet",
      "endAddress": "10657 Bowman Extension",
      "startCoords": {
        "latitude": 35.176479,
        "longitude": -106.590583
      },
      "endCoords": {
        "latitude": 35.073904,
        "longitude": -106.556341
      },
      "distanceMeters": 34673.6,
      "durationMs": 4856520,
      "drivingDurationMs": 4363695,
      "idlingDurationMs": 492826,
      "fuelConsumedMl": 4410,
      "fuelConsumedGallons": 1.165,
      "maxSpeedMph": 52.9,
      "averageSpeedMph": 16.0,
      "safetyEvents": []
    },
    {
      "id": "trip_44865715_20250322_003",
      "vehicleId": "44865715",
      "driverId": "20000045",
      "startMs": 1742651880000,
      "endMs": 1742662764273,
      "startAddress": "3339 Martin Path Apt. 777",
      "endAddress": "3715 Raymond Valleys",
      "startCoords": {
        "latitude": 35.113929,
        "longitude": -106.626865
      },
      "endCoords": {
        "latitude": 35.170829,
        "longitude": -106.618141
      },
      "distanceMeters": 72151.5,
      "durationMs": 10884274,
      "drivingDurationMs": 8957755,
      "idlingDurationMs": 1926518,
      "fuelConsumedMl": 9172,
      "fuelConsumedGallons": 2.423,
      "maxSpeedMph": 53.4,
      "averageSpeedMph": 14.8,
      "safetyEvents": []
    },
    {
      "id": "trip_44865715_20250323_001",
      "vehicleId": "44865715",
      "driverId": "20000044",
      "startMs": 1742724120000,
      "endMs": 1742734907381,
      "startAddress": "25297 Sullivan Mount",
      "endAddress": "349 Franklin Isle Apt. 663",
      "startCoords": {
        "latitude": 35.154635,
        "longitude": -106.649219
      },
      "endCoords": {
        "latitude": 35.122724,
        "longitude": -106.659998
      },
      "distanceMeters": 72074.6,
      "durationMs": 10787382,
      "drivingDurationMs": 9389919,
      "idlingDurationMs": 1397463,
      "fuelConsumedMl": 9164,
      "fuelConsumedGallons": 2.421,
      "maxSpeedMph": 66.2,
      "averageSpeedMph": 14.9,
      "safetyEvents": [
        {
          "type": "speeding",
          "startMs": 1742731860000,
          "maxSpeedMph": 66.2
        }
      ]
    },
    {
      "id": "trip_44865715_20250324_001",
      "vehicleId": "44865715",
      "driverId": "20000045",
      "startMs": 1742803980000,
      "endMs": 1742812067137,
      "startAddress": "9785 Lopez Brooks",
      "endAddress": "17660 Hamilton Islands Apt. 150",
      "startCoords": {
        "latitude": 35.086211,
        "longitude": -106.54961
      },
      "endCoords": {
        "latitude": 35.048427,
        "longitude": -106.563805
      },
      "distanceMeters": 47958.1,
      "durationMs": 8087137,
      "drivingDurationMs": 6788357,
      "idlingDurationMs": 1298780,
      "fuelConsumedMl": 6098,
      "fuelConsumedGallons": 1.611,
      "maxSpeedMph": 30.0,
      "averageSpeedMph": 13.3,
      "safetyEvents": []
    },
    {
      "id": "trip_44865715_20250324_002",
      "vehicleId": "44865715",
      "driverId": "20000045",
      "startMs": 1742832720000,
      "endMs": 1742835440975,
      "startAddress": "665 Griffin Forges Suite 375",
      "endAddress": "69609 John Tunnel",
      "startCoords": {
        "latitude": 35.166213,
        "longitude": -106.666502
      },
      "endCoords": {
        "latitude": 35.056316,
        "longitude": -106.647822
      },
      "distanceMeters": 13558.6,
      "durationMs": 2720976,
      "drivingDurationMs": 2518199,
      "idlingDurationMs": 202777,
      "fuelConsumedMl": 1722,
      "fuelConsumedGallons": 0.455,
      "maxSpeedMph": 55.5,
      "averageSpeedMph": 11.1,
      "safetyEvents": []
    },
    {
      "id": "trip_44865715_20250324_003",
      "vehicleId": "44865715",
      "driverId": "20000045",
      "startMs": 1742797260000,
      "endMs": 1742815877907,
      "startAddress": "14124 Denise Gateway Suite 798",
      "endAddress": "38653 Jennifer Summit",
      "startCoords": {
        "latitude": 35.12769,
        "longitude": -106.662893
      },
      "endCoords": {
        "latitude": 35.135066,
        "longitude": -106.593559
      },
      "distanceMeters": 82759.0,
      "durationMs": 18617907,
      "drivingDurationMs": 16259081,
      "idlingDurationMs": 2358826,
      "fuelConsumedMl": 10523,
      "fuelConsumedGallons": 2.78,
      "maxSpeedMph": 40.4,
      "averageSpeedMph": 9.9,
      "safetyEvents": []
    },
    {
      "id": "trip_44865715_20250325_001",
      "vehicleId": "44865715",
      "driverId": "20000046",
      "startMs": 1742921400000,
      "endMs": 1742928733160,
      "startAddress": "930 Griffith Crossroad",
      "endAddress": "6533 Jocelyn Vista Suite 340",
      "startCoords": {
        "latitude": 35.099527,
        "longitude": -106.555952
      },
      "endCoords": {
        "latitude": 35.109927,
        "longitude": -106.615853
      },
      "distanceMeters": 46198.2,
      "durationMs": 7333160,
      "drivingDurationMs": 6871031,
      "idlingDurationMs": 462129,
      "fuelConsumedMl": 5875,
      "fuelConsumedGallons": 1.552,
      "maxSpeedMph": 55.1,
      "averageSpeedMph": 14.1,
      "safetyEvents": []
    },
    {
      "id": "trip_44865715_20250325_002",
      "vehicleId": "44865715",
      "driverId": "20000046",
      "startMs": 1742898540000,
      "endMs": 1742902593251,
      "startAddress": "59100 Kelly Turnpike Suite 062",
      "endAddress": "200 Marquez Light",
      "startCoords": {
        "latitude": 35.090965,
        "longitude": -106.606433
      },
      "endCoords": {
        "latitude": 35.102663,
        "longitude": -106.569152
      },
      "distanceMeters": 29361.7,
      "durationMs": 4053252,
      "drivingDurationMs": 3336843,
      "idlingDurationMs": 716409,
      "fuelConsumedMl": 3732,
      "fuelConsumedGallons": 0.986,
      "maxSpeedMph": 45.4,
      "averageSpeedMph": 16.2,
      "safetyEvents": []
    },
    {
      "id": "trip_44865715_20250325_003",
      "vehicleId": "44865715",
      "driverId": "20000046",
      "startMs": 1742910060000,
      "endMs": 1742916139671,
      "startAddress": "382 Winters Junction Suite 642",
      "endAddress": "74418 Cassandra Light Apt. 698",
      "startCoords": {
        "latitude": 35.088797,
        "longitude": -106.547702
      },
      "endCoords": {
        "latitude": 35.105568,
        "longitude": -106.552797
      },
      "distanceMeters": 42971.2,
      "durationMs": 6079672,
      "drivingDurationMs": 5747582,
      "idlingDurationMs": 332090,
      "fuelConsumedMl": 5462,
      "fuelConsumedGallons": 1.443,
      "maxSpeedMph": 70.3,
      "averageSpeedMph": 15.8,
      "safetyEvents": [
        {
          "type": "speeding",
          "startMs": 1742913480000,
          "maxSpeedMph": 70.3
        }
      ]
    },
    {
      "id": "trip_44865715_20250325_004",
      "vehicleId": "44865715",
      "driverId": "20000046",
      "startMs": 1742917200000,
      "endMs": 1742927389429,
      "startAddress": "181 Wright Knolls",
      "endAddress": "64818 Christine Plain",
      "startCoords": {
        "latitude": 35.040612,
        "longitude": -106.630728
      },
      "endCoords": {
        "latitude": 35.141253,
        "longitude": -106.679458
      },
      "distanceMeters": 65329.7,
      "durationMs": 10189429,
      "drivingDurationMs": 8391825,
      "idlingDurationMs": 1797604,
      "fuelConsumedMl": 8305,
      "fuelConsumedGallons": 2.194,
      "maxSpeedMph": 49.1,
      "averageSpeedMph": 14.3,
      "safetyEvents": []
    },
    {
      "id": "trip_44865715_20250325_005",
      "vehicleId": "44865715",
      "driverId": "20000046",
      "startMs": 1742891640000,
      "endMs": 1742895331880,
      "startAddress": "747 Garza Keys Suite 064",
      "endAddress": "7809 Mcguire Gardens Apt. 123",
      "startCoords": {
        "latitude": 35.160641,
        "longitude": -106.621297
      },
      "endCoords": {
        "latitude": 35.148992,
        "longitude": -106.64295
      },
      "distanceMeters": 27316.8,
      "durationMs": 3691880,
      "drivingDurationMs": 3117347,
      "idlingDurationMs": 574533,
      "fuelConsumedMl": 3475,
      "fuelConsumedGallons": 0.918,
      "maxSpeedMph": 67.3,
      "averageSpeedMph": 16.6,
      "safetyEvents": [
        {
          "type": "speeding",
          "startMs": 1742892660000,
          "maxSpeedMph": 67.3
        }
      ]
    },
    {
      "id": "trip_44865715_20250325_006",
      "vehicleId": "44865715",
      "driverId": "20000046",
      "startMs": 1742904480000,
      "endMs": 1742906174349,
      "startAddress": "29407 Krista Turnpike",
      "endAddress": "896 Martin Ways",
      "startCoords": {
        "latitude": 35.039304,
        "longitude": -106.598296
      },
      "endCoords": {
        "latitude": 35.126238,
        "longitude": -106.608971
      },
      "distanceMeters": 10334.4,
      "durationMs": 1694350,
      "drivingDurationMs": 1397520,
      "idlingDurationMs": 296829,
      "fuelConsumedMl": 1314,
      "fuelConsumedGallons": 0.347,
      "maxSpeedMph": 50.2,
      "averageSpeedMph": 13.6,
      "safetyEvents": []
    },
    {
      "id": "trip_44865715_20250326_001",
      "vehicleId": "44865715",
      "driverId": "20000044",
      "startMs": 1742999340000,
      "endMs": 1743002665640,
      "startAddress": "28767 Aaron Villages",
      "endAddress": "9961 Edward Mission",
      "startCoords": {
        "latitude": 35.167184,
        "longitude": -106.666269
      },
      "endCoords": {
        "latitude": 35.164727,
        "longitude": -106.6616
      },
      "distanceMeters": 25391.0,
      "durationMs": 3325640,
      "drivingDurationMs": 2987625,
      "idlingDurationMs": 338015,
      "fuelConsumedMl": 3229,
      "fuelConsumedGallons": 0.853,
      "maxSpeedMph": 54.1,
      "averageSpeedMph": 17.1,
      "safetyEvents": []
    },
    {
      "id": "trip_44865715_20250326_002",
      "vehicleId": "44865715",
      "driverId": "20000044",
      "startMs": 1742999460000,
      "endMs": 1743009130937,
      "startAddress": "4809 Turner Tunnel",
      "endAddress": "38006 Juan Lakes Apt. 952",
      "startCoords": {
        "latitude": 35.066342,
        "longitude": -106.69305
      },
      "endCoords": {
        "latitude": 35.106708,
        "longitude": -106.589726
      },
      "distanceMeters": 52783.7,
      "durationMs": 9670938,
      "drivingDurationMs": 8203220,
      "idlingDurationMs": 1467717,
      "fuelConsumedMl": 6712,
      "fuelConsumedGallons": 1.773,
      "maxSpeedMph": 37.0,
      "averageSpeedMph": 12.2,
      "safetyEvents": []
    },
    {
      "id": "trip_44865715_20250326_003",
      "vehicleId": "44865715",
      "driverId": "20000044",
      "startMs": 1742976180000,
      "endMs": 1742984948632,
      "startAddress": "8800 Vargas Haven Suite 770",
      "endAddress": "08208 Frank Route",
      "startCoords": {
        "latitude": 35.094437,
        "longitude": -106.711564
      },
      "endCoords": {
        "latitude": 35.125336,
        "longitude": -106.653273
      },
      "distanceMeters": 68449.1,
      "durationMs": 8768632,
      "drivingDurationMs": 8201655,
      "idlingDurationMs": 566977,
      "fuelConsumedMl": 8703,
      "fuelConsumedGallons": 2.299,
      "maxSpeedMph": 62.7,
      "averageSpeedMph": 17.5,
      "safetyEvents": []
    },
    {
      "id": "trip_44865715_20250326_004",
      "vehicleId": "44865715",
      "driverId": "20000044",
      "startMs": 1743008460000,
      "endMs": 1743016711640,
      "startAddress": "33041 Rodriguez Land",
      "endAddress": "47404 Simpson Walks",
      "startCoords": {
        "latitude": 35.115339,
        "longitude": -106.606197
      },
      "endCoords": {
        "latitude": 35.110808,
        "longitude": -106.651637
      },
      "distanceMeters": 56784.9,
      "durationMs": 8251641,
      "drivingDurationMs": 7614183,
      "idlingDurationMs": 637458,
      "fuelConsumedMl": 7219,
      "fuelConsumedGallons": 1.907,
      "maxSpeedMph": 40.4,
      "averageSpeedMph": 15.4,
      "safetyEvents": []
    },
    {
      "id": "trip_44865715_20250327_001",
      "vehicleId": "44865715",
      "driverId": "20000046",
      "startMs": 1743088260000,
      "endMs": 1743091984421,
      "startAddress": "0729 Amy Dam Apt. 915",
      "endAddress": "25334 Morton Vista",
      "startCoords": {
        "latitude": 35.070449,
        "longitude": -106.681035
      },
      "endCoords": {
        "latitude": 35.140469,
        "longitude": -106.567264
      },
      "distanceMeters": 22857.8,
      "durationMs": 3724422,
      "drivingDurationMs": 3520798,
      "idlingDurationMs": 203624,
      "fuelConsumedMl": 2907,
      "fuelConsumedGallons": 0.768,
      "maxSpeedMph": 33.7,
      "averageSpeedMph": 13.7,
      "safetyEvents": []
    },
    {
      "id": "trip_44865715_20250327_002",
      "vehicleId": "44865715",
      "driverId": "20000046",
      "startMs": 1743063840000,
      "endMs": 1743069464947,
      "startAddress": "839 April Land",
      "endAddress": "2461 Hardy Stravenue Suite 289",
      "startCoords": {
        "latitude": 35.115523,
        "longitude": -106.576002
      },
      "endCoords": {
        "latitude": 35.047821,
        "longitude": -106.672178
      },
      "distanceMeters": 43852.5,
      "durationMs": 5624948,
      "drivingDurationMs": 5167196,
      "idlingDurationMs": 457752,
      "fuelConsumedMl": 5576,
      "fuelConsumedGallons": 1.473,
      "maxSpeedMph": 30.1,
      "averageSpeedMph": 17.4,
      "safetyEvents": []
    },
    {
      "id": "trip_44865715_20250327_003",
      "vehicleId": "44865715",
      "driverId": "20000046",
      "startMs": 1743093360000,
      "endMs": 1743102251968,
      "startAddress": "940 Montgomery Wall Suite 337",
      "endAddress": "19029 Alexandra Station Suite 005",
      "startCoords": {
        "latitude": 35.079678,
        "longitude": -106.675676
      },
      "endCoords": {
        "latitude": 35.054328,
        "longitude": -106.684117
      },
      "distanceMeters": 46861.9,
      "durationMs": 8891968,
      "drivingDurationMs": 7311065,
      "idlingDurationMs": 1580904,
      "fuelConsumedMl": 5958,
      "fuelConsumedGallons": 1.574,
      "maxSpeedMph": 53.1,
      "averageSpeedMph": 11.8,
      "safetyEvents": []
    },
    {
      "id": "trip_44865715_20250328_001",
      "vehicleId": "44865715",
      "driverId": "20000044",
      "startMs": 1743166680000,
      "endMs": 1743169775588,
      "startAddress": "409 Felicia Fields Apt. 268",
      "endAddress": "9431 Rodriguez Inlet",
      "startCoords": {
        "latitude": 35.086196,
        "longitude": -106.536775
      },
      "endCoords": {
        "latitude": 35.165096,
        "longitude": -106.71726
      },
      "distanceMeters": 24885.0,
      "durationMs": 3095589,
      "drivingDurationMs": 2886573,
      "idlingDurationMs": 209015,
      "fuelConsumedMl": 3165,
      "fuelConsumedGallons": 0.836,
      "maxSpeedMph": 69.4,
      "averageSpeedMph": 18.0,
      "safetyEvents": [
        {
          "type": "speeding",
          "startMs": 1743169620000,
          "maxSpeedMph": 69.4
        }
      ]
    },
    {
      "id": "trip_44865715_20250328_002",
      "vehicleId": "44865715",
      "driverId": "20000044",
      "startMs": 1743180120000,
      "endMs": 1743181884088,
      "startAddress": "50876 Eric Corners",
      "endAddress": "376 Turner Square Apt. 052",
      "startCoords": {
        "latitude": 35.070095,
        "longitude": -106.659894
      },
      "endCoords": {
        "latitude": 35.17502,
        "longitude": -106.616894
      },
      "distanceMeters": 8686.2,
      "durationMs": 1764089,
      "drivingDurationMs": 1560078,
      "idlingDurationMs": 204011,
      "fuelConsumedMl": 1105,
      "fuelConsumedGallons": 0.292,
      "maxSpeedMph": 44.7,
      "averageSpeedMph": 11.0,
      "safetyEvents": []
    },
    {
      "id": "trip_44865715_20250328_003",
      "vehicleId": "44865715",
      "driverId": null,
      "startMs": 1743187860000,
      "endMs": 1743195600000,
      "startAddress": "00295 Samuel Garden",
      "endAddress": "79640 Eric Pike Apt. 551",
      "startCoords": {
        "latitude": 35.098445,
        "longitude": -106.601824
      },
      "endCoords": {
        "latitude": 35.147391,
        "longitude": -106.720255
      },
      "distanceMeters": 35579.4,
      "durationMs": 7740000,
      "drivingDurationMs": 6268188,
      "idlingDurationMs": 1471812,
      "fuelConsumedMl": 4524,
      "fuelConsumedGallons": 1.195,
      "maxSpeedMph": 57.1,
      "averageSpeedMph": 10.3,
      "safetyEvents": []
    },
    {
      "id": "trip_44865715_20250328_004",
      "vehicleId": "44865715",
      "driverId": "20000044",
      "startMs": 1743177300000,
      "endMs": 1743184179955,
      "startAddress": "189 Small Streets",
      "endAddress": "2630 Anderson Junctions",
      "startCoords": {
        "latitude": 35.105171,
        "longitude": -106.719632
      },
      "endCoords": {
        "latitude": 35.129311,
        "longitude": -106.563828
      },
      "distanceMeters": 33269.1,
      "durationMs": 6879955,
      "drivingDurationMs": 6045469,
      "idlingDurationMs": 834487,
      "fuelConsumedMl": 4228,
      "fuelConsumedGallons": 1.117,
      "maxSpeedMph": 71.2,
      "averageSpeedMph": 10.8,
      "safetyEvents": [
        {
          "type": "speeding",
          "startMs": 1743182880000,
          "maxSpeedMph": 71.2
        }
      ]
    },
    {
      "id": "trip_44865715_20250329_001",
      "vehicleId": "44865715",
      "driverId": "20000044",
      "startMs": 1743228180000,
      "endMs": 1743244898906,
      "startAddress": "2805 Cindy Plains",
      "endAddress": "24678 Luna Hill",
      "startCoords": {
        "latitude": 35.115473,
        "longitude": -106.637321
      },
      "endCoords": {
        "latitude": 35.168441,
        "longitude": -106.657533
      },
      "distanceMeters": 73193.9,
      "durationMs": 16718907,
      "drivingDurationMs": 13947369,
      "idlingDurationMs": 2771537,
      "fuelConsumedMl": 9305,
      "fuelConsumedGallons": 2.458,
      "maxSpeedMph": 28.2,
      "averageSpeedMph": 9.8,
      "safetyEvents": []
    },
    {
      "id": "trip_44865715_20250329_002",
      "vehicleId": "44865715",
      "driverId": "20000044",
      "startMs": 1743253320000,
      "endMs": 1743256064796,
      "startAddress": "45575 Jones Mews Apt. 136",
      "endAddress": "25738 Pamela Walks Apt. 315",
      "startCoords": {
        "latitude": 35.132187,
        "longitude": -106.659902
      },
      "endCoords": {
        "latitude": 35.109265,
        "longitude": -106.614634
      },
      "distanceMeters": 14127.0,
      "durationMs": 2744797,
      "drivingDurationMs": 2295777,
      "idlingDurationMs": 449020,
      "fuelConsumedMl": 1794,
      "fuelConsumedGallons": 0.474,
      "maxSpeedMph": 35.9,
      "averageSpeedMph": 11.5,
      "safetyEvents": []
    },
    {
      "id": "trip_44865715_20250329_003",
      "vehicleId": "44865715",
      "driverId": "20000044",
      "startMs": 1743238320000,
      "endMs": 1743248565214,
      "startAddress": "458 Cuevas Lights",
      "endAddress": "9382 Melissa Green",
      "startCoords": {
        "latitude": 35.141043,
        "longitude": -106.625403
      },
      "endCoords": {
        "latitude": 35.107065,
        "longitude": -106.604116
      },
      "distanceMeters": 64337.5,
      "durationMs": 10245214,
      "drivingDurationMs": 9842353,
      "idlingDurationMs": 402861,
      "fuelConsumedMl": 8180,
      "fuelConsumedGallons": 2.161,
      "maxSpeedMph": 47.6,
      "averageSpeedMph": 14.0,
      "safetyEvents": []
    },
    {
      "id": "trip_44865715_20250329_004",
      "vehicleId": "44865715",
      "driverId": "20000044",
      "startMs": 1743261120000,
      "endMs": 1743278523347,
      "startAddress": "9482 Gentry Cape Apt. 211",
      "endAddress": "2165 King Knoll Apt. 203",
      "startCoords": {
        "latitude": 35.131499,
        "longitude": -106.581713
      },
      "endCoords": {
        "latitude": 35.173491,
        "longitude": -106.610561
      },
      "distanceMeters": 84502.5,
      "durationMs": 17403348,
      "drivingDurationMs": 15753881,
      "idlingDurationMs": 1649467,
      "fuelConsumedMl": 10743,
      "fuelConsumedGallons": 2.838,
      "maxSpeedMph": 49.3,
      "averageSpeedMph": 10.9,
      "safetyEvents": []
    },
    {
      "id": "trip_44865715_20250330_001",
      "vehicleId": "44865715",
      "driverId": "20000044",
      "startMs": 1743360060000,
      "endMs": 1743362688790,
      "startAddress": "07929 Michele Bypass",
      "endAddress": "2609 Lori Avenue Apt. 254",
      "startCoords": {
        "latitude": 35.091766,
        "longitude": -106.665697
      },
      "endCoords": {
        "latitude": 35.09107,
        "longitude": -106.629538
      },
      "distanceMeters": 18042.8,
      "durationMs": 2628791,
      "drivingDurationMs": 2414188,
      "idlingDurationMs": 214602,
      "fuelConsumedMl": 2294,
      "fuelConsumedGallons": 0.606,
      "maxSpeedMph": 36.9,
      "averageSpeedMph": 15.4,
      "safetyEvents": []
    },
    {
      "id": "trip_44865715_20250330_002",
      "vehicleId": "44865715",
      "driverId": "20000044",
      "startMs": 1743360060000,
      "endMs": 1743366611061,
      "startAddress": "1545 Alyssa Mews",
      "endAddress": "4967 Robert Loop Suite 847",
      "startCoords": {
        "latitude": 35.077213,
        "longitude": -106.692773
      },
      "endCoords": {
        "latitude": 35.178304,
        "longitude": -106.695363
      },
      "distanceMeters": 46950.4,
      "durationMs": 6551062,
      "drivingDurationMs": 5771589,
      "idlingDurationMs": 779473,
      "fuelConsumedMl": 5970,
      "fuelConsumedGallons": 1.577,
      "maxSpeedMph": 40.1,
      "averageSpeedMph": 16.0,
      "safetyEvents": []
    },
    {
      "id": "trip_44865715_20250330_003",
      "vehicleId": "44865715",
      "driverId": "20000044",
      "startMs": 1743330840000,
      "endMs": 1743339128401,
      "startAddress": "9231 Cox Mission Apt. 211",
      "endAddress": "4055 Susan Villages Apt. 261",
      "startCoords": {
        "latitude": 35.166581,
        "longitude": -106.645647
      },
      "endCoords": {
        "latitude": 35.131302,
        "longitude": -106.722103
      },
      "distanceMeters": 49051.6,
      "durationMs": 8288402,
      "drivingDurationMs": 7776077,
      "idlingDurationMs": 512325,
      "fuelConsumedMl": 6238,
      "fuelConsumedGallons": 1.648,
      "maxSpeedMph": 60.2,
      "averageSpeedMph": 13.2,
      "safetyEvents": []
    },
    {
      "id": "trip_44865715_20250331_001",
      "vehicleId": "44865715",
      "driverId": "20000044",
      "startMs": 1743402300000,
      "endMs": 1743411192077,
      "startAddress": "0946 Joshua Loop Suite 316",
      "endAddress": "8384 Dennis Loop",
      "startCoords": {
        "latitude": 35.05194,
        "longitude": -106.53569
      },
      "endCoords": {
        "latitude": 35.112904,
        "longitude": -106.576039
      },
      "distanceMeters": 50856.4,
      "durationMs": 8892077,
      "drivingDurationMs": 7581267,
      "idlingDurationMs": 1310810,
      "fuelConsumedMl": 6465,
      "fuelConsumedGallons": 1.708,
      "maxSpeedMph": 53.9,
      "averageSpeedMph": 12.8,
      "safetyEvents": []
    },
    {
      "id": "trip_44865715_20250331_002",
      "vehicleId": "44865715",
      "driverId": "20000044",
      "startMs": 1743416700000,
      "endMs": 1743419065946,
      "startAddress": "19708 Scott Key Suite 087",
      "endAddress": "779 Gomez Canyon",
      "startCoords": {
        "latitude": 35.077475,
        "longitude": -106.615036
      },
      "endCoords": {
        "latitude": 35.103878,
        "longitude": -106.647262
      },
      "distanceMeters": 16920.9,
      "durationMs": 2365946,
      "drivingDurationMs": 2108891,
      "idlingDurationMs": 257055,
      "fuelConsumedMl": 2150,
      "fuelConsumedGallons": 0.568,
      "maxSpeedMph": 41.2,
      "averageSpeedMph": 16.0,
      "safetyEvents": []
    }
  ]
}