{
  "vehicleId": "43088084",
  "vehicleName": "SLC-VAN-05",
  "month": "2025_03",
  "pagination": {
    "endCursor": "trip_43088084_20250331_12716",
    "hasNextPage": false
  },
  "trips": [
    {
      "id": "trip_43088084_20250301_8148",
      "vehicleId": "43088084",
      "driverId": "20000035",
      "startMs": 1740789684000,
      "endMs": 1740791244000,
      "startAddress": "977 Julia Parkway Suite 778",
      "endAddress": "85131 Griffin Drive",
      "startCoords": {
        "latitude": 40.694047,
        "longitude": -111.933398
      },
      "endCoords": {
        "latitude": 40.688175,
        "longitude": -111.908012
      },
      "distanceMeters": 9785.6,
      "durationMs": 1560000,
      "drivingDurationMs": 1401516,
      "idlingDurationMs": 158484,
      "fuelConsumedMl": 1245,
      "fuelConsumedGallons": 0.329,
      "maxSpeedMph": 26.5,
      "averageSpeedMph": 14.0,
      "safetyEvents": []
    },
    {
      "id": "trip_43088084_20250301_8205",
      "vehicleId": "43088084",
      "driverId": "20000036",
      "startMs": 1740824764000,
      "endMs": 1740826444000,
      "startAddress": "058 Hawkins Brook",
      "endAddress": "557 Horton Curve",
      "startCoords": {
        "latitude": 40.771213,
        "longitude": -111.83687
      },
      "endCoords": {
        "latitude": 40.738842,
        "longitude": -111.854884
      },
      "distanceMeters": 10013.0,
      "durationMs": 1680000,
      "drivingDurationMs": 1294866,
      "idlingDurationMs": 385134,
      "fuelConsumedMl": 1272,
      "fuelConsumedGallons": 0.336,
      "maxSpeedMph": 36.0,
      "averageSpeedMph": 13.3,
      "safetyEvents": []
    },
    {
      "id": "trip_43088084_20250301_8255",
      "vehicleId": "43088084",
      "driverId": "20000038",
      "startMs": 1740847826000,
      "endMs": 1740855360000,
      "startAddress": "4891 Paul Fall Apt. 458",
      "endAddress": "9532 Clay Isle",
      "startCoords": {
        "latitude": 40.729148,
        "longitude": -111.872802
      },
      "endCoords": {
        "latitude": 40.673574,
        "longitude": -111.892571
      },
      "distanceMeters": 37740.9,
      "durationMs": 7534000,
      "drivingDurationMs": 6162924,
      "idlingDurationMs": 1371076,
      "fuelConsumedMl": 4800,
      "fuelConsumedGallons": 1.268,
      "maxSpeedMph": 35.6,
      "averageSpeedMph": 11.2,
      "safetyEvents": []
    },
    {
      "id": "trip_43088084_20250302_8313",
      "vehicleId": "43088084",
      "driverId": "20000038",
      "startMs": 1740882237000,
      "endMs": 1740883857000,
      "startAddress": "80477 Dana Dam",
      "endAddress": "561 Green Walks",
      "startCoords": {
        "latitude": 40.718909,
        "longitude": -111.908241
      },
      "endCoords": {
        "latitude": 40.689991,
        "longitude": -111.895762
      },
      "distanceMeters": 11203.3,
      "durationMs": 1620000,
      "drivingDurationMs": 1385661,
      "idlingDurationMs": 234339,
      "fuelConsumedMl": 1423,
      "fuelConsumedGallons": 0.376,
      "maxSpeedMph": 30.8,
      "averageSpeedMph": 15.5,
      "safetyEvents": []
    },
    {
      "id": "trip_43088084_20250302_8372",
      "vehicleId": "43088084",
      "driverId": "20000037",
      "startMs": 1740930639000,
      "endMs": 1740933667000,
      "startAddress": "043 James Drive Suite 235",
      "endAddress": "902 Luna Viaduct",
      "startCoords": {
        "latitude": 40.763614,
        "longitude": -111.779486
      },
      "endCoords": {
        "latitude": 40.786899,
        "longitude": -111.851616
      },
      "distanceMeters": 15879.1,
      "durationMs": 3028000,
      "drivingDurationMs": 2378001,
      "idlingDurationMs": 649999,
      "fuelConsumedMl": 2018,
      "fuelConsumedGallons": 0.533,
      "maxSpeedMph": 28.6,
      "averageSpeedMph": 11.7,
      "safetyEvents": []
    },
    {
      "id": "trip_43088084_20250303_8408",
      "vehicleId": "43088084",
      "driverId": "20000039",
      "startMs": 1740971934000,
      "endMs": 1740973434000,
      "startAddress": "2385 Lawrence Cliff Suite 836",
      "endAddress": "820 Lambert Common",
      "startCoords": {
        "latitude": 40.738199,
        "longitude": -111.903265
      },
      "endCoords": {
        "latitude": 40.747756,
        "longitude": -111.780823
      },
      "distanceMeters": 7064.4,
      "durationMs": 1500000,
      "drivingDurationMs": 1153253,
      "idlingDurationMs": 346747,
      "fuelConsumedMl": 897,
      "fuelConsumedGallons": 0.237,
      "maxSpeedMph": 31.9,
      "averageSpeedMph": 10.5,
      "safetyEvents": []
    },
    {
      "id": "trip_43088084_20250303_8461",
      "vehicleId": "43088084",
      "driverId": "20000035",
      "startMs": 1741006962000,
      "endMs": 1741026056000,
      "startAddress": "917 Peterson Junctions Apt. 241",
      "endAddress": "47950 Price Course Apt. 150",
      "startCoords": {
        "latitude": 40.666321,
        "longitude": -111.782645
      },
      "endCoords": {
        "latitude": 40.735753,
        "longitude": -111.802393
      },
      "distanceMeters": 137228.2,
      "durationMs": 19094000,
      "drivingDurationMs": 16190869,
      "idlingDurationMs": 2903131,
      "fuelConsumedMl": 17447,
      "fuelConsumedGallons": 4.609,
      "maxSpeedMph": 32.7,
      "averageSpeedMph": 16.1,
      "safetyEvents": []
    },
    {
      "id": "trip_43088084_20250303_8502",
      "vehicleId": "43088084",
      "driverId": "20000039",
      "startMs": 1741027402000,
      "endMs": 1741029682000,
      "startAddress": "075 Cook Ferry Suite 024",
      "endAddress": "092 Cox Fords",
      "startCoords": {
        "latitude": 40.713684,
        "longitude": -111.957003
      },
      "endCoords": {
        "latitude": 40.735108,
        "longitude": -111.826303
      },
      "distanceMeters": 12031.5,
      "durationMs": 2280000,
      "drivingDurationMs": 1803095,
      "idlingDurationMs": 476905,
      "fuelConsumedMl": 1529,
      "fuelConsumedGallons": 0.404,
      "maxSpeedMph": 32.9,
      "averageSpeedMph": 11.8,
      "safetyEvents": []
    },
    {
      "id": "trip_43088084_20250304_8547",
      "vehicleId": "43088084",
      "driverId": "20000039",
      "startMs": 1741052049000,
      "endMs": 1741053789000,
      "startAddress": "1544 Lopez Route Suite 850",
      "endAddress": "10892 Berry Avenue",
      "startCoords": {
        "latitude": 40.769502,
        "longitude": -111.948889
      },
      "endCoords": {
        "latitude": 40.782458,
        "longitude": -111.881062
      },
      "distanceMeters": 10567.6,
      "durationMs": 1740000,
      "drivingDurationMs": 1555280,
      "idlingDurationMs": 184720,
      "fuelConsumedMl": 1344,
      "fuelConsumedGallons": 0.355,
      "maxSpeedMph": 37.7,
      "averageSpeedMph": 13.6,
      "safetyEvents": []
    },
    {
      "id": "trip_43088084_20250304_8585",
      "vehicleId": "43088084",
      "driverId": "20000034",
      "startMs": 1741076884000,
      "endMs": 1741085763000,
      "startAddress": "748 Amy Village",
      "endAddress": "53784 Reginald Manor Apt. 589",
      "startCoords": {
        "latitude": 40.759312,
        "longitude": -111.872714
      },
      "endCoords": {
        "latitude": 40.736492,
        "longitude": -111.796144
      },
      "distanceMeters": 37855.6,
      "durationMs": 8879000,
      "drivingDurationMs": 7320057,
      "idlingDurationMs": 1558943,
      "fuelConsumedMl": 4811,
      "fuelConsumedGallons": 1.271,
      "maxSpeedMph": 34.3,
      "averageSpeedMph": 9.5,
      "safetyEvents": []
    },
    {
      "id": "trip_43088084_20250304_8629",
      "vehicleId": "43088084",
      "driverId": "20000037",
      "startMs": 1741095512000,
      "endMs": 1741098152000,
      "startAddress": "305 Wood Turnpike",
      "endAddress": "2766 Sanders Ramp Suite 861",
      "startCoords": {
        "latitude": 40.706951,
        "longitude": -111.823786
      },
      "endCoords": {
        "latitude": 40.798498,
        "longitude": -111.946063
      },
      "distanceMeters": 13649.2,
      "durationMs": 2640000,
      "drivingDurationMs": 2066929,
      "idlingDurationMs": 573071,
      "fuelConsumedMl": 1734,
      "fuelConsumedGallons": 0.458,
      "maxSpeedMph": 31.9,
      "averageSpeedMph": 11.6,
      "safetyEvents": []
    },
    {
      "id": "trip_43088084_20250304_8662",
      "vehicleId": "43088084",
      "driverId": "20000035",
      "startMs": 1741110861000,
      "endMs": 1741113141000,
      "startAddress": "63384 Bruce Estate Suite 616",
      "endAddress": "0194 Jenny Squares",
      "startCoords": {
        "latitude": 40.765971,
        "longitude": -111.81598
      },
      "endCoords": {
        "latitude": 40.795621,
        "longitude": -111.919724
      },
      "distanceMeters": 15942.7,
      "durationMs": 2280000,
      "drivingDurationMs": 1833520,
      "idlingDurationMs": 446480,
      "fuelConsumedMl": 2025,
      "fuelConsumedGallons": 0.535,
      "maxSpeedMph": 28.2,
      "averageSpeedMph": 15.6,
      "safetyEvents": []
    },
    {
      "id": "trip_43088084_20250305_8719",
      "vehicleId": "43088084",
      "driverId": "20000035",
      "startMs": 1741140723000,
      "endMs": 1741143363000,
      "startAddress": "232 Gregory Rapids",
      "endAddress": "73422 Adams Corner Suite 510",
      "startCoords": {
        "latitude": 40.780952,
        "longitude": -111.919296
      },
      "endCoords": {
        "latitude": 40.684679,
        "longitude": -111.84763
      },
      "distanceMeters": 17940.0,
      "durationMs": 2640000,
      "drivingDurationMs": 2168839,
      "idlingDurationMs": 471161,
      "fuelConsumedMl": 2283,
      "fuelConsumedGallons": 0.603,
      "maxSpeedMph": 32.3,
      "averageSpeedMph": 15.2,
      "safetyEvents": []
    },
    {
      "id": "trip_43088084_20250305_8753",
      "vehicleId": "43088084",
      "driverId": "20000039",
      "startMs": 1741162847000,
      "endMs": 1741164827000,
      "startAddress": "9705 Oconnell View Suite 044",
      "endAddress": "17072 Logan Haven Apt. 555",
      "startCoords": {
        "latitude": 40.666466,
        "longitude": -111.895293
      },
      "endCoords": {
        "latitude": 40.781855,
        "longitude": -111.878135
      },
      "distanceMeters": 11412.2,
      "durationMs": 1980000,
      "drivingDurationMs": 1616987,
      "idlingDurationMs": 363013,
      "fuelConsumedMl": 1450,
      "fuelConsumedGallons": 0.383,
      "maxSpeedMph": 33.7,
      "averageSpeedMph": 12.9,
      "safetyEvents": []
    },
    {
      "id": "trip_43088084_20250305_8802",
      "vehicleId": "43088084",
      "driverId": "20000038",
      "startMs": 1741183198000,
      "endMs": 1741190214000,
      "startAddress": "7147 Michael Trafficway Apt. 116",
      "endAddress": "223 Kim Dale",
      "startCoords": {
        "latitude": 40.796832,
        "longitude": -111.876977
      },
      "endCoords": {
        "latitude": 40.7981,
        "longitude": -111.895057
      },
      "distanceMeters": 27236.5,
      "durationMs": 7016000,
      "drivingDurationMs": 5335971,
      "idlingDurationMs": 1680029,
      "fuelConsumedMl": 3464,
      "fuelConsumedGallons": 0.915,
      "maxSpeedMph": 32.0,
      "averageSpeedMph": 8.7,
      "safetyEvents": []
    },
    {
      "id": "trip_43088084_20250305_8841",
      "vehicleId": "43088084",
      "driverId": "20000039",
      "startMs": 1741201337000,
      "endMs": 1741204864000,
      "startAddress": "587 White Road",
      "endAddress": "54097 Jacobs Mountain Suite 131",
      "startCoords": {
        "latitude": 40.776613,
        "longitude": -111.821102
      },
      "endCoords": {
        "latitude": 40.693432,
        "longitude": -111.79739
      },
      "distanceMeters": 18338.3,
      "durationMs": 3527000,
      "drivingDurationMs": 3118692,
      "idlingDurationMs": 408308,
      "fuelConsumedMl": 2332,
      "fuelConsumedGallons": 0.616,
      "maxSpeedMph": 29.1,
      "averageSpeedMph": 11.6,
      "safetyEvents": []
    },
    {
      "id": "trip_43088084_20250306_8883",
      "vehicleId": "43088084",
      "driverId": "20000036",
      "startMs": 1741225459000,
      "endMs": 1741227619000,
      "startAddress": "157 Hammond Fork Apt. 428",
      "endAddress": "54541 Johnson Creek Apt. 728",
      "startCoords": {
        "latitude": 40.668706,
        "longitude": -111.812459
      },
      "endCoords": {
        "latitude": 40.777196,
        "longitude": -111.862883
      },
      "distanceMeters": 14090.8,
      "durationMs": 2160000,
      "drivingDurationMs": 1741486,
      "idlingDurationMs": 418514,
      "fuelConsumedMl": 1790,
      "fuelConsumedGallons": 0.473,
      "maxSpeedMph": 27.0,
      "averageSpeedMph": 14.6,
      "safetyEvents": []
    },
    {
      "id": "trip_43088084_20250306_8917",
      "vehicleId": "43088084",
      "driverId": "20000039",
      "startMs": 1741246536000,
      "endMs": 1741259563000,
      "startAddress": "50424 Mandy Trace",
      "endAddress": "935 Samantha Cape",
      "startCoords": {
        "latitude": 40.682131,
        "longitude": -111.943434
      },
      "endCoords": {
        "latitude": 40.688104,
        "longitude": -111.781189
      },
      "distanceMeters": 91886.3,
      "durationMs": 13027000,
      "drivingDurationMs": 10358830,
      "idlingDurationMs": 2668170,
      "fuelConsumedMl": 11682,
      "fuelConsumedGallons": 3.086,
      "maxSpeedMph": 28.3,
      "averageSpeedMph": 15.8,
      "safetyEvents": []
    },
    {
      "id": "trip_43088084_20250306_8965",
      "vehicleId": "43088084",
      "driverId": "20000034",
      "startMs": 1741270931000,
      "endMs": 1741281422000,
      "startAddress": "572 Sandra Loop",
      "endAddress": "00657 Christopher Street Apt. 221",
      "startCoords": {
        "latitude": 40.7099,
        "longitude": -111.901649
      },
      "endCoords": {
        "latitude": 40.664592,
        "longitude": -111.810466
      },
      "distanceMeters": 68533.4,
      "durationMs": 10491000,
      "drivingDurationMs": 9324308,
      "idlingDurationMs": 1166692,
      "fuelConsumedMl": 8714,
      "fuelConsumedGallons": 2.302,
      "maxSpeedMph": 30.2,
      "averageSpeedMph": 14.6,
      "safetyEvents": []
    },
    {
      "id": "trip_43088084_20250306_9008",
      "vehicleId": "43088084",
      "driverId": "20000038",
      "startMs": 1741292528000,
      "endMs": 1741294268000,
      "startAddress": "8930 Barbara Junctions Suite 533",
      "endAddress": "1626 Garrison Streets Apt. 687",
      "startCoords": {
        "latitude": 40.799441,
        "longitude": -111.880517
      },
      "endCoords": {
        "latitude": 40.673466,
        "longitude": -111.959547
      },
      "distanceMeters": 12022.6,
      "durationMs": 1740000,
      "drivingDurationMs": 1554655,
      "idlingDurationMs": 185345,
      "fuelConsumedMl": 1529,
      "fuelConsumedGallons": 0.404,
      "maxSpeedMph": 30.2,
      "averageSpeedMph": 15.5,
      "safetyEvents": []
    },
    {
      "id": "trip_43088084_20250307_9054",
      "vehicleId": "43088084",
      "driverId": "20000034",
      "startMs": 1741323265000,
      "endMs": 1741325605000,
      "startAddress": "61421 Fisher Trail",
      "endAddress": "1539 Wall Mountain Suite 873",
      "startCoords": {
        "latitude": 40.736157,
        "longitude": -111.910769
      },
      "endCoords": {
        "latitude": 40.784777,
        "longitude": -111.774398
      },
      "distanceMeters": 12601.2,
      "durationMs": 2340000,
      "drivingDurationMs": 1897160,
      "idlingDurationMs": 442840,
      "fuelConsumedMl": 1601,
      "fuelConsumedGallons": 0.423,
      "maxSpeedMph": 32.5,
      "averageSpeedMph": 12.0,
      "safetyEvents": []
    },
    {
      "id": "trip_43088084_20250307_9117",
      "vehicleId": "43088084",
      "driverId": "20000034",
      "startMs": 1741354630000,
      "endMs": 1741362246000,
      "startAddress": "0003 Rasmussen Harbors",
      "endAddress": "1920 Simmons Forge",
      "startCoords": {
        "latitude": 40.793096,
        "longitude": -111.922464
      },
      "endCoords": {
        "latitude": 40.679145,
        "longitude": -111.79058
      },
      "distanceMeters": 43856.4,
      "durationMs": 7616000,
      "drivingDurationMs": 5853775,
      "idlingDurationMs": 1762225,
      "fuelConsumedMl": 5576,
      "fuelConsumedGallons": 1.473,
      "maxSpeedMph": 27.2,
      "averageSpeedMph": 12.9,
      "safetyEvents": []
    },
    {
      "id": "trip_43088084_20250308_9186",
      "vehicleId": "43088084",
      "driverId": "20000038",
      "startMs": 1741392765000,
      "endMs": 1741394265000,
      "startAddress": "2330 Nancy Divide",
      "endAddress": "78673 Jennifer Garden",
      "startCoords": {
        "latitude": 40.715402,
        "longitude": -111.923222
      },
      "endCoords": {
        "latitude": 40.657571,
        "longitude": -111.891841
      },
      "distanceMeters": 6129.5,
      "durationMs": 1500000,
      "drivingDurationMs": 1183931,
      "idlingDurationMs": 316069,
      "fuelConsumedMl": 780,
      "fuelConsumedGallons": 0.206,
      "maxSpeedMph": 28.7,
      "averageSpeedMph": 9.1,
      "safetyEvents": []
    },
    {
      "id": "trip_43088084_20250308_9235",
      "vehicleId": "43088084",
      "driverId": "20000037",
      "startMs": 1741425480000,
      "endMs": 1741429994000,
      "startAddress": "4656 Jonathan Valley Suite 960",
      "endAddress": "4413 Haynes Lakes",
      "startCoords": {
        "latitude": 40.667412,
        "longitude": -111.924648
      },
      "endCoords": {
        "latitude": 40.673157,
        "longitude": -111.879315
      },
      "distanceMeters": 31301.3,
      "durationMs": 4514000,
      "drivingDurationMs": 3757990,
      "idlingDurationMs": 756010,
      "fuelConsumedMl": 3978,
      "fuelConsumedGallons": 1.051,
      "maxSpeedMph": 32.7,
      "averageSpeedMph": 15.5,
      "safetyEvents": []
    },
    {
      "id": "trip_43088084_20250308_9282",
      "vehicleId": "43088084",
      "driverId": "20000039",
      "startMs": 1741443335000,
      "endMs": 1741446680000,
      "startAddress": "0559 Becker Turnpike",
      "endAddress": "415 Gallegos Vista",
      "startCoords": {
        "latitude": 40.720662,
        "longitude": -111.923287
      },
      "endCoords": {
        "latitude": 40.701991,
        "longitude": -111.873406
      },
      "distanceMeters": 23277.5,
      "durationMs": 3345000,
      "drivingDurationMs": 2681219,
      "idlingDurationMs": 663781,
      "fuelConsumedMl": 2960,
      "fuelConsumedGallons": 0.782,
      "maxSpeedMph": 27.0,
      "averageSpeedMph": 15.6,
      "safetyEvents": []
    },
    {
      "id": "trip_43088084_20250308_9336",
      "vehicleId": "43088084",
      "driverId": "20000035",
      "startMs": 1741473286000,
      "endMs": 1741478079000,
      "startAddress": "27390 William Rapids",
      "endAddress": "540 Kristine Isle",
      "startCoords": {
        "latitude": 40.790703,
        "longitude": -111.951506
      },
      "endCoords": {
        "latitude": 40.728644,
        "longitude": -111.815753
      },
      "distanceMeters": 36252.4,
      "durationMs": 4793000,
      "drivingDurationMs": 4189092,
      "idlingDurationMs": 603908,
      "fuelConsumedMl": 4611,
      "fuelConsumedGallons": 1.218,
      "maxSpeedMph": 38.4,
      "averageSpeedMph": 16.9,
      "safetyEvents": []
    },
    {
      "id": "trip_43088084_20250309_9373",
      "vehicleId": "43088084",
      "driverId": "20000033",
      "startMs": 1741497006000,
      "endMs": 1741498326000,
      "startAddress": "14541 Bryant Haven",
      "endAddress": "074 Strickland Drive",
      "startCoords": {
        "latitude": 40.669209,
        "longitude": -111.958028
      },
      "endCoords": {
        "latitude": 40.744212,
        "longitude": -111.95687
      },
      "distanceMeters": 7197.0,
      "durationMs": 1320000,
      "drivingDurationMs": 1037623,
      "idlingDurationMs": 282377,
      "fuelConsumedMl": 916,
      "fuelConsumedGallons": 0.242,
      "maxSpeedMph": 33.2,
      "averageSpeedMph": 12.2,
      "safetyEvents": []
    },
    {
      "id": "trip_43088084_20250309_9447",
      "vehicleId": "43088084",
      "driverId": "20000038",
      "startMs": 1741554323000,
      "endMs": 1741560876000,
      "startAddress": "557 Perry River",
      "endAddress": "81625 Reynolds Key Suite 578",
      "startCoords": {
        "latitude": 40.668079,
        "longitude": -111.943819
      },
      "endCoords": {
        "latitude": 40.657579,
        "longitude": -111.825367
      },
      "distanceMeters": 29082.4,
      "durationMs": 6553000,
      "drivingDurationMs": 5689409,
      "idlingDurationMs": 863591,
      "fuelConsumedMl": 3698,
      "fuelConsumedGallons": 0.977,
      "maxSpeedMph": 30.9,
      "averageSpeedMph": 9.9,
      "safetyEvents": []
    },
    {
      "id": "trip_43088084_20250310_9507",
      "vehicleId": "43088084",
      "driverId": "20000038",
      "startMs": 1741606238000,
      "endMs": 1741608518000,
      "startAddress": "393 Jamie Plaza",
      "endAddress": "47061 Brock Creek",
      "startCoords": {
        "latitude": 40.739499,
        "longitude": -111.90236
      },
      "endCoords": {
        "latitude": 40.705703,
        "longitude": -111.908023
      },
      "distanceMeters": 15064.5,
      "durationMs": 2280000,
      "drivingDurationMs": 1853827,
      "idlingDurationMs": 426173,
      "fuelConsumedMl": 1915,
      "fuelConsumedGallons": 0.506,
      "maxSpeedMph": 29.8,
      "averageSpeedMph": 14.8,
      "safetyEvents": []
    },
    {
      "id": "trip_43088084_20250310_9536",
      "vehicleId": "43088084",
      "driverId": "20000036",
      "startMs": 1741621122000,
      "endMs": 1741623402000,
      "startAddress": "538 Ryan Avenue",
      "endAddress": "200 Henderson Streets Suite 908",
      "startCoords": {
        "latitude": 40.748306,
        "longitude": -111.86484
      },
      "endCoords": {
        "latitude": 40.69815,
        "longitude": -111.805746
      },
      "distanceMeters": 10640.7,
      "durationMs": 2280000,
      "drivingDurationMs": 1747088,
      "idlingDurationMs": 532912,
      "fuelConsumedMl": 1351,
      "fuelConsumedGallons": 0.357,
      "maxSpeedMph": 32.3,
      "averageSpeedMph": 10.4,
      "safetyEvents": []
    },
    {
      "id": "trip_43088084_20250310_9588",
      "vehicleId": "43088084",
      "driverId": "20000036",
      "startMs": 1741643335000,
      "endMs": 1741645769000,
      "startAddress": "6381 Kimberly Extensions Suite 996",
      "endAddress": "18918 Gomez Falls",
      "startCoords": {
        "latitude": 40.712861,
        "longitude": -111.846945
      },
      "endCoords": {
        "latitude": 40.784188,
        "longitude": -111.943806
      },
      "distanceMeters": 18695.6,
      "durationMs": 2434000,
      "drivingDurationMs": 2162245,
      "idlingDurationMs": 271755,
      "fuelConsumedMl": 2377,
      "fuelConsumedGallons": 0.628,
      "maxSpeedMph": 32.7,
      "averageSpeedMph": 17.2,
      "safetyEvents": []
    },
    {
      "id": "trip_43088084_20250311_9623",
      "vehicleId": "43088084",
      "driverId": "20000038",
      "startMs": 1741666701000,
      "endMs": 1741669401000,
      "startAddress": "84639 Rivera Brook Suite 659",
      "endAddress": "76654 Michael Mills Apt. 706",
      "startCoords": {
        "latitude": 40.673717,
        "longitude": -111.853441
      },
      "endCoords": {
        "latitude": 40.687513,
        "longitude": -111.782309
      },
      "distanceMeters": 20011.4,
      "durationMs": 2700000,
      "drivingDurationMs": 2427946,
      "idlingDurationMs": 272054,
      "fuelConsumedMl": 2544,
      "fuelConsumedGallons": 0.672,
      "maxSpeedMph": 39.5,
      "averageSpeedMph": 16.6,
      "safetyEvents": []
    },
    {
      "id": "trip_43088084_20250311_9676",
      "vehicleId": "43088084",
      "driverId": "20000034",
      "startMs": 1741695724000,
      "endMs": 1741702356000,
      "startAddress": "59380 Kevin Gardens",
      "endAddress": "0430 Bryant Tunnel",
      "startCoords": {
        "latitude": 40.682112,
        "longitude": -111.832768
      },
      "endCoords": {
        "latitude": 40.770352,
        "longitude": -111.928166
      },
      "distanceMeters": 33476.5,
      "durationMs": 6632000,
      "drivingDurationMs": 5657757,
      "idlingDurationMs": 974243,
      "fuelConsumedMl": 4255,
      "fuelConsumedGallons": 1.124,
      "maxSpeedMph": 38.1,
      "averageSpeedMph": 11.3,
      "safetyEvents": []
    },
    {
      "id": "trip_43088084_20250311_9722",
      "vehicleId": "43088084",
      "driverId": "20000039",
      "startMs": 1741719535000,
      "endMs": 1741726282000,
      "startAddress": "1671 Brown Haven",
      "endAddress": "293 Rebecca Terrace",
      "startCoords": {
        "latitude": 40.775038,
        "longitude": -111.82952
      },
      "endCoords": {
        "latitude": 40.79355,
        "longitude": -111.837791
      },
      "distanceMeters": 38022.4,
      "durationMs": 6747000,
      "drivingDurationMs": 5876060,
      "idlingDurationMs": 870940,
      "fuelConsumedMl": 4834,
      "fuelConsumedGallons": 1.277,
      "maxSpeedMph": 30.0,
      "averageSpeedMph": 12.6,
      "safetyEvents": []
    },
    {
      "id": "trip_43088084_20250312_9769",
      "vehicleId": "43088084",
      "driverId": "20000039",
      "startMs": 1741747253000,
      "endMs": 1741749173000,
      "startAddress": "45409 Zachary Islands Suite 428",
      "endAddress": "2370 Gary Flat Apt. 940",
      "startCoords": {
        "latitude": 40.743114,
        "longitude": -111.847489
      },
      "endCoords": {
        "latitude": 40.716969,
        "longitude": -111.851924
      },
      "distanceMeters": 7306.2,
      "durationMs": 1920000,
      "drivingDurationMs": 1453462,
      "idlingDurationMs": 466538,
      "fuelConsumedMl": 927,
      "fuelConsumedGallons": 0.245,
      "maxSpeedMph": 38.8,
      "averageSpeedMph": 8.5,
      "safetyEvents": []
    },
    {
      "id": "trip_43088084_20250312_9821",
      "vehicleId": "43088084",
      "driverId": "20000039",
      "startMs": 1741778024000,
      "endMs": 1741780304000,
      "startAddress": "416 Taylor Curve",
      "endAddress": "07227 Mark Corners Suite 153",
      "startCoords": {
        "latitude": 40.730584,
        "longitude": -111.90271
      },
      "endCoords": {
        "latitude": 40.777094,
        "longitude": -111.950829
      },
      "distanceMeters": 11845.9,
      "durationMs": 2280000,
      "drivingDurationMs": 1713428,
      "idlingDurationMs": 566572,
      "fuelConsumedMl": 1507,
      "fuelConsumedGallons": 0.398,
      "maxSpeedMph": 26.5,
      "averageSpeedMph": 11.6,
      "safetyEvents": []
    },
    {
      "id": "trip_43088084_20250312_9852",
      "vehicleId": "43088084",
      "driverId": "20000038",
      "startMs": 1741792474000,
      "endMs": 1741798559000,
      "startAddress": "9634 Smith Locks Suite 573",
      "endAddress": "66785 Brewer Divide Suite 436",
      "startCoords": {
        "latitude": 40.663073,
        "longitude": -111.842173
      },
      "endCoords": {
        "latitude": 40.754819,
        "longitude": -111.875997
      },
      "distanceMeters": 26030.1,
      "durationMs": 6085000,
      "drivingDurationMs": 4748839,
      "idlingDurationMs": 1336161,
      "fuelConsumedMl": 3308,
      "fuelConsumedGallons": 0.874,
      "maxSpeedMph": 33.2,
      "averageSpeedMph": 9.6,
      "safetyEvents": []
    },
    {
      "id": "trip_43088084_20250312_9904",
      "vehicleId": "43088084",
      "driverId": "20000037",
      "startMs": 1741819424000,
      "endMs": 1741821344000,
      "startAddress": "57096 Rodriguez Mission Suite 403",
      "endAddress": "678 Wilson Well Apt. 838",
      "startCoords": {
        "latitude": 40.666024,
        "longitude": -111.823684
      },
      "endCoords": {
        "latitude": 40.697431,
        "longitude": -111.8422
      },
      "distanceMeters": 13990.3,
      "durationMs": 1920000,
      "drivingDurationMs": 1622577,
      "idlingDurationMs": 297423,
      "fuelConsumedMl": 1779,
      "fuelConsumedGallons": 0.47,
      "maxSpeedMph": 38.6,
      "averageSpeedMph": 16.3,
      "safetyEvents": []
    },
    {
      "id": "trip_43088084_20250313_9944",
      "vehicleId": "43088084",
      "driverId": "20000037",
      "startMs": 1741840691000,
      "endMs": 1741845038000,
      "startAddress": "46948 Ray Burgs",
      "endAddress": "35228 Obrien Crescent",
      "startCoords": {
        "latitude": 40.718561,
        "longitude": -111.793318
      },
      "endCoords": {
        "latitude": 40.782106,
        "longitude": -111.854921
      },
      "distanceMeters": 32001.7,
      "durationMs": 4347000,
      "drivingDurationMs": 3614469,
      "idlingDurationMs": 732531,
      "fuelConsumedMl": 4069,
      "fuelConsumedGallons": 1.075,
      "maxSpeedMph": 33.6,
      "averageSpeedMph": 16.5,
      "safetyEvents": []
    },
    {
      "id": "trip_43088084_20250313_9990",
      "vehicleId": "43088084",
      "driverId": "20000037",
      "startMs": 1741863006000,
      "endMs": 1741869592000,
      "startAddress": "7799 Monica Street Suite 407",
      "endAddress": "290 Nicholas Mall Apt. 325",
      "startCoords": {
        "latitude": 40.666659,
        "longitude": -111.957077
      },
      "endCoords": {
        "latitude": 40.725357,
        "longitude": -111.916926
      },
      "distanceMeters": 44112.4,
      "durationMs": 6586000,
      "drivingDurationMs": 5825945,
      "idlingDurationMs": 760055,
      "fuelConsumedMl": 5610,
      "fuelConsumedGallons": 1.482,
      "maxSpeedMph": 39.0,
      "averageSpeedMph": 15.0,
      "safetyEvents": []
    },
    {
      "id": "trip_43088084_20250313_10033",
      "vehicleId": "43088084",
      "driverId": "20000036",
      "startMs": 1741889502000,
      "endMs": 1741906735000,
      "startAddress": "7818 Todd Grove",
      "endAddress": "1897 Stark Pines Suite 999",
      "startCoords": {
        "latitude": 40.669427,
        "longitude": -111.855163
      },
      "endCoords": {
        "latitude": 40.67643,
        "longitude": -111.787165
      },
      "distanceMeters": 80846.4,
      "durationMs": 17233000,
      "drivingDurationMs": 15404631,
      "idlingDurationMs": 1828369,
      "fuelConsumedMl": 10277,
      "fuelConsumedGallons": 2.715,
      "maxSpeedMph": 27.8,
      "averageSpeedMph": 10.5,
      "safetyEvents": []
    },
    {
      "id": "trip_43088084_20250314_10083",
      "vehicleId": "43088084",
      "driverId": "20000039",
      "startMs": 1741914864000,
      "endMs": 1741916304000,
      "startAddress": "1643 Alexis Greens Apt. 871",
      "endAddress": "385 Gary Island Apt. 244",
      "startCoords": {
        "latitude": 40.708682,
        "longitude": -111.818283
      },
      "endCoords": {
        "latitude": 40.734345,
        "longitude": -111.803627
      },
      "distanceMeters": 9361.9,
      "durationMs": 1440000,
      "drivingDurationMs": 1180185,
      "idlingDurationMs": 259815,
      "fuelConsumedMl": 1189,
      "fuelConsumedGallons": 0.314,
      "maxSpeedMph": 28.5,
      "averageSpeedMph": 14.5,
      "safetyEvents": []
    },
    {
      "id": "trip_43088084_20250314_10126",
      "vehicleId": "43088084",
      "driverId": "20000035",
      "startMs": 1741938244000,
      "endMs": 1741939984000,
      "startAddress": "0048 Justin Green Suite 685",
      "endAddress": "9182 Kelly Skyway",
      "startCoords": {
        "latitude": 40.6623,
        "longitude": -111.790818
      },
      "endCoords": {
        "latitude": 40.720034,
        "longitude": -111.807078
      },
      "distanceMeters": 9987.7,
      "durationMs": 1740000,
      "drivingDurationMs": 1327438,
      "idlingDurationMs": 412562,
      "fuelConsumedMl": 1268,
      "fuelConsumedGallons": 0.335,
      "maxSpeedMph": 34.3,
      "averageSpeedMph": 12.8,
      "safetyEvents": []
    },
    {
      "id": "trip_43088084_20250314_10159",
      "vehicleId": "43088084",
      "driverId": "20000035",
      "startMs": 1741952397000,
      "endMs": 1741954617000,
      "startAddress": "1552 Austin Track Apt. 337",
      "endAddress": "38778 Paul Parkway",
      "startCoords": {
        "latitude": 40.72768,
        "longitude": -111.89617
      },
      "endCoords": {
        "latitude": 40.668574,
        "longitude": -111.864128
      },
      "distanceMeters": 11357.2,
      "durationMs": 2220000,
      "drivingDurationMs": 1887000,
      "idlingDurationMs": 333000,
      "fuelConsumedMl": 1442,
      "fuelConsumedGallons": 0.381,
      "maxSpeedMph": 39.8,
      "averageSpeedMph": 11.4,
      "safetyEvents": []
    },
    {
      "id": "trip_43088084_20250314_10198",
      "vehicleId": "43088084",
      "driverId": "20000038",
      "startMs": 1741971122000,
      "endMs": 1741972502000,
      "startAddress": "542 Amanda Hill",
      "endAddress": "8053 Patricia View Suite 189",
      "startCoords": {
        "latitude": 40.719013,
        "longitude": -111.929117
      },
      "endCoords": {
        "latitude": 40.721348,
        "longitude": -111.777418
      },
      "distanceMeters": 6270.9,
      "durationMs": 1380000,
      "drivingDurationMs": 1146780,
      "idlingDurationMs": 233220,
      "fuelConsumedMl": 799,
      "fuelConsumedGallons": 0.211,
      "maxSpeedMph": 30.1,
      "averageSpeedMph": 10.2,
      "safetyEvents": []
    },
    {
      "id": "trip_43088084_20250314_10240",
      "vehicleId": "43088084",
      "driverId": "20000036",
      "startMs": 1741996018000,
      "endMs": 1741998058000,
      "startAddress": "353 Bartlett Falls Suite 370",
      "endAddress": "2384 Gregory River",
      "startCoords": {
        "latitude": 40.690433,
        "longitude": -111.799578
      },
      "endCoords": {
        "latitude": 40.745928,
        "longitude": -111.941719
      },
      "distanceMeters": 12190.9,
      "durationMs": 2040000,
      "drivingDurationMs": 1712337,
      "idlingDurationMs": 327663,
      "fuelConsumedMl": 1548,
      "fuelConsumedGallons": 0.409,
      "maxSpeedMph": 26.6,
      "averageSpeedMph": 13.4,
      "safetyEvents": []
    },
    {
      "id": "trip_43088084_20250315_10291",
      "vehicleId": "43088084",
      "driverId": "20000035",
      "startMs": 1742027313000,
      "endMs": 1742029533000,
      "startAddress": "845 Patrick Park Apt. 142",
      "endAddress": "00298 Weaver Walk",
      "startCoords": {
        "latitude": 40.669216,
        "longitude": -111.86686
      },
      "endCoords": {
        "latitude": 40.694137,
        "longitude": -111.941303
      },
      "distanceMeters": 11885.8,
      "durationMs": 2220000,
      "drivingDurationMs": 1950321,
      "idlingDurationMs": 269679,
      "fuelConsumedMl": 1510,
      "fuelConsumedGallons": 0.399,
      "maxSpeedMph": 37.2,
      "averageSpeedMph": 12.0,
      "safetyEvents": []
    },
    {
      "id": "trip_43088084_20250315_10347",
      "vehicleId": "43088084",
      "driverId": "20000036",
      "startMs": 1742054839000,
      "endMs": 1742056699000,
      "startAddress": "660 Carlson Tunnel",
      "endAddress": "675 Gary Ridge",
      "startCoords": {
        "latitude": 40.761334,
        "longitude": -111.805395
      },
      "endCoords": {
        "latitude": 40.744225,
        "longitude": -111.829968
      },
      "distanceMeters": 9638.0,
      "durationMs": 1860000,
      "drivingDurationMs": 1632385,
      "idlingDurationMs": 227615,
      "fuelConsumedMl": 1226,
      "fuelConsumedGallons": 0.324,
      "maxSpeedMph": 36.0,
      "averageSpeedMph": 11.6,
      "safetyEvents": []
    },
    {
      "id": "trip_43088084_20250315_10393",
      "vehicleId": "43088084",
      "driverId": "20000039",
      "startMs": 1742080184000,
      "endMs": 1742081684000,
      "startAddress": "1483 Eric Pine Suite 723",
      "endAddress": "4429 Hall Spur",
      "startCoords": {
        "latitude": 40.758049,
        "longitude": -111.932237
      },
      "endCoords": {
        "latitude": 40.659463,
        "longitude": -111.813017
      },
      "distanceMeters": 7563.6,
      "durationMs": 1500000,
      "drivingDurationMs": 1229461,
      "idlingDurationMs": 270539,
      "fuelConsumedMl": 961,
      "fuelConsumedGallons": 0.254,
      "maxSpeedMph": 31.7,
      "averageSpeedMph": 11.3,
      "safetyEvents": []
    },
    {
      "id": "trip_43088084_20250316_10448",
      "vehicleId": "43088084",
      "driverId": "20000039",
      "startMs": 1742128095000,
      "endMs": 1742135380000,
      "startAddress": "92800 Taylor Village",
      "endAddress": "3355 Logan Neck Suite 545",
      "startCoords": {
        "latitude": 40.740039,
        "longitude": -111.782836
      },
      "endCoords": {
        "latitude": 40.666525,
        "longitude": -111.863556
      },
      "distanceMeters": 55687.9,
      "durationMs": 7285000,
      "drivingDurationMs": 6328655,
      "idlingDurationMs": 956345,
      "fuelConsumedMl": 7079,
      "fuelConsumedGallons": 1.87,
      "maxSpeedMph": 38.7,
      "averageSpeedMph": 17.1,
      "safetyEvents": []
    },
    {
      "id": "trip_43088084_20250317_10520",
      "vehicleId": "43088084",
      "driverId": "20000039",
      "startMs": 1742196844000,
      "endMs": 1742199770000,
      "startAddress": "2176 Rodgers Common Suite 017",
      "endAddress": "69904 Robert Inlet Apt. 481",
      "startCoords": {
        "latitude": 40.66893,
        "longitude": -111.867233
      },
      "endCoords": {
        "latitude": 40.680477,
        "longitude": -111.776699
      },
      "distanceMeters": 16651.4,
      "durationMs": 2926000,
      "drivingDurationMs": 2254783,
      "idlingDurationMs": 671217,
      "fuelConsumedMl": 2116,
      "fuelConsumedGallons": 0.559,
      "maxSpeedMph": 36.4,
      "averageSpeedMph": 12.7,
      "safetyEvents": []
    },
    {
      "id": "trip_43088084_20250317_10567",
      "vehicleId": "43088084",
      "driverId": "20000035",
      "startMs": 1742219760000,
      "endMs": 1742221380000,
      "startAddress": "746 West Divide Apt. 660",
      "endAddress": "4766 Janet Route",
      "startCoords": {
        "latitude": 40.773105,
        "longitude": -111.808124
      },
      "endCoords": {
        "latitude": 40.752283,
        "longitude": -111.828242
      },
      "distanceMeters": 7881.3,
      "durationMs": 1620000,
      "drivingDurationMs": 1421828,
      "idlingDurationMs": 198172,
      "fuelConsumedMl": 1003,
      "fuelConsumedGallons": 0.265,
      "maxSpeedMph": 30.4,
      "averageSpeedMph": 10.9,
      "safetyEvents": []
    },
    {
      "id": "trip_43088084_20250317_10612",
      "vehicleId": "43088084",
      "driverId": "20000039",
      "startMs": 1742242660000,
      "endMs": 1742244400000,
      "startAddress": "39969 Robert Groves Apt. 218",
      "endAddress": "09718 David Run",
      "startCoords": {
        "latitude": 40.686499,
        "longitude": -111.775713
      },
      "endCoords": {
        "latitude": 40.751152,
        "longitude": -111.891615
      },
      "distanceMeters": 12681.0,
      "durationMs": 1740000,
      "drivingDurationMs": 1541837,
      "idlingDurationMs": 198163,
      "fuelConsumedMl": 1613,
      "fuelConsumedGallons": 0.426,
      "maxSpeedMph": 31.0,
      "averageSpeedMph": 16.3,
      "safetyEvents": []
    },
    {
      "id": "trip_43088084_20250318_10671",
      "vehicleId": "43088084",
      "driverId": "20000038",
      "startMs": 1742275961000,
      "endMs": 1742277881000,
      "startAddress": "063 Wendy Forge Suite 091",
      "endAddress": "988 Roy Flat",
      "startCoords": {
        "latitude": 40.771176,
        "longitude": -111.780759
      },
      "endCoords": {
        "latitude": 40.70983,
        "longitude": -111.77683
      },
      "distanceMeters": 9813.3,
      "durationMs": 1920000,
      "drivingDurationMs": 1687940,
      "idlingDurationMs": 232060,
      "fuelConsumedMl": 1249,
      "fuelConsumedGallons": 0.33,
      "maxSpeedMph": 37.0,
      "averageSpeedMph": 11.4,
      "safetyEvents": []
    },
    {
      "id": "trip_43088084_20250318_10712",
      "vehicleId": "43088084",
      "driverId": "20000034",
      "startMs": 1742295299000,
      "endMs": 1742299500000,
      "startAddress": "2171 Stanley Crescent Suite 447",
      "endAddress": "8243 Derrick Pike",
      "startCoords": {
        "latitude": 40.681987,
        "longitude": -111.808939
      },
      "endCoords": {
        "latitude": 40.667073,
        "longitude": -111.915815
      },
      "distanceMeters": 27451.5,
      "durationMs": 4201000,
      "drivingDurationMs": 3435366,
      "idlingDurationMs": 765634,
      "fuelConsumedMl": 3490,
      "fuelConsumedGallons": 0.922,
      "maxSpeedMph": 26.6,
      "averageSpeedMph": 14.6,
      "safetyEvents": []
    },
    {
      "id": "trip_43088084_20250318_10749",
      "vehicleId": "43088084",
      "driverId": "20000033",
      "startMs": 1742312466000,
      "endMs": 1742313966000,
      "startAddress": "04728 Smith Avenue Apt. 086",
      "endAddress": "3560 Crystal Squares",
      "startCoords": {
        "latitude": 40.732028,
        "longitude": -111.916527
      },
      "endCoords": {
        "latitude": 40.687411,
        "longitude": -111.783395
      },
      "distanceMeters": 11233.6,
      "durationMs": 1500000,
      "drivingDurationMs": 1316179,
      "idlingDurationMs": 183821,
      "fuelConsumedMl": 1427,
      "fuelConsumedGallons": 0.377,
      "maxSpeedMph": 26.3,
      "averageSpeedMph": 16.8,
      "safetyEvents": []
    },
    {
      "id": "trip_43088084_20250318_10788",
      "vehicleId": "43088084",
      "driverId": "20000039",
      "startMs": 1742331786000,
      "endMs": 1742332986000,
      "startAddress": "19513 Hurley Turnpike Apt. 724",
      "endAddress": "377 Aguirre Springs Suite 843",
      "startCoords": {
        "latitude": 40.777662,
        "longitude": -111.885444
      },
      "endCoords": {
        "latitude": 40.667296,
        "longitude": -111.941245
      },
      "distanceMeters": 5755.1,
      "durationMs": 1200000,
      "drivingDurationMs": 965233,
      "idlingDurationMs": 234767,
      "fuelConsumedMl": 731,
      "fuelConsumedGallons": 0.193,
      "maxSpeedMph": 31.6,
      "averageSpeedMph": 10.7,
      "safetyEvents": []
    },
    {
      "id": "trip_43088084_20250319_10824",
      "vehicleId": "43088084",
      "driverId": "20000033",
      "startMs": 1742350173000,
      "endMs": 1742352093000,
      "startAddress": "55664 Thomas Station Suite 129",
      "endAddress": "467 Jamie Prairie",
      "startCoords": {
        "latitude": 40.790933,
        "longitude": -111.932968
      },
      "endCoords": {
        "latitude": 40.705215,
        "longitude": -111.819607
      },
      "distanceMeters": 9619.3,
      "durationMs": 1920000,
      "drivingDurationMs": 1484627,
      "idlingDurationMs": 435373,
      "fuelConsumedMl": 1223,
      "fuelConsumedGallons": 0.323,
      "maxSpeedMph": 37.7,
      "averageSpeedMph": 11.2,
      "safetyEvents": []
    },
    {
      "id": "trip_43088084_20250319_10874",
      "vehicleId": "43088084",
      "driverId": "20000033",
      "startMs": 1742377732000,
      "endMs": 1742379292000,
      "startAddress": "87355 Richardson Spring Suite 417",
      "endAddress": "8038 Rodriguez Mission",
      "startCoords": {
        "latitude": 40.716841,
        "longitude": -111.86929
      },
      "endCoords": {
        "latitude": 40.754317,
        "longitude": -111.874224
      },
      "distanceMeters": 6472.4,
      "durationMs": 1560000,
      "drivingDurationMs": 1244082,
      "idlingDurationMs": 315918,
      "fuelConsumedMl": 821,
      "fuelConsumedGallons": 0.217,
      "maxSpeedMph": 26.5,
      "averageSpeedMph": 9.3,
      "safetyEvents": []
    },
    {
      "id": "trip_43088084_20250319_10900",
      "vehicleId": "43088084",
      "driverId": "20000038",
      "startMs": 1742389613000,
      "endMs": 1742397715000,
      "startAddress": "6962 Melissa Pine",
      "endAddress": "35610 Whitney Burg",
      "startCoords": {
        "latitude": 40.79568,
        "longitude": -111.937823
      },
      "endCoords": {
        "latitude": 40.663426,
        "longitude": -111.875595
      },
      "distanceMeters": 53186.7,
      "durationMs": 8102000,
      "drivingDurationMs": 7057614,
      "idlingDurationMs": 1044386,
      "fuelConsumedMl": 6761,
      "fuelConsumedGallons": 1.786,
      "maxSpeedMph": 38.5,
      "averageSpeedMph": 14.7,
      "safetyEvents": []
    },
    {
      "id": "trip_43088084_20250319_10946",
      "vehicleId": "43088084",
      "driverId": "20000039",
      "startMs": 1742412378000,
      "endMs": 1742433112000,
      "startAddress": "968 Frank Squares",
      "endAddress": "565 Black Ports",
      "startCoords": {
        "latitude": 40.701199,
        "longitude": -111.775909
      },
      "endCoords": {
        "latitude": 40.702943,
        "longitude": -111.820615
      },
      "distanceMeters": 137255.9,
      "durationMs": 20734000,
      "drivingDurationMs": 17536470,
      "idlingDurationMs": 3197530,
      "fuelConsumedMl": 17451,
      "fuelConsumedGallons": 4.61,
      "maxSpeedMph": 26.4,
      "averageSpeedMph": 14.8,
      "safetyEvents": []
    },
    {
      "id": "trip_43088084_20250320_10984",
      "vehicleId": "43088084",
      "driverId": "20000038",
      "startMs": 1742433276000,
      "endMs": 1742435376000,
      "startAddress": "472 Judith Canyon Apt. 691",
      "endAddress": "4428 Adam Island Suite 294",
      "startCoords": {
        "latitude": 40.790629,
        "longitude": -111.811456
      },
      "endCoords": {
        "latitude": 40.768226,
        "longitude": -111.9464
      },
      "distanceMeters": 11311.4,
      "durationMs": 2100000,
      "drivingDurationMs": 1716500,
      "idlingDurationMs": 383500,
      "fuelConsumedMl": 1438,
      "fuelConsumedGallons": 0.38,
      "maxSpeedMph": 31.4,
      "averageSpeedMph": 12.0,
      "safetyEvents": []
    },
    {
      "id": "trip_43088084_20250320_11037",
      "vehicleId": "43088084",
      "driverId": "20000034",
      "startMs": 1742464533000,
      "endMs": 1742469297000,
      "startAddress": "8596 Julian Orchard",
      "endAddress": "86223 Carla Shoals Suite 032",
      "startCoords": {
        "latitude": 40.774412,
        "longitude": -111.843176
      },
      "endCoords": {
        "latitude": 40.749836,
        "longitude": -111.81208
      },
      "distanceMeters": 26583.7,
      "durationMs": 4764000,
      "drivingDurationMs": 4104023,
      "idlingDurationMs": 659977,
      "fuelConsumedMl": 3380,
      "fuelConsumedGallons": 0.893,
      "maxSpeedMph": 36.7,
      "averageSpeedMph": 12.5,
      "safetyEvents": []
    },
    {
      "id": "trip_43088084_20250320_11083",
      "vehicleId": "43088084",
      "driverId": "20000033",
      "startMs": 1742487657000,
      "endMs": 1742489757000,
      "startAddress": "6166 Butler Corner Apt. 366",
      "endAddress": "7579 Lara Trail Suite 350",
      "startCoords": {
        "latitude": 40.662324,
        "longitude": -111.812525
      },
      "endCoords": {
        "latitude": 40.699577,
        "longitude": -111.822696
      },
      "distanceMeters": 13725.5,
      "durationMs": 2100000,
      "drivingDurationMs": 1837596,
      "idlingDurationMs": 262404,
      "fuelConsumedMl": 1745,
      "fuelConsumedGallons": 0.461,
      "maxSpeedMph": 36.7,
      "averageSpeedMph": 14.6,
      "safetyEvents": []
    },
    {
      "id": "trip_43088084_20250320_11118",
      "vehicleId": "43088084",
      "driverId": "20000038",
      "startMs": 1742507036000,
      "endMs": 1742509196000,
      "startAddress": "58559 Foster Estate",
      "endAddress": "947 Bryant Orchard Apt. 259",
      "startCoords": {
        "latitude": 40.703162,
        "longitude": -111.877943
      },
      "endCoords": {
        "latitude": 40.706456,
        "longitude": -111.929387
      },
      "distanceMeters": 12612.8,
      "durationMs": 2160000,
      "drivingDurationMs": 1826795,
      "idlingDurationMs": 333205,
      "fuelConsumedMl": 1605,
      "fuelConsumedGallons": 0.424,
      "maxSpeedMph": 32.0,
      "averageSpeedMph": 13.1,
      "safetyEvents": []
    },
    {
      "id": "trip_43088084_20250321_11149",
      "vehicleId": "43088084",
      "driverId": "20000035",
      "startMs": 1742528488000,
      "endMs": 1742530468000,
      "startAddress": "582 Torres Manors",
      "endAddress": "7200 Haley Freeway Suite 729",
      "startCoords": {
        "latitude": 40.795457,
        "longitude": -111.879145
      },
      "endCoords": {
        "latitude": 40.684811,
        "longitude": -111.811765
      },
      "distanceMeters": 9753.0,
      "durationMs": 1980000,
      "drivingDurationMs": 1648300,
      "idlingDurationMs": 331700,
      "fuelConsumedMl": 1242,
      "fuelConsumedGallons": 0.328,
      "maxSpeedMph": 28.7,
      "averageSpeedMph": 11.0,
      "safetyEvents": []
    },
    {
      "id": "trip_43088084_20250321_11180",
      "vehicleId": "43088084",
      "driverId": "20000039",
      "startMs": 1742546051000,
      "endMs": 1742548511000,
      "startAddress": "5206 Samuel Dale",
      "endAddress": "673 Veronica Locks",
      "startCoords": {
        "latitude": 40.723519,
        "longitude": -111.939706
      },
      "endCoords": {
        "latitude": 40.730098,
        "longitude": -111.942294
      },
      "distanceMeters": 18698.5,
      "durationMs": 2460000,
      "drivingDurationMs": 2183761,
      "idlingDurationMs": 276239,
      "fuelConsumedMl": 2377,
      "fuelConsumedGallons": 0.628,
      "maxSpeedMph": 28.3,
      "averageSpeedMph": 17.0,
      "safetyEvents": []
    },
    {
      "id": "trip_43088084_20250321_11211",
      "vehicleId": "43088084",
      "driverId": "20000033",
      "startMs": 1742562309000,
      "endMs": 1742568743000,
      "startAddress": "24168 Grant Curve",
      "endAddress": "136 Jackson Circle Suite 284",
      "startCoords": {
        "latitude": 40.72509,
        "longitude": -111.865826
      },
      "endCoords": {
        "latitude": 40.755491,
        "longitude": -111.895322
      },
      "distanceMeters": 27212.0,
      "durationMs": 6434000,
      "drivingDurationMs": 4839205,
      "idlingDurationMs": 1594795,
      "fuelConsumedMl": 3460,
      "fuelConsumedGallons": 0.914,
      "maxSpeedMph": 39.7,
      "averageSpeedMph": 9.5,
      "safetyEvents": []
    },
    {
      "id": "trip_43088084_20250321_11242",
      "vehicleId": "43088084",
      "driverId": "20000039",
      "startMs": 1742577682000,
      "endMs": 1742582393000,
      "startAddress": "99063 Gonzalez Ways Apt. 818",
      "endAddress": "1140 Michael Ferry Suite 553",
      "startCoords": {
        "latitude": 40.670583,
        "longitude": -111.798519
      },
      "endCoords": {
        "latitude": 40.724738,
        "longitude": -111.890636
      },
      "distanceMeters": 22498.0,
      "durationMs": 4711000,
      "drivingDurationMs": 3616593,
      "idlingDurationMs": 1094407,
      "fuelConsumedMl": 2862,
      "fuelConsumedGallons": 0.756,
      "maxSpeedMph": 31.1,
      "averageSpeedMph": 10.7,
      "safetyEvents": []
    },
    {
      "id": "trip_43088084_20250322_11304",
      "vehicleId": "43088084",
      "driverId": "20000034",
      "startMs": 1742614623000,
      "endMs": 1742616663000,
      "startAddress": "0449 Brittany Port",
      "endAddress": "2520 Brian Roads Suite 893",
      "startCoords": {
        "latitude": 40.745315,
        "longitude": -111.857928
      },
      "endCoords": {
        "latitude": 40.740027,
        "longitude": -111.787693
      },
      "distanceMeters": 14354.9,
      "durationMs": 2040000,
      "drivingDurationMs": 1788540,
      "idlingDurationMs": 251460,
      "fuelConsumedMl": 1825,
      "fuelConsumedGallons": 0.482,
      "maxSpeedMph": 37.3,
      "averageSpeedMph": 15.7,
      "safetyEvents": []
    },
    {
      "id": "trip_43088084_20250322_11352",
      "vehicleId": "43088084",
      "driverId": "20000036",
      "startMs": 1742643098000,
      "endMs": 1742644658000,
      "startAddress": "388 Medina Ridges Suite 305",
      "endAddress": "11252 Jimenez Points Suite 356",
      "startCoords": {
        "latitude": 40.728605,
        "longitude": -111.957122
      },
      "endCoords": {
        "latitude": 40.71062,
        "longitude": -111.865305
      },
      "distanceMeters": 10768.6,
      "durationMs": 1560000,
      "drivingDurationMs": 1397253,
      "idlingDurationMs": 162747,
      "fuelConsumedMl": 1370,
      "fuelConsumedGallons": 0.362,
      "maxSpeedMph": 26.7,
      "averageSpeedMph": 15.4,
      "safetyEvents": []
    },
    {
      "id": "trip_43088084_20250322_11389",
      "vehicleId": "43088084",
      "driverId": "20000038",
      "startMs": 1742659963000,
      "endMs": 1742661703000,
      "startAddress": "98562 Banks Wells Suite 775",
      "endAddress": "03507 Chad Burgs Apt. 736",
      "startCoords": {
        "latitude": 40.756858,
        "longitude": -111.932209
      },
      "endCoords": {
        "latitude": 40.734265,
        "longitude": -111.815038
      },
      "distanceMeters": 10331.5,
      "durationMs": 1740000,
      "drivingDurationMs": 1459798,
      "idlingDurationMs": 280202,
      "fuelConsumedMl": 1314,
      "fuelConsumedGallons": 0.347,
      "maxSpeedMph": 39.7,
      "averageSpeedMph": 13.3,
      "safetyEvents": []
    },
    {
      "id": "trip_43088084_20250323_11453",
      "vehicleId": "43088084",
      "driverId": "20000038",
      "startMs": 1742704683000,
      "endMs": 1742706723000,
      "startAddress": "86304 Allen Path",
      "endAddress": "43643 Michelle Radial Apt. 456",
      "startCoords": {
        "latitude": 40.763833,
        "longitude": -111.947333
      },
      "endCoords": {
        "latitude": 40.739843,
        "longitude": -111.852035
      },
      "distanceMeters": 12719.3,
      "durationMs": 2040000,
      "drivingDurationMs": 1652152,
      "idlingDurationMs": 387848,
      "fuelConsumedMl": 1616,
      "fuelConsumedGallons": 0.427,
      "maxSpeedMph": 27.4,
      "averageSpeedMph": 13.9,
      "safetyEvents": []
    },
    {
      "id": "trip_43088084_20250323_11491",
      "vehicleId": "43088084",
      "driverId": "20000033",
      "startMs": 1742729411000,
      "endMs": 1742731691000,
      "startAddress": "6335 James View",
      "endAddress": "138 Robert Turnpike Suite 503",
      "startCoords": {
        "latitude": 40.763565,
        "longitude": -111.954364
      },
      "endCoords": {
        "latitude": 40.740714,
        "longitude": -111.914588
      },
      "distanceMeters": 13589.5,
      "durationMs": 2280000,
      "drivingDurationMs": 1792979,
      "idlingDurationMs": 487021,
      "fuelConsumedMl": 1726,
      "fuelConsumedGallons": 0.456,
      "maxSpeedMph": 32.5,
      "averageSpeedMph": 13.3,
      "safetyEvents": []
    },
    {
      "id": "trip_43088084_20250323_11526",
      "vehicleId": "43088084",
      "driverId": "20000036",
      "startMs": 1742751524000,
      "endMs": 1742753864000,
      "startAddress": "0688 Clayton Burgs",
      "endAddress": "59211 Jessica Mountains",
      "startCoords": {
        "latitude": 40.787349,
        "longitude": -111.827872
      },
      "endCoords": {
        "latitude": 40.662593,
        "longitude": -111.961556
      },
      "distanceMeters": 12453.2,
      "durationMs": 2340000,
      "drivingDurationMs": 1897626,
      "idlingDurationMs": 442374,
      "fuelConsumedMl": 1582,
      "fuelConsumedGallons": 0.418,
      "maxSpeedMph": 32.6,
      "averageSpeedMph": 11.9,
      "safetyEvents": []
    },
    {
      "id": "trip_43088084_20250324_11581",
      "vehicleId": "43088084",
      "driverId": "20000038",
      "startMs": 1742810449000,
      "endMs": 1742820271000,
      "startAddress": "3976 Christopher Knolls Apt. 714",
      "endAddress": "542 Long Landing",
      "startCoords": {
        "latitude": 40.729087,
        "longitude": -111.775162
      },
      "endCoords": {
        "latitude": 40.785572,
        "longitude": -111.791813
      },
      "distanceMeters": 57430.5,
      "durationMs": 9822000,
      "drivingDurationMs": 7376720,
      "idlingDurationMs": 2445280,
      "fuelConsumedMl": 7302,
      "fuelConsumedGallons": 1.929,
      "maxSpeedMph": 28.5,
      "averageSpeedMph": 13.1,
      "safetyEvents": []
    },
    {
      "id": "trip_43088084_20250324_11626",
      "vehicleId": "43088084",
      "driverId": "20000035",
      "startMs": 1742835010000,
      "endMs": 1742836990000,
      "startAddress": "7860 Torres Parkway",
      "endAddress": "58347 Jimenez Dale Suite 998",
      "startCoords": {
        "latitude": 40.757973,
        "longitude": -111.884588
      },
      "endCoords": {
        "latitude": 40.673265,
        "longitude": -111.808628
      },
      "distanceMeters": 9558.2,
      "durationMs": 1980000,
      "drivingDurationMs": 1571913,
      "idlingDurationMs": 408087,
      "fuelConsumedMl": 1215,
      "fuelConsumedGallons": 0.321,
      "maxSpeedMph": 31.6,
      "averageSpeedMph": 10.8,
      "safetyEvents": []
    },
    {
      "id": "trip_43088084_20250324_11658",
      "vehicleId": "43088084",
      "driverId": "20000038",
      "startMs": 1742849424000,
      "endMs": 1742852004000,
      "startAddress": "2200 Andrea Mount",
      "endAddress": "2547 Mann Well",
      "startCoords": {
        "latitude": 40.776869,
        "longitude": -111.808644
      },
      "endCoords": {
        "latitude": 40.749189,
        "longitude": -111.816677
      },
      "distanceMeters": 11993.6,
      "durationMs": 2580000,
      "drivingDurationMs": 2271547,
      "idlingDurationMs": 308453,
      "fuelConsumedMl": 1526,
      "fuelConsumedGallons": 0.403,
      "maxSpeedMph": 35.9,
      "averageSpeedMph": 10.4,
      "safetyEvents": []
    },
    {
      "id": "trip_43088084_20250325_11690",
      "vehicleId": "43088084",
      "driverId": "20000039",
      "startMs": 1742866049000,
      "endMs": 1742867729000,
      "startAddress": "41564 Harris Stream",
      "endAddress": "4991 Singleton Forks",
      "startCoords": {
        "latitude": 40.678302,
        "longitude": -111.83625
      },
      "endCoords": {
        "latitude": 40.780902,
        "longitude": -111.834207
      },
      "distanceMeters": 9392.7,
      "durationMs": 1680000,
      "drivingDurationMs": 1423396,
      "idlingDurationMs": 256604,
      "fuelConsumedMl": 1192,
      "fuelConsumedGallons": 0.315,
      "maxSpeedMph": 35.9,
      "averageSpeedMph": 12.5,
      "safetyEvents": []
    },
    {
      "id": "trip_43088084_20250325_11727",
      "vehicleId": "43088084",
      "driverId": "20000035",
      "startMs": 1742885423000,
      "endMs": 1742888947000,
      "startAddress": "6832 Amber Forge",
      "endAddress": "8602 Taylor Fork Apt. 324",
      "startCoords": {
        "latitude": 40.666455,
        "longitude": -111.907623
      },
      "endCoords": {
        "latitude": 40.755346,
        "longitude": -111.945672
      },
      "distanceMeters": 16897.1,
      "durationMs": 3524000,
      "drivingDurationMs": 2704629,
      "idlingDurationMs": 819371,
      "fuelConsumedMl": 2150,
      "fuelConsumedGallons": 0.568,
      "maxSpeedMph": 33.4,
      "averageSpeedMph": 10.7,
      "safetyEvents": []
    },
    {
      "id": "trip_43088084_20250325_11772",
      "vehicleId": "43088084",
      "driverId": "20000037",
      "startMs": 1742908573000,
      "endMs": 1742910133000,
      "startAddress": "52092 Laurie Forge Apt. 210",
      "endAddress": "42275 Brandon Course",
      "startCoords": {
        "latitude": 40.74418,
        "longitude": -111.795692
      },
      "endCoords": {
        "latitude": 40.65836,
        "longitude": -111.950131
      },
      "distanceMeters": 8026.9,
      "durationMs": 1560000,
      "drivingDurationMs": 1209131,
      "idlingDurationMs": 350869,
      "fuelConsumedMl": 1022,
      "fuelConsumedGallons": 0.27,
      "maxSpeedMph": 36.1,
      "averageSpeedMph": 11.5,
      "safetyEvents": []
    },
    {
      "id": "trip_43088084_20250325_11824",
      "vehicleId": "43088084",
      "driverId": "20000033",
      "startMs": 1742930293000,
      "endMs": 1742938981000,
      "startAddress": "46537 Stephanie Fords Suite 636",
      "endAddress": "322 Phillips Square Apt. 785",
      "startCoords": {
        "latitude": 40.794162,
        "longitude": -111.919982
      },
      "endCoords": {
        "latitude": 40.794828,
        "longitude": -111.810839
      },
      "distanceMeters": 39945.5,
      "durationMs": 8688000,
      "drivingDurationMs": 7352066,
      "idlingDurationMs": 1335934,
      "fuelConsumedMl": 5080,
      "fuelConsumedGallons": 1.342,
      "maxSpeedMph": 39.0,
      "averageSpeedMph": 10.3,
      "safetyEvents": []
    },
    {
      "id": "trip_43088084_20250326_11870",
      "vehicleId": "43088084",
      "driverId": "20000037",
      "startMs": 1742959757000,
      "endMs": 1742966369000,
      "startAddress": "29681 Jarvis Center",
      "endAddress": "8187 Mark Radial Apt. 267",
      "startCoords": {
        "latitude": 40.711357,
        "longitude": -111.827298
      },
      "endCoords": {
        "latitude": 40.733086,
        "longitude": -111.92882
      },
      "distanceMeters": 34401.2,
      "durationMs": 6612000,
      "drivingDurationMs": 5553068,
      "idlingDurationMs": 1058932,
      "fuelConsumedMl": 4372,
      "fuelConsumedGallons": 1.155,
      "maxSpeedMph": 33.1,
      "averageSpeedMph": 11.6,
      "safetyEvents": []
    },
    {
      "id": "trip_43088084_20250326_11919",
      "vehicleId": "43088084",
      "driverId": "20000037",
      "startMs": 1742987346000,
      "endMs": 1742988846000,
      "startAddress": "77868 Laurie Burg",
      "endAddress": "79764 Richards Brooks Suite 593",
      "startCoords": {
        "latitude": 40.752248,
        "longitude": -111.808857
      },
      "endCoords": {
        "latitude": 40.766922,
        "longitude": -111.793951
      },
      "distanceMeters": 9632.1,
      "durationMs": 1500000,
      "drivingDurationMs": 1287253,
      "idlingDurationMs": 212747,
      "fuelConsumedMl": 1226,
      "fuelConsumedGallons": 0.324,
      "maxSpeedMph": 32.1,
      "averageSpeedMph": 14.4,
      "safetyEvents": []
    },
    {
      "id": "trip_43088084_20250326_11955",
      "vehicleId": "43088084",
      "driverId": "20000034",
      "startMs": 1743005755000,
      "endMs": 1743007375000,
      "startAddress": "48734 Myers Field Suite 109",
      "endAddress": "456 Walter Plain",
      "startCoords": {
        "latitude": 40.731427,
        "longitude": -111.893403
      },
      "endCoords": {
        "latitude": 40.701196,
        "longitude": -111.902047
      },
      "distanceMeters": 8440.1,
      "durationMs": 1620000,
      "drivingDurationMs": 1425317,
      "idlingDurationMs": 194683,
      "fuelConsumedMl": 1071,
      "fuelConsumedGallons": 0.283,
      "maxSpeedMph": 26.2,
      "averageSpeedMph": 11.7,
      "safetyEvents": []
    },
    {
      "id": "trip_43088084_20250326_12003",
      "vehicleId": "43088084",
      "driverId": "20000038",
      "startMs": 1743027968000,
      "endMs": 1743036044000,
      "startAddress": "055 Holder Knoll",
      "endAddress": "6968 Larson Ferry Apt. 097",
      "startCoords": {
        "latitude": 40.702584,
        "longitude": -111.79776
      },
      "endCoords": {
        "latitude": 40.770615,
        "longitude": -111.794099
      },
      "distanceMeters": 62134.9,
      "durationMs": 8076000,
      "drivingDurationMs": 7004997,
      "idlingDurationMs": 1071003,
      "fuelConsumedMl": 7900,
      "fuelConsumedGallons": 2.087,
      "maxSpeedMph": 26.9,
      "averageSpeedMph": 17.2,
      "safetyEvents": []
    },
    {
      "id": "trip_43088084_20250327_12062",
      "vehicleId": "43088084",
      "driverId": "20000036",
      "startMs": 1743064870000,
      "endMs": 1743066970000,
      "startAddress": "604 Thomas Plaza Apt. 407",
      "endAddress": "63523 Foster Skyway",
      "startCoords": {
        "latitude": 40.685442,
        "longitude": -111.922687
      },
      "endCoords": {
        "latitude": 40.706074,
        "longitude": -111.850372
      },
      "distanceMeters": 9475.9,
      "durationMs": 2100000,
      "drivingDurationMs": 1637390,
      "idlingDurationMs": 462610,
      "fuelConsumedMl": 1204,
      "fuelConsumedGallons": 0.318,
      "maxSpeedMph": 31.3,
      "averageSpeedMph": 10.1,
      "safetyEvents": []
    },
    {
      "id": "trip_43088084_20250327_12120",
      "vehicleId": "43088084",
      "driverId": "20000034",
      "startMs": 1743090756000,
      "endMs": 1743092616000,
      "startAddress": "68892 Elizabeth Mews",
      "endAddress": "0805 Duncan Station",
      "startCoords": {
        "latitude": 40.697998,
        "longitude": -111.8649
      },
      "endCoords": {
        "latitude": 40.73111,
        "longitude": -111.803868
      },
      "distanceMeters": 12884.1,
      "durationMs": 1860000,
      "drivingDurationMs": 1550890,
      "idlingDurationMs": 309110,
      "fuelConsumedMl": 1639,
      "fuelConsumedGallons": 0.433,
      "maxSpeedMph": 32.0,
      "averageSpeedMph": 15.5,
      "safetyEvents": []
    },
    {
      "id": "trip_43088084_20250327_12149",
      "vehicleId": "43088084",
      "driverId": "20000036",
      "startMs": 1743104716000,
      "endMs": 1743110698000,
      "startAddress": "09245 Bernard Haven Suite 310",
      "endAddress": "375 Robert Estate",
      "startCoords": {
        "latitude": 40.794017,
        "longitude": -111.844062
      },
      "endCoords": {
        "latitude": 40.778442,
        "longitude": -111.825466
      },
      "distanceMeters": 30255.8,
      "durationMs": 5982000,
      "drivingDurationMs": 4860184,
      "idlingDurationMs": 1121816,
      "fuelConsumedMl": 3846,
      "fuelConsumedGallons": 1.016,
      "maxSpeedMph": 36.8,
      "averageSpeedMph": 11.3,
      "safetyEvents": []
    },
    {
      "id": "trip_43088084_20250328_12189",
      "vehicleId": "43088084",
      "driverId": "20000034",
      "startMs": 1743127629000,
      "endMs": 1743132077000,
      "startAddress": "430 Cole Meadow Apt. 964",
      "endAddress": "8408 Hunt Islands",
      "startCoords": {
        "latitude": 40.698959,
        "longitude": -111.951103
      },
      "endCoords": {
        "latitude": 40.772801,
        "longitude": -111.847322
      },
      "distanceMeters": 28293.4,
      "durationMs": 4448000,
      "drivingDurationMs": 3793198,
      "idlingDurationMs": 654802,
      "fuelConsumedMl": 3596,
      "fuelConsumedGallons": 0.95,
      "maxSpeedMph": 39.1,
      "averageSpeedMph": 14.2,
      "safetyEvents": []
    },
    {
      "id": "trip_43088084_20250328_12237",
      "vehicleId": "43088084",
      "driverId": "20000036",
      "startMs": 1743152921000,
      "endMs": 1743155441000,
      "startAddress": "43866 Nicole Ville",
      "endAddress": "69476 Sanchez Court",
      "startCoords": {
        "latitude": 40.675022,
        "longitude": -111.857646
      },
      "endCoords": {
        "latitude": 40.665535,
        "longitude": -111.819565
      },
      "distanceMeters": 10564.1,
      "durationMs": 2520000,
      "drivingDurationMs": 2087305,
      "idlingDurationMs": 432695,
      "fuelConsumedMl": 1344,
      "fuelConsumedGallons": 0.355,
      "maxSpeedMph": 38.5,
      "averageSpeedMph": 9.4,
      "safetyEvents": []
    },
    {
      "id": "trip_43088084_20250328_12281",
      "vehicleId": "43088084",
      "driverId": "20000034",
      "startMs": 1743171295000,
      "endMs": 1743173035000,
      "startAddress": "345 Lamb Meadow Apt. 883",
      "endAddress": "61390 Lauren View Apt. 927",
      "startCoords": {
        "latitude": 40.689103,
        "longitude": -111.80426
      },
      "endCoords": {
        "latitude": 40.79939,
        "longitude": -111.92663
      },
      "distanceMeters": 11374.2,
      "durationMs": 1740000,
      "drivingDurationMs": 1513959,
      "idlingDurationMs": 226041,
      "fuelConsumedMl": 1446,
      "fuelConsumedGallons": 0.382,
      "maxSpeedMph": 33.0,
      "averageSpeedMph": 14.6,
      "safetyEvents": []
    },
    {
      "id": "trip_43088084_20250328_12328",
      "vehicleId": "43088084",
      "driverId": "20000037",
      "startMs": 1743193657000,
      "endMs": 1743195457000,
      "startAddress": "9173 Kurt Junction",
      "endAddress": "012 Welch River",
      "startCoords": {
        "latitude": 40.793375,
        "longitude": -111.945257
      },
      "endCoords": {
        "latitude": 40.699751,
        "longitude": -111.927172
      },
      "distanceMeters": 8302.0,
      "durationMs": 1800000,
      "drivingDurationMs": 1587626,
      "idlingDurationMs": 212374,
      "fuelConsumedMl": 1056,
      "fuelConsumedGallons": 0.279,
      "maxSpeedMph": 26.7,
      "averageSpeedMph": 10.3,
      "safetyEvents": []
    },
    {
      "id": "trip_43088084_20250329_12361",
      "vehicleId": "43088084",
      "driverId": "20000036",
      "startMs": 1743213744000,
      "endMs": 1743215904000,
      "startAddress": "000 Joshua Orchard Apt. 197",
      "endAddress": "579 Nash Falls Apt. 286",
      "startCoords": {
        "latitude": 40.73535,
        "longitude": -111.954241
      },
      "endCoords": {
        "latitude": 40.755687,
        "longitude": -111.835742
      },
      "distanceMeters": 13236.2,
      "durationMs": 2160000,
      "drivingDurationMs": 1941484,
      "idlingDurationMs": 218516,
      "fuelConsumedMl": 1685,
      "fuelConsumedGallons": 0.445,
      "maxSpeedMph": 36.7,
      "averageSpeedMph": 13.7,
      "safetyEvents": []
    },
    {
      "id": "trip_43088084_20250329_12411",
      "vehicleId": "43088084",
      "driverId": "20000034",
      "startMs": 1743243359000,
      "endMs": 1743245879000,
      "startAddress": "335 Anna Underpass Apt. 131",
      "endAddress": "8779 Christina Via Suite 875",
      "startCoords": {
        "latitude": 40.690576,
        "longitude": -111.950365
      },
      "endCoords": {
        "latitude": 40.724887,
        "longitude": -111.881675
      },
      "distanceMeters": 13252.5,
      "durationMs": 2520000,
      "drivingDurationMs": 2080654,
      "idlingDurationMs": 439346,
      "fuelConsumedMl": 1685,
      "fuelConsumedGallons": 0.445,
      "maxSpeedMph": 34.6,
      "averageSpeedMph": 11.8,
      "safetyEvents": []
    },
    {
      "id": "trip_43088084_20250329_12465",
      "vehicleId": "43088084",
      "driverId": "20000037",
      "startMs": 1743270911000,
      "endMs": 1743272951000,
      "startAddress": "349 Emily Lock Suite 920",
      "endAddress": "6858 Ronald Drive Apt. 516",
      "startCoords": {
        "latitude": 40.770759,
        "longitude": -111.861761
      },
      "endCoords": {
        "latitude": 40.701129,
        "longitude": -111.833962
      },
      "distanceMeters": 9380.6,
      "durationMs": 2040000,
      "drivingDurationMs": 1801493,
      "idlingDurationMs": 238507,
      "fuelConsumedMl": 1192,
      "fuelConsumedGallons": 0.315,
      "maxSpeedMph": 34.4,
      "averageSpeedMph": 10.3,
      "safetyEvents": []
    },
    {
      "id": "trip_43088084_20250330_12498",
      "vehicleId": "43088084",
      "driverId": "20000034",
      "startMs": 1743292850000,
      "endMs": 1743295717000,
      "startAddress": "27573 Ryan Villages Suite 412",
      "endAddress": "2809 Nancy Fort",
      "startCoords": {
        "latitude": 40.787114,
        "longitude": -111.857393
      },
      "endCoords": {
        "latitude": 40.785156,
        "longitude": -111.830046
      },
      "distanceMeters": 21176.6,
      "durationMs": 2867000,
      "drivingDurationMs": 2450157,
      "idlingDurationMs": 416843,
      "fuelConsumedMl": 2691,
      "fuelConsumedGallons": 0.711,
      "maxSpeedMph": 31.3,
      "averageSpeedMph": 16.5,
      "safetyEvents": []
    },
    {
      "id": "trip_43088084_20250330_12557",
      "vehicleId": "43088084",
      "driverId": "20000034",
      "startMs": 1743340708000,
      "endMs": 1743343521000,
      "startAddress": "003 Denise Dam",
      "endAddress": "884 Aaron Terrace Apt. 149",
      "startCoords": {
        "latitude": 40.729653,
        "longitude": -111.881282
      },
      "endCoords": {
        "latitude": 40.691478,
        "longitude": -111.939413
      },
      "distanceMeters": 14861.9,
      "durationMs": 2813000,
      "drivingDurationMs": 2426101,
      "idlingDurationMs": 386899,
      "fuelConsumedMl": 1889,
      "fuelConsumedGallons": 0.499,
      "maxSpeedMph": 38.6,
      "averageSpeedMph": 11.8,
      "safetyEvents": []
    },
    {
      "id": "trip_43088084_20250330_12599",
      "vehicleId": "43088084",
      "driverId": "20000033",
      "startMs": 1743372303000,
      "endMs": 1743374643000,
      "startAddress": "094 Golden Fort Apt. 724",
      "endAddress": "635 Sean Manor Suite 621",
      "startCoords": {
        "latitude": 40.715024,
        "longitude": -111.936731
      },
      "endCoords": {
        "latitude": 40.782246,
        "longitude": -111.930343
      },
      "distanceMeters": 16957.7,
      "durationMs": 2340000,
      "drivingDurationMs": 2068567,
      "idlingDurationMs": 271433,
      "fuelConsumedMl": 2158,
      "fuelConsumedGallons": 0.57,
      "maxSpeedMph": 38.5,
      "averageSpeedMph": 16.2,
      "safetyEvents": []
    },
    {
      "id": "trip_43088084_20250331_12649",
      "vehicleId": "43088084",
      "driverId": "20000037",
      "startMs": 1743417525000,
      "endMs": 1743419910000,
      "startAddress": "891 Ramos Forge Apt. 126",
      "endAddress": "746 Kelly Fords",
      "startCoords": {
        "latitude": 40.756391,
        "longitude": -111.806486
      },
      "endCoords": {
        "latitude": 40.668635,
        "longitude": -111.932841
      },
      "distanceMeters": 17231.2,
      "durationMs": 2385000,
      "drivingDurationMs": 1966519,
      "idlingDurationMs": 418481,
      "fuelConsumedMl": 2192,
      "fuelConsumedGallons": 0.579,
      "maxSpeedMph": 32.8,
      "averageSpeedMph": 16.2,
      "safetyEvents": []
    },
    {
      "id": "trip_43088084_20250331_12688",
      "vehicleId": "43088084",
      "driverId": "20000037",
      "startMs": 1743439947000,
      "endMs": 1743446010000,
      "startAddress": "919 John Island Apt. 263",
      "endAddress": "0297 Perry Neck Apt. 393",
      "startCoords": {
        "latitude": 40.719834,
        "longitude": -111.925491
      },
      "endCoords": {
        "latitude": 40.686392,
        "longitude": -111.89042
      },
      "distanceMeters": 34008.4,
      "durationMs": 6063000,
      "drivingDurationMs": 5214342,
      "idlingDurationMs": 848658,
      "fuelConsumedMl": 4323,
      "fuelConsumedGallons": 1.142,
      "maxSpeedMph": 38.7,
      "averageSpeedMph": 12.5,
      "safetyEvents": []
    },
    {
      "id": "trip_43088084_20250331_12716",
      "vehicleId": "43088084",
      "driverId": "20000038",
      "startMs": 1743452229000,
      "endMs": 1743455421000,
      "startAddress": "687 Teresa Ports Suite 678",
      "endAddress": "65232 Yvonne Plaza",
      "startCoords": {
        "latitude": 40.70279,
        "longitude": -111.892034
      },
      "endCoords": {
        "latitude": 40.670078,
        "longitude": -111.866163
      },
      "distanceMeters": 21895.7,
      "durationMs": 3192000,
      "drivingDurationMs": 2756929,
      "idlingDurationMs": 435071,
      "fuelConsumedMl": 2782,
      "fuelConsumedGallons": 0.735,
      "maxSpeedMph": 27.7,
      "averageSpeedMph": 15.3,
      "safetyEvents": []
    }
  ]
}