{
  "vehicleId": "48291025",
  "vehicleName": "SAL-CAR-04",
  "month": "2025_03",
  "pagination": {
    "endCursor": "trip_48291025_20250331_002",
    "hasNextPage": false
  },
  "trips": [
    {
      "id": "trip_48291025_20250301_001",
      "vehicleId": "48291025",
      "driverId": "22831024",
      "startMs": 1740810900000,
      "endMs": 1740820141445,
      "startLocation": {
        "latitude": 40.69283,
        "longitude": -111.961054
      },
      "endLocation": {
        "latitude": 40.721717,
        "longitude": -111.810134
      },
      "startAddress": "3305 Peter Run Apt. 458",
      "endAddress": "118 Ryan Squares",
      "startCoords": {
        "latitude": 40.73852,
        "longitude": -111.867821
      },
      "endCoords": {
        "latitude": 40.773223,
        "longitude": -111.825347
      },
      "distanceMeters": 57081.4,
      "durationMs": 9241446,
      "drivingDurationMs": 7429193,
      "idlingDurationMs": 1812253,
      "fuelConsumedMl": 7257,
      "fuelConsumedGallons": 1.917,
      "maxSpeedMph": 52.4,
      "averageSpeedMph": 13.8,
      "safetyEvents": [],
      "_no_driver_login": false,
      "_fuel_note": "QUIRK 5: fuelConsumedGallons is in US gallons. Multiply by 3.785 for litres. Samsara does not link fuel to specific Onfleet tasks."
    },
    {
      "id": "trip_48291025_20250301_002",
      "vehicleId": "48291025",
      "driverId": "22831024",
      "startMs": 1740830580000,
      "endMs": 1740839982042,
      "startLocation": {
        "latitude": 40.743924,
        "longitude": -111.935461
      },
      "endLocation": {
        "latitude": 40.746136,
        "longitude": -111.885
      },
      "startAddress": "327 Michael Key",
      "endAddress": "74957 Elizabeth Village Apt. 552",
      "startCoords": {
        "latitude": 40.669536,
        "longitude": -111.959474
      },
      "endCoords": {
        "latitude": 40.681946,
        "longitude": -111.791754
      },
      "distanceMeters": 47476.0,
      "durationMs": 9402043,
      "drivingDurationMs": 8991809,
      "idlingDurationMs": 410234,
      "fuelConsumedMl": 6038,
      "fuelConsumedGallons": 1.595,
      "maxSpeedMph": 40.4,
      "averageSpeedMph": 11.3,
      "safetyEvents": [],
      "_no_driver_login": false,
      "_fuel_note": ""
    },
    {
      "id": "trip_48291025_20250301_003",
      "vehicleId": "48291025",
      "driverId": "22831024",
      "startMs": 1740850200000,
      "endMs": 1740861908306,
      "startLocation": {
        "latitude": 40.75169,
        "longitude": -111.915159
      },
      "endLocation": {
        "latitude": 40.706769,
        "longitude": -111.872822
      },
      "startAddress": "93795 Benjamin Overpass Suite 266",
      "endAddress": "11626 Ashley Villages",
      "startCoords": {
        "latitude": 40.773237,
        "longitude": -111.903388
      },
      "endCoords": {
        "latitude": 40.758956,
        "longitude": -111.867312
      },
      "distanceMeters": 72990.2,
      "durationMs": 11708306,
      "drivingDurationMs": 10939236,
      "idlingDurationMs": 769070,
      "fuelConsumedMl": 9282,
      "fuelConsumedGallons": 2.452,
      "maxSpeedMph": 63.5,
      "averageSpeedMph": 13.9,
      "safetyEvents": [],
      "_no_driver_login": false,
      "_fuel_note": ""
    },
    {
      "id": "trip_48291025_20250302_001",
      "vehicleId": "48291025",
      "driverId": "22831024",
      "startMs": 1740903660000,
      "endMs": 1740911676521,
      "startLocation": {
        "latitude": 40.792072,
        "longitude": -111.823273
      },
      "endLocation": {
        "latitude": 40.767505,
        "longitude": -111.824294
      },
      "startAddress": "96536 Thompson Glen Apt. 845",
      "endAddress": "256 Dennis Isle Suite 688",
      "startCoords": {
        "latitude": 40.749214,
        "longitude": -111.958436
      },
      "endCoords": {
        "latitude": 40.780913,
        "longitude": -111.790081
      },
      "distanceMeters": 63689.3,
      "durationMs": 8016522,
      "drivingDurationMs": 7204430,
      "idlingDurationMs": 812092,
      "fuelConsumedMl": 8097,
      "fuelConsumedGallons": 2.139,
      "maxSpeedMph": 35.0,
      "averageSpeedMph": 17.8,
      "safetyEvents": [],
      "_no_driver_login": false,
      "_fuel_note": "QUIRK 5: fuelConsumedGallons is in US gallons. Multiply by 3.785 for litres. Samsara does not link fuel to specific Onfleet tasks."
    },
    {
      "id": "trip_48291025_20250303_001",
      "vehicleId": "48291025",
      "driverId": "22831024",
      "startMs": 1741019040000,
      "endMs": 1741021120187,
      "startLocation": {
        "latitude": 40.755311,
        "longitude": -111.788131
      },
      "endLocation": {
        "latitude": 40.78378,
        "longitude": -111.83747
      },
      "startAddress": "61225 Bonnie Meadow Suite 198",
      "endAddress": "937 April Unions Suite 193",
      "startCoords": {
        "latitude": 40.668544,
        "longitude": -111.910785
      },
      "endCoords": {
        "latitude": 40.749937,
        "longitude": -111.827781
      },
      "distanceMeters": 10215.0,
      "durationMs": 2080187,
      "drivingDurationMs": 1860810,
      "idlingDurationMs": 219377,
      "fuelConsumedMl": 1298,
      "fuelConsumedGallons": 0.343,
      "maxSpeedMph": 70.4,
      "averageSpeedMph": 11.0,
      "safetyEvents": [
        {
          "type": "speeding",
          "startMs": 1741020420000,
          "maxSpeedMph": 70.4
        }
      ],
      "_no_driver_login": false,
      "_fuel_note": "QUIRK 5: fuelConsumedGallons is in US gallons. Multiply by 3.785 for litres. Samsara does not link fuel to specific Onfleet tasks."
    },
    {
      "id": "trip_48291025_20250303_002",
      "vehicleId": "48291025",
      "driverId": "22831024",
      "startMs": 1740984480000,
      "endMs": 1740986337524,
      "startLocation": {
        "latitude": 40.761179,
        "longitude": -111.821601
      },
      "endLocation": {
        "latitude": 40.789502,
        "longitude": -111.85877
      },
      "startAddress": "49619 Sean Land",
      "endAddress": "884 Emily Freeway Apt. 742",
      "startCoords": {
        "latitude": 40.792793,
        "longitude": -111.933424
      },
      "endCoords": {
        "latitude": 40.754109,
        "longitude": -111.931385
      },
      "distanceMeters": 12196.0,
      "durationMs": 1857524,
      "drivingDurationMs": 1536384,
      "idlingDurationMs": 321141,
      "fuelConsumedMl": 1552,
      "fuelConsumedGallons": 0.41,
      "maxSpeedMph": 33.4,
      "averageSpeedMph": 14.7,
      "safetyEvents": [],
      "_no_driver_login": false,
      "_fuel_note": ""
    },
    {
      "id": "trip_48291025_20250303_003",
      "vehicleId": "48291025",
      "driverId": "22831024",
      "startMs": 1741009860000,
      "endMs": 1741027357586,
      "startLocation": {
        "latitude": 40.738831,
        "longitude": -111.833105
      },
      "endLocation": {
        "latitude": 40.718436,
        "longitude": -111.958579
      },
      "startAddress": "569 Denise Crest Apt. 920",
      "endAddress": "076 Robyn Place",
      "startCoords": {
        "latitude": 40.699529,
        "longitude": -111.947348
      },
      "endCoords": {
        "latitude": 40.714553,
        "longitude": -111.825027
      },
      "distanceMeters": 72146.6,
      "durationMs": 17497586,
      "drivingDurationMs": 14067065,
      "idlingDurationMs": 3430521,
      "fuelConsumedMl": 9172,
      "fuelConsumedGallons": 2.423,
      "maxSpeedMph": 46.8,
      "averageSpeedMph": 9.2,
      "safetyEvents": [],
      "_no_driver_login": false,
      "_fuel_note": ""
    },
    {
      "id": "trip_48291025_20250303_004",
      "vehicleId": "48291025",
      "driverId": "22831024",
      "startMs": 1741014960000,
      "endMs": 1741027743559,
      "startLocation": {
        "latitude": 40.796189,
        "longitude": -111.808193
      },
      "endLocation": {
        "latitude": 40.7676,
        "longitude": -111.832225
      },
      "startAddress": "7063 Shelia Path Apt. 308",
      "endAddress": "983 Brian Falls Apt. 411",
      "startCoords": {
        "latitude": 40.770144,
        "longitude": -111.902067
      },
      "endCoords": {
        "latitude": 40.774571,
        "longitude": -111.880897
      },
      "distanceMeters": 78486.0,
      "durationMs": 12783559,
      "drivingDurationMs": 11333443,
      "idlingDurationMs": 1450116,
      "fuelConsumedMl": 9978,
      "fuelConsumedGallons": 2.636,
      "maxSpeedMph": 62.4,
      "averageSpeedMph": 13.7,
      "safetyEvents": [],
      "_no_driver_login": false,
      "_fuel_note": ""
    },
    {
      "id": "trip_48291025_20250303_005",
      "vehicleId": "48291025",
      "driverId": "22831024",
      "startMs": 1741003980000,
      "endMs": 1741006669077,
      "startLocation": {
        "latitude": 40.702089,
        "longitude": -111.807479
      },
      "endLocation": {
        "latitude": 40.710602,
        "longitude": -111.926994
      },
      "startAddress": "195 Teresa Oval Suite 216",
      "endAddress": "2466 Robert Lakes Apt. 252",
      "startCoords": {
        "latitude": 40.75906,
        "longitude": -111.887466
      },
      "endCoords": {
        "latitude": 40.726567,
        "longitude": -111.83989
      },
      "distanceMeters": 12051.1,
      "durationMs": 2689077,
      "drivingDurationMs": 2397502,
      "idlingDurationMs": 291576,
      "fuelConsumedMl": 1533,
      "fuelConsumedGallons": 0.405,
      "maxSpeedMph": 36.1,
      "averageSpeedMph": 10.0,
      "safetyEvents": [],
      "_no_driver_login": false,
      "_fuel_note": ""
    },
    {
      "id": "trip_48291025_20250303_006",
      "vehicleId": "48291025",
      "driverId": "22831024",
      "startMs": 1741016700000,
      "endMs": 1741022828895,
      "startLocation": {
        "latitude": 40.771965,
        "longitude": -111.908972
      },
      "endLocation": {
        "latitude": 40.787767,
        "longitude": -111.798708
      },
      "startAddress": "115 Ryan Mountains",
      "endAddress": "405 Walton Viaduct Suite 431",
      "startCoords": {
        "latitude": 40.763125,
        "longitude": -111.798986
      },
      "endCoords": {
        "latitude": 40.758546,
        "longitude": -111.896443
      },
      "distanceMeters": 35352.4,
      "durationMs": 6128895,
      "drivingDurationMs": 5322860,
      "idlingDurationMs": 806035,
      "fuelConsumedMl": 4493,
      "fuelConsumedGallons": 1.187,
      "maxSpeedMph": 47.1,
      "averageSpeedMph": 12.9,
      "safetyEvents": [],
      "_no_driver_login": false,
      "_fuel_note": ""
    },
    {
      "id": "trip_48291025_20250304_001",
      "vehicleId": "48291025",
      "driverId": "22831024",
      "startMs": 1741091160000,
      "endMs": 1741096796116,
      "startLocation": {
        "latitude": 40.789505,
        "longitude": -111.811951
      },
      "endLocation": {
        "latitude": 40.769322,
        "longitude": -111.810648
      },
      "startAddress": "569 David Mountain",
      "endAddress": "0544 Stephen Parks Apt. 169",
      "startCoords": {
        "latitude": 40.713388,
        "longitude": -111.917162
      },
      "endCoords": {
        "latitude": 40.754335,
        "longitude": -111.911524
      },
      "distanceMeters": 27781.7,
      "durationMs": 5636117,
      "drivingDurationMs": 4589542,
      "idlingDurationMs": 1046575,
      "fuelConsumedMl": 3532,
      "fuelConsumedGallons": 0.933,
      "maxSpeedMph": 50.1,
      "averageSpeedMph": 11.0,
      "safetyEvents": [],
      "_no_driver_login": false,
      "_fuel_note": "QUIRK 5: fuelConsumedGallons is in US gallons. Multiply by 3.785 for litres. Samsara does not link fuel to specific Onfleet tasks."
    },
    {
      "id": "trip_48291025_20250304_002",
      "vehicleId": "48291025",
      "driverId": "22831024",
      "startMs": 1741107780000,
      "endMs": 1741111068694,
      "startLocation": {
        "latitude": 40.691293,
        "longitude": -111.948295
      },
      "endLocation": {
        "latitude": 40.752026,
        "longitude": -111.958569
      },
      "startAddress": "51386 Kline Club",
      "endAddress": "727 Miranda Burg",
      "startCoords": {
        "latitude": 40.733347,
        "longitude": -111.775693
      },
      "endCoords": {
        "latitude": 40.741367,
        "longitude": -111.922736
      },
      "distanceMeters": 16950.7,
      "durationMs": 3288694,
      "drivingDurationMs": 2688668,
      "idlingDurationMs": 600026,
      "fuelConsumedMl": 2154,
      "fuelConsumedGallons": 0.569,
      "maxSpeedMph": 44.6,
      "averageSpeedMph": 11.5,
      "safetyEvents": [],
      "_no_driver_login": false,
      "_fuel_note": ""
    },
    {
      "id": "trip_48291025_20250305_001",
      "vehicleId": "48291025",
      "driverId": "22831024",
      "startMs": 1741167540000,
      "endMs": 1741171962864,
      "startLocation": {
        "latitude": 40.681977,
        "longitude": -111.887425
      },
      "endLocation": {
        "latitude": 40.757831,
        "longitude": -111.873352
      },
      "startAddress": "48229 Ryan Rapids Apt. 952",
      "endAddress": "07025 Wayne Ranch",
      "startCoords": {
        "latitude": 40.766452,
        "longitude": -111.821565
      },
      "endCoords": {
        "latitude": 40.65991,
        "longitude": -111.819575
      },
      "distanceMeters": 31807.8,
      "durationMs": 4422865,
      "drivingDurationMs": 3800414,
      "idlingDurationMs": 622451,
      "fuelConsumedMl": 4043,
      "fuelConsumedGallons": 1.068,
      "maxSpeedMph": 58.0,
      "averageSpeedMph": 16.1,
      "safetyEvents": [],
      "_no_driver_login": false,
      "_fuel_note": "QUIRK 5: fuelConsumedGallons is in US gallons. Multiply by 3.785 for litres. Samsara does not link fuel to specific Onfleet tasks."
    },
    {
      "id": "trip_48291025_20250305_002",
      "vehicleId": "48291025",
      "driverId": "22831024",
      "startMs": 1741162560000,
      "endMs": 1741164620966,
      "startLocation": {
        "latitude": 40.760352,
        "longitude": -111.90829
      },
      "endLocation": {
        "latitude": 40.781565,
        "longitude": -111.90285
      },
      "startAddress": "32422 Evelyn Spring Suite 967",
      "endAddress": "01205 Farmer Isle Suite 630",
      "startCoords": {
        "latitude": 40.747695,
        "longitude": -111.794948
      },
      "endCoords": {
        "latitude": 40.759579,
        "longitude": -111.823894
      },
      "distanceMeters": 13036.3,
      "durationMs": 2060966,
      "drivingDurationMs": 1760331,
      "idlingDurationMs": 300635,
      "fuelConsumedMl": 1658,
      "fuelConsumedGallons": 0.438,
      "maxSpeedMph": 51.0,
      "averageSpeedMph": 14.1,
      "safetyEvents": [],
      "_no_driver_login": false,
      "_fuel_note": ""
    },
    {
      "id": "trip_48291025_20250305_003",
      "vehicleId": "48291025",
      "driverId": "22831024",
      "startMs": 1741195380000,
      "endMs": 1741201728956,
      "startLocation": {
        "latitude": 40.731276,
        "longitude": -111.835525
      },
      "endLocation": {
        "latitude": 40.708546,
        "longitude": -111.836815
      },
      "startAddress": "84863 Smith Drives Suite 323",
      "endAddress": "1047 Wright Knolls",
      "startCoords": {
        "latitude": 40.707769,
        "longitude": -111.960865
      },
      "endCoords": {
        "latitude": 40.671505,
        "longitude": -111.932609
      },
      "distanceMeters": 48065.8,
      "durationMs": 6348957,
      "drivingDurationMs": 6136038,
      "idlingDurationMs": 212919,
      "fuelConsumedMl": 6110,
      "fuelConsumedGallons": 1.614,
      "maxSpeedMph": 35.3,
      "averageSpeedMph": 16.9,
      "safetyEvents": [],
      "_no_driver_login": false,
      "_fuel_note": ""
    },
    {
      "id": "trip_48291025_20250305_004",
      "vehicleId": "48291025",
      "driverId": "22831024",
      "startMs": 1741160100000,
      "endMs": 1741167227278,
      "startLocation": {
        "latitude": 40.675273,
        "longitude": -111.861278
      },
      "endLocation": {
        "latitude": 40.704142,
        "longitude": -111.8332
      },
      "startAddress": "40536 Stephanie Well",
      "endAddress": "598 Tapia Plain",
      "startCoords": {
        "latitude": 40.754293,
        "longitude": -111.845172
      },
      "endCoords": {
        "latitude": 40.696382,
        "longitude": -111.811563
      },
      "distanceMeters": 40601.6,
      "durationMs": 7127278,
      "drivingDurationMs": 5730469,
      "idlingDurationMs": 1396809,
      "fuelConsumedMl": 5163,
      "fuelConsumedGallons": 1.364,
      "maxSpeedMph": 47.4,
      "averageSpeedMph": 12.7,
      "safetyEvents": [],
      "_no_driver_login": false,
      "_fuel_note": ""
    },
    {
      "id": "trip_48291025_20250306_001",
      "vehicleId": "48291025",
      "driverId": "22831024",
      "startMs": 1741247220000,
      "endMs": 1741255073760,
      "startLocation": {
        "latitude": 40.774031,
        "longitude": -111.868445
      },
      "endLocation": {
        "latitude": 40.724506,
        "longitude": -111.959625
      },
      "startAddress": "6603 Donna Lock Apt. 990",
      "endAddress": "392 Heather Well Apt. 553",
      "startCoords": {
        "latitude": 40.749651,
        "longitude": -111.794663
      },
      "endCoords": {
        "latitude": 40.685591,
        "longitude": -111.891939
      },
      "distanceMeters": 54394.3,
      "durationMs": 7853760,
      "drivingDurationMs": 6898333,
      "idlingDurationMs": 955427,
      "fuelConsumedMl": 6916,
      "fuelConsumedGallons": 1.827,
      "maxSpeedMph": 69.6,
      "averageSpeedMph": 15.5,
      "safetyEvents": [
        {
          "type": "speeding",
          "startMs": 1741249320000,
          "maxSpeedMph": 69.6
        }
      ],
      "_no_driver_login": false,
      "_fuel_note": "QUIRK 5: fuelConsumedGallons is in US gallons. Multiply by 3.785 for litres. Samsara does not link fuel to specific Onfleet tasks."
    },
    {
      "id": "trip_48291025_20250306_002",
      "vehicleId": "48291025",
      "driverId": "22831024",
      "startMs": 1741243140000,
      "endMs": 1741246533734,
      "startLocation": {
        "latitude": 40.671463,
        "longitude": -111.9093
      },
      "endLocation": {
        "latitude": 40.757367,
        "longitude": -111.898069
      },
      "startAddress": "815 Cynthia Place Suite 036",
      "endAddress": "4379 Evans Rapid Suite 136",
      "startCoords": {
        "latitude": 40.736332,
        "longitude": -111.958527
      },
      "endCoords": {
        "latitude": 40.769553,
        "longitude": -111.774671
      },
      "distanceMeters": 19281.3,
      "durationMs": 3393735,
      "drivingDurationMs": 2926778,
      "idlingDurationMs": 466957,
      "fuelConsumedMl": 2453,
      "fuelConsumedGallons": 0.648,
      "maxSpeedMph": 60.0,
      "averageSpeedMph": 12.7,
      "safetyEvents": [],
      "_no_driver_login": false,
      "_fuel_note": ""
    },
    {
      "id": "trip_48291025_20250307_001",
      "vehicleId": "48291025",
      "driverId": null,
      "startMs": 1741350240000,
      "endMs": 1741352006834,
      "startLocation": {
        "latitude": 40.737175,
        "longitude": -111.877438
      },
      "endLocation": {
        "latitude": 40.777948,
        "longitude": -111.777341
      },
      "startAddress": "89309 Gabriella Groves",
      "endAddress": "8209 Cruz Turnpike",
      "startCoords": {
        "latitude": 40.662233,
        "longitude": -111.888119
      },
      "endCoords": {
        "latitude": 40.792164,
        "longitude": -111.892959
      },
      "distanceMeters": 9215.4,
      "durationMs": 1766835,
      "drivingDurationMs": 1584698,
      "idlingDurationMs": 182137,
      "fuelConsumedMl": 1173,
      "fuelConsumedGallons": 0.31,
      "maxSpeedMph": 51.7,
      "averageSpeedMph": 11.7,
      "safetyEvents": [],
      "_no_driver_login": true,
      "_fuel_note": "QUIRK 5: fuelConsumedGallons is in US gallons. Multiply by 3.785 for litres. Samsara does not link fuel to specific Onfleet tasks."
    },
    {
      "id": "trip_48291025_20250307_002",
      "vehicleId": "48291025",
      "driverId": "22831024",
      "startMs": 1741369980000,
      "endMs": 1741379568775,
      "startLocation": {
        "latitude": 40.691021,
        "longitude": -111.919274
      },
      "endLocation": {
        "latitude": 40.72384,
        "longitude": -111.933932
      },
      "startAddress": "05122 Laura Estate",
      "endAddress": "251 Bernard Crescent Suite 036",
      "startCoords": {
        "latitude": 40.720921,
        "longitude": -111.866992
      },
      "endCoords": {
        "latitude": 40.677438,
        "longitude": -111.795675
      },
      "distanceMeters": 41448.2,
      "durationMs": 9588776,
      "drivingDurationMs": 7828163,
      "idlingDurationMs": 1760612,
      "fuelConsumedMl": 5269,
      "fuelConsumedGallons": 1.392,
      "maxSpeedMph": 58.4,
      "averageSpeedMph": 9.7,
      "safetyEvents": [],
      "_no_driver_login": false,
      "_fuel_note": ""
    },
    {
      "id": "trip_48291025_20250307_003",
      "vehicleId": "48291025",
      "driverId": "22831024",
      "startMs": 1741361880000,
      "endMs": 1741370237094,
      "startLocation": {
        "latitude": 40.754206,
        "longitude": -111.894961
      },
      "endLocation": {
        "latitude": 40.780288,
        "longitude": -111.82237
      },
      "startAddress": "062 White Valley",
      "endAddress": "3120 Vazquez Crossroad Suite 266",
      "startCoords": {
        "latitude": 40.723382,
        "longitude": -111.905636
      },
      "endCoords": {
        "latitude": 40.761156,
        "longitude": -111.959117
      },
      "distanceMeters": 57883.0,
      "durationMs": 8357094,
      "drivingDurationMs": 7124415,
      "idlingDurationMs": 1232679,
      "fuelConsumedMl": 7359,
      "fuelConsumedGallons": 1.944,
      "maxSpeedMph": 55.6,
      "averageSpeedMph": 15.5,
      "safetyEvents": [],
      "_no_driver_login": false,
      "_fuel_note": ""
    },
    {
      "id": "trip_48291025_20250307_004",
      "vehicleId": "48291025",
      "driverId": "22831024",
      "startMs": 1741340880000,
      "endMs": 1741346834089,
      "startLocation": {
        "latitude": 40.664525,
        "longitude": -111.841737
      },
      "endLocation": {
        "latitude": 40.704137,
        "longitude": -111.934588
      },
      "startAddress": "9707 Molina Crescent Suite 512",
      "endAddress": "491 Jennifer Isle Apt. 768",
      "startCoords": {
        "latitude": 40.794072,
        "longitude": -111.848248
      },
      "endCoords": {
        "latitude": 40.707782,
        "longitude": -111.847173
      },
      "distanceMeters": 40993.0,
      "durationMs": 5954089,
      "drivingDurationMs": 5598165,
      "idlingDurationMs": 355924,
      "fuelConsumedMl": 5213,
      "fuelConsumedGallons": 1.377,
      "maxSpeedMph": 46.4,
      "averageSpeedMph": 15.4,
      "safetyEvents": [],
      "_no_driver_login": false,
      "_fuel_note": ""
    },
    {
      "id": "trip_48291025_20250308_001",
      "vehicleId": "48291025",
      "driverId": "22831024",
      "startMs": 1741449180000,
      "endMs": 1741454791627,
      "startLocation": {
        "latitude": 40.664183,
        "longitude": -111.933649
      },
      "endLocation": {
        "latitude": 40.738244,
        "longitude": -111.839068
      },
      "startAddress": "41458 Shannon Track",
      "endAddress": "319 Michael Squares",
      "startCoords": {
        "latitude": 40.680804,
        "longitude": -111.807996
      },
      "endCoords": {
        "latitude": 40.793287,
        "longitude": -111.945017
      },
      "distanceMeters": 42381.0,
      "durationMs": 5611628,
      "drivingDurationMs": 5020529,
      "idlingDurationMs": 591099,
      "fuelConsumedMl": 5387,
      "fuelConsumedGallons": 1.423,
      "maxSpeedMph": 52.3,
      "averageSpeedMph": 16.9,
      "safetyEvents": [],
      "_no_driver_login": false,
      "_fuel_note": "QUIRK 5: fuelConsumedGallons is in US gallons. Multiply by 3.785 for litres. Samsara does not link fuel to specific Onfleet tasks."
    },
    {
      "id": "trip_48291025_20250308_002",
      "vehicleId": "48291025",
      "driverId": "22831024",
      "startMs": 1741432320000,
      "endMs": 1741436309082,
      "startLocation": {
        "latitude": 40.715383,
        "longitude": -111.868265
      },
      "endLocation": {
        "latitude": 40.671418,
        "longitude": -111.863368
      },
      "startAddress": "468 Victoria Skyway",
      "endAddress": "66142 Richardson Skyway Suite 093",
      "startCoords": {
        "latitude": 40.727381,
        "longitude": -111.888072
      },
      "endCoords": {
        "latitude": 40.761442,
        "longitude": -111.859602
      },
      "distanceMeters": 25676.5,
      "durationMs": 3989082,
      "drivingDurationMs": 3502156,
      "idlingDurationMs": 486926,
      "fuelConsumedMl": 3263,
      "fuelConsumedGallons": 0.862,
      "maxSpeedMph": 42.8,
      "averageSpeedMph": 14.4,
      "safetyEvents": [],
      "_no_driver_login": false,
      "_fuel_note": ""
    },
    {
      "id": "trip_48291025_20250309_001",
      "vehicleId": "48291025",
      "driverId": "22831024",
      "startMs": 1741530180000,
      "endMs": 1741531680537,
      "startLocation": {
        "latitude": 40.746657,
        "longitude": -111.866252
      },
      "endLocation": {
        "latitude": 40.664465,
        "longitude": -111.864438
      },
      "startAddress": "520 Taylor Wells",
      "endAddress": "218 Anna Spur",
      "startCoords": {
        "latitude": 40.666205,
        "longitude": -111.784839
      },
      "endCoords": {
        "latitude": 40.747072,
        "longitude": -111.94506
      },
      "distanceMeters": 9600.2,
      "durationMs": 1500537,
      "drivingDurationMs": 1302059,
      "idlingDurationMs": 198479,
      "fuelConsumedMl": 1219,
      "fuelConsumedGallons": 0.322,
      "maxSpeedMph": 70.3,
      "averageSpeedMph": 14.3,
      "safetyEvents": [
        {
          "type": "speeding",
          "startMs": 1741531440000,
          "maxSpeedMph": 70.3
        }
      ],
      "_no_driver_login": false,
      "_fuel_note": "QUIRK 5: fuelConsumedGallons is in US gallons. Multiply by 3.785 for litres. Samsara does not link fuel to specific Onfleet tasks."
    },
    {
      "id": "trip_48291025_20250309_002",
      "vehicleId": "48291025",
      "driverId": "22831024",
      "startMs": 1741502220000,
      "endMs": 1741503570356,
      "startLocation": {
        "latitude": 40.76338,
        "longitude": -111.953247
      },
      "endLocation": {
        "latitude": 40.695772,
        "longitude": -111.80297
      },
      "startAddress": "4656 Jones Port",
      "endAddress": "40913 Stone Loaf",
      "startCoords": {
        "latitude": 40.745735,
        "longitude": -111.905914
      },
      "endCoords": {
        "latitude": 40.740201,
        "longitude": -111.845894
      },
      "distanceMeters": 9733.6,
      "durationMs": 1350356,
      "drivingDurationMs": 1143552,
      "idlingDurationMs": 206805,
      "fuelConsumedMl": 1238,
      "fuelConsumedGallons": 0.327,
      "maxSpeedMph": 69.9,
      "averageSpeedMph": 16.1,
      "safetyEvents": [
        {
          "type": "speeding",
          "startMs": 1741502820000,
          "maxSpeedMph": 69.9
        }
      ],
      "_no_driver_login": false,
      "_fuel_note": ""
    },
    {
      "id": "trip_48291025_20250309_003",
      "vehicleId": "48291025",
      "driverId": "22831024",
      "startMs": 1741516200000,
      "endMs": 1741518971417,
      "startLocation": {
        "latitude": 40.732065,
        "longitude": -111.959568
      },
      "endLocation": {
        "latitude": 40.773443,
        "longitude": -111.8006
      },
      "startAddress": "590 Samantha Dale",
      "endAddress": "58124 Mcfarland Orchard",
      "startCoords": {
        "latitude": 40.721268,
        "longitude": -111.781172
      },
      "endCoords": {
        "latitude": 40.717103,
        "longitude": -111.91576
      },
      "distanceMeters": 20039.8,
      "durationMs": 2771418,
      "drivingDurationMs": 2524341,
      "idlingDurationMs": 247077,
      "fuelConsumedMl": 2548,
      "fuelConsumedGallons": 0.673,
      "maxSpeedMph": 59.4,
      "averageSpeedMph": 16.2,
      "safetyEvents": [],
      "_no_driver_login": false,
      "_fuel_note": ""
    },
    {
      "id": "trip_48291025_20250310_001",
      "vehicleId": "48291025",
      "driverId": "22831024",
      "startMs": 1741619760000,
      "endMs": 1741626922654,
      "startLocation": {
        "latitude": 40.692418,
        "longitude": -111.807294
      },
      "endLocation": {
        "latitude": 40.779843,
        "longitude": -111.792112
      },
      "startAddress": "230 Allen Forge Apt. 134",
      "endAddress": "3824 Scott Ports",
      "startCoords": {
        "latitude": 40.689796,
        "longitude": -111.86226
      },
      "endCoords": {
        "latitude": 40.764983,
        "longitude": -111.849415
      },
      "distanceMeters": 46820.9,
      "durationMs": 7162654,
      "drivingDurationMs": 5756992,
      "idlingDurationMs": 1405662,
      "fuelConsumedMl": 5954,
      "fuelConsumedGallons": 1.573,
      "maxSpeedMph": 50.7,
      "averageSpeedMph": 14.6,
      "safetyEvents": [],
      "_no_driver_login": false,
      "_fuel_note": "QUIRK 5: fuelConsumedGallons is in US gallons. Multiply by 3.785 for litres. Samsara does not link fuel to specific Onfleet tasks."
    },
    {
      "id": "trip_48291025_20250310_002",
      "vehicleId": "48291025",
      "driverId": "22831024",
      "startMs": 1741595460000,
      "endMs": 1741609403609,
      "startLocation": {
        "latitude": 40.710798,
        "longitude": -111.795877
      },
      "endLocation": {
        "latitude": 40.70816,
        "longitude": -111.849652
      },
      "startAddress": "5864 Jessica Dale",
      "endAddress": "3883 Glover Isle Apt. 618",
      "startCoords": {
        "latitude": 40.691113,
        "longitude": -111.956258
      },
      "endCoords": {
        "latitude": 40.751837,
        "longitude": -111.904511
      },
      "distanceMeters": 68572.6,
      "durationMs": 13943609,
      "drivingDurationMs": 11317634,
      "idlingDurationMs": 2625975,
      "fuelConsumedMl": 8718,
      "fuelConsumedGallons": 2.303,
      "maxSpeedMph": 40.3,
      "averageSpeedMph": 11.0,
      "safetyEvents": [],
      "_no_driver_login": false,
      "_fuel_note": ""
    },
    {
      "id": "trip_48291025_20250310_003",
      "vehicleId": "48291025",
      "driverId": "22831024",
      "startMs": 1741622580000,
      "endMs": 1741626960428,
      "startLocation": {
        "latitude": 40.775528,
        "longitude": -111.875725
      },
      "endLocation": {
        "latitude": 40.706519,
        "longitude": -111.85629
      },
      "startAddress": "0371 Edward Fords Apt. 118",
      "endAddress": "564 Stewart Expressway Apt. 214",
      "startCoords": {
        "latitude": 40.727617,
        "longitude": -111.849497
      },
      "endCoords": {
        "latitude": 40.682959,
        "longitude": -111.882689
      },
      "distanceMeters": 26036.7,
      "durationMs": 4380429,
      "drivingDurationMs": 4200257,
      "idlingDurationMs": 180172,
      "fuelConsumedMl": 3312,
      "fuelConsumedGallons": 0.875,
      "maxSpeedMph": 59.0,
      "averageSpeedMph": 13.3,
      "safetyEvents": [],
      "_no_driver_login": false,
      "_fuel_note": ""
    },
    {
      "id": "trip_48291025_20250310_004",
      "vehicleId": "48291025",
      "driverId": "22831024",
      "startMs": 1741619340000,
      "endMs": 1741620931120,
      "startLocation": {
        "latitude": 40.691919,
        "longitude": -111.830537
      },
      "endLocation": {
        "latitude": 40.675152,
        "longitude": -111.834935
      },
      "startAddress": "87779 Deborah Mall Suite 461",
      "endAddress": "360 King Island",
      "startCoords": {
        "latitude": 40.687177,
        "longitude": -111.810548
      },
      "endCoords": {
        "latitude": 40.786086,
        "longitude": -111.955291
      },
      "distanceMeters": 9248.0,
      "durationMs": 1591121,
      "drivingDurationMs": 1296667,
      "idlingDurationMs": 294453,
      "fuelConsumedMl": 1177,
      "fuelConsumedGallons": 0.311,
      "maxSpeedMph": 66.9,
      "averageSpeedMph": 13.0,
      "safetyEvents": [
        {
          "type": "speeding",
          "startMs": 1741619700000,
          "maxSpeedMph": 66.9
        }
      ],
      "_no_driver_login": false,
      "_fuel_note": ""
    },
    {
      "id": "trip_48291025_20250310_005",
      "vehicleId": "48291025",
      "driverId": "22831024",
      "startMs": 1741629600000,
      "endMs": 1741639152954,
      "startLocation": {
        "latitude": 40.786351,
        "longitude": -111.826358
      },
      "endLocation": {
        "latitude": 40.666782,
        "longitude": -111.775186
      },
      "startAddress": "9027 Green Junction Apt. 342",
      "endAddress": "45464 Austin Club",
      "startCoords": {
        "latitude": 40.675774,
        "longitude": -111.840359
      },
      "endCoords": {
        "latitude": 40.789851,
        "longitude": -111.927518
      },
      "distanceMeters": 53976.4,
      "durationMs": 9552954,
      "drivingDurationMs": 7983076,
      "idlingDurationMs": 1569878,
      "fuelConsumedMl": 6863,
      "fuelConsumedGallons": 1.813,
      "maxSpeedMph": 61.7,
      "averageSpeedMph": 12.6,
      "safetyEvents": [],
      "_no_driver_login": false,
      "_fuel_note": ""
    },
    {
      "id": "trip_48291025_20250310_006",
      "vehicleId": "48291025",
      "driverId": "22831024",
      "startMs": 1741620240000,
      "endMs": 1741637121931,
      "startLocation": {
        "latitude": 40.717697,
        "longitude": -111.86456
      },
      "endLocation": {
        "latitude": 40.781382,
        "longitude": -111.906625
      },
      "startAddress": "091 Keith Heights",
      "endAddress": "405 Michael Springs",
      "startCoords": {
        "latitude": 40.768242,
        "longitude": -111.775393
      },
      "endCoords": {
        "latitude": 40.698745,
        "longitude": -111.918299
      },
      "distanceMeters": 81122.9,
      "durationMs": 16881931,
      "drivingDurationMs": 13838878,
      "idlingDurationMs": 3043053,
      "fuelConsumedMl": 10315,
      "fuelConsumedGallons": 2.725,
      "maxSpeedMph": 49.4,
      "averageSpeedMph": 10.7,
      "safetyEvents": [],
      "_no_driver_login": false,
      "_fuel_note": ""
    },
    {
      "id": "trip_48291025_20250311_001",
      "vehicleId": "48291025",
      "driverId": "22831024",
      "startMs": 1741689540000,
      "endMs": 1741692717909,
      "startLocation": {
        "latitude": 40.707685,
        "longitude": -111.835767
      },
      "endLocation": {
        "latitude": 40.772053,
        "longitude": -111.875788
      },
      "startAddress": "245 May Crescent Apt. 421",
      "endAddress": "41053 Collins Inlet Apt. 453",
      "startCoords": {
        "latitude": 40.728499,
        "longitude": -111.812633
      },
      "endCoords": {
        "latitude": 40.77589,
        "longitude": -111.910458
      },
      "distanceMeters": 18026.8,
      "durationMs": 3177909,
      "drivingDurationMs": 2951272,
      "idlingDurationMs": 226637,
      "fuelConsumedMl": 2290,
      "fuelConsumedGallons": 0.605,
      "maxSpeedMph": 31.4,
      "averageSpeedMph": 12.7,
      "safetyEvents": [],
      "_no_driver_login": false,
      "_fuel_note": "QUIRK 5: fuelConsumedGallons is in US gallons. Multiply by 3.785 for litres. Samsara does not link fuel to specific Onfleet tasks."
    },
    {
      "id": "trip_48291025_20250311_002",
      "vehicleId": "48291025",
      "driverId": "22831024",
      "startMs": 1741683120000,
      "endMs": 1741692308140,
      "startLocation": {
        "latitude": 40.687456,
        "longitude": -111.855454
      },
      "endLocation": {
        "latitude": 40.686633,
        "longitude": -111.816781
      },
      "startAddress": "6473 Emily Villages Suite 687",
      "endAddress": "9280 Tate Burg Apt. 712",
      "startCoords": {
        "latitude": 40.758843,
        "longitude": -111.830876
      },
      "endCoords": {
        "latitude": 40.739068,
        "longitude": -111.813167
      },
      "distanceMeters": 51489.3,
      "durationMs": 9188140,
      "drivingDurationMs": 8029106,
      "idlingDurationMs": 1159035,
      "fuelConsumedMl": 6545,
      "fuelConsumedGallons": 1.729,
      "maxSpeedMph": 57.8,
      "averageSpeedMph": 12.5,
      "safetyEvents": [],
      "_no_driver_login": false,
      "_fuel_note": ""
    },
    {
      "id": "trip_48291025_20250311_003",
      "vehicleId": "48291025",
      "driverId": "22831024",
      "startMs": 1741677420000,
      "endMs": 1741689567814,
      "startLocation": {
        "latitude": 40.7774,
        "longitude": -111.828641
      },
      "endLocation": {
        "latitude": 40.787978,
        "longitude": -111.828611
      },
      "startAddress": "27894 Simpson Plaza",
      "endAddress": "223 Nancy Street Apt. 945",
      "startCoords": {
        "latitude": 40.710927,
        "longitude": -111.891593
      },
      "endCoords": {
        "latitude": 40.706567,
        "longitude": -111.854375
      },
      "distanceMeters": 74996.7,
      "durationMs": 12147815,
      "drivingDurationMs": 11691289,
      "idlingDurationMs": 456525,
      "fuelConsumedMl": 9535,
      "fuelConsumedGallons": 2.519,
      "maxSpeedMph": 50.3,
      "averageSpeedMph": 13.8,
      "safetyEvents": [],
      "_no_driver_login": false,
      "_fuel_note": ""
    },
    {
      "id": "trip_48291025_20250311_004",
      "vehicleId": "48291025",
      "driverId": "22831024",
      "startMs": 1741693080000,
      "endMs": 1741699772579,
      "startLocation": {
        "latitude": 40.779519,
        "longitude": -111.836952
      },
      "endLocation": {
        "latitude": 40.697565,
        "longitude": -111.941082
      },
      "startAddress": "85938 Maria Plains Suite 344",
      "endAddress": "4755 Jimmy Trace Apt. 827",
      "startCoords": {
        "latitude": 40.750458,
        "longitude": -111.928504
      },
      "endCoords": {
        "latitude": 40.743426,
        "longitude": -111.796779
      },
      "distanceMeters": 40884.7,
      "durationMs": 6692579,
      "drivingDurationMs": 5839160,
      "idlingDurationMs": 853419,
      "fuelConsumedMl": 5197,
      "fuelConsumedGallons": 1.373,
      "maxSpeedMph": 32.1,
      "averageSpeedMph": 13.7,
      "safetyEvents": [],
      "_no_driver_login": false,
      "_fuel_note": ""
    },
    {
      "id": "trip_48291025_20250311_005",
      "vehicleId": "48291025",
      "driverId": "22831024",
      "startMs": 1741683960000,
      "endMs": 1741688614460,
      "startLocation": {
        "latitude": 40.780724,
        "longitude": -111.857597
      },
      "endLocation": {
        "latitude": 40.660746,
        "longitude": -111.883834
      },
      "startAddress": "291 Patrick Gateway Suite 180",
      "endAddress": "071 Carter Crossing",
      "startCoords": {
        "latitude": 40.746057,
        "longitude": -111.942257
      },
      "endCoords": {
        "latitude": 40.69111,
        "longitude": -111.933981
      },
      "distanceMeters": 33729.6,
      "durationMs": 4654461,
      "drivingDurationMs": 4329292,
      "idlingDurationMs": 325169,
      "fuelConsumedMl": 4289,
      "fuelConsumedGallons": 1.133,
      "maxSpeedMph": 61.6,
      "averageSpeedMph": 16.2,
      "safetyEvents": [],
      "_no_driver_login": false,
      "_fuel_note": ""
    },
    {
      "id": "trip_48291025_20250312_001",
      "vehicleId": "48291025",
      "driverId": "22831024",
      "startMs": 1741792140000,
      "endMs": 1741796941534,
      "startLocation": {
        "latitude": 40.769808,
        "longitude": -111.809696
      },
      "endLocation": {
        "latitude": 40.747643,
        "longitude": -111.944975
      },
      "startAddress": "75962 Devin Field Apt. 544",
      "endAddress": "7281 Cassandra Mews",
      "startCoords": {
        "latitude": 40.714434,
        "longitude": -111.786223
      },
      "endCoords": {
        "latitude": 40.77205,
        "longitude": -111.938425
      },
      "distanceMeters": 29379.9,
      "durationMs": 4801534,
      "drivingDurationMs": 4370137,
      "idlingDurationMs": 431397,
      "fuelConsumedMl": 3736,
      "fuelConsumedGallons": 0.987,
      "maxSpeedMph": 55.4,
      "averageSpeedMph": 13.7,
      "safetyEvents": [],
      "_no_driver_login": false,
      "_fuel_note": "QUIRK 5: fuelConsumedGallons is in US gallons. Multiply by 3.785 for litres. Samsara does not link fuel to specific Onfleet tasks."
    },
    {
      "id": "trip_48291025_20250312_002",
      "vehicleId": "48291025",
      "driverId": "22831024",
      "startMs": 1741786980000,
      "endMs": 1741795877578,
      "startLocation": {
        "latitude": 40.67281,
        "longitude": -111.870142
      },
      "endLocation": {
        "latitude": 40.778338,
        "longitude": -111.928111
      },
      "startAddress": "06006 Lindsay Ferry",
      "endAddress": "677 Isaiah Unions",
      "startCoords": {
        "latitude": 40.721335,
        "longitude": -111.890623
      },
      "endCoords": {
        "latitude": 40.799578,
        "longitude": -111.92692
      },
      "distanceMeters": 56765.1,
      "durationMs": 8897578,
      "drivingDurationMs": 7479715,
      "idlingDurationMs": 1417863,
      "fuelConsumedMl": 7219,
      "fuelConsumedGallons": 1.907,
      "maxSpeedMph": 38.8,
      "averageSpeedMph": 14.3,
      "safetyEvents": [],
      "_no_driver_login": false,
      "_fuel_note": ""
    },
    {
      "id": "trip_48291025_20250312_003",
      "vehicleId": "48291025",
      "driverId": "22831024",
      "startMs": 1741760160000,
      "endMs": 1741765272106,
      "startLocation": {
        "latitude": 40.672544,
        "longitude": -111.805271
      },
      "endLocation": {
        "latitude": 40.65942,
        "longitude": -111.828039
      },
      "startAddress": "12153 Fields Route Apt. 212",
      "endAddress": "416 Roger Parkway Suite 182",
      "startCoords": {
        "latitude": 40.73035,
        "longitude": -111.933114
      },
      "endCoords": {
        "latitude": 40.786119,
        "longitude": -111.861831
      },
      "distanceMeters": 33473.3,
      "durationMs": 5112107,
      "drivingDurationMs": 4434768,
      "idlingDurationMs": 677339,
      "fuelConsumedMl": 4255,
      "fuelConsumedGallons": 1.124,
      "maxSpeedMph": 56.0,
      "averageSpeedMph": 14.6,
      "safetyEvents": [],
      "_no_driver_login": false,
      "_fuel_note": ""
    },
    {
      "id": "trip_48291025_20250312_004",
      "vehicleId": "48291025",
      "driverId": "22831024",
      "startMs": 1741795800000,
      "endMs": 1741805509509,
      "startLocation": {
        "latitude": 40.719457,
        "longitude": -111.800401
      },
      "endLocation": {
        "latitude": 40.792903,
        "longitude": -111.805596
      },
      "startAddress": "07007 Elizabeth Way",
      "endAddress": "501 Michael Spurs Apt. 924",
      "startCoords": {
        "latitude": 40.745033,
        "longitude": -111.885474
      },
      "endCoords": {
        "latitude": 40.768381,
        "longitude": -111.794043
      },
      "distanceMeters": 56715.2,
      "durationMs": 9709510,
      "drivingDurationMs": 8044952,
      "idlingDurationMs": 1664557,
      "fuelConsumedMl": 7211,
      "fuelConsumedGallons": 1.905,
      "maxSpeedMph": 55.5,
      "averageSpeedMph": 13.1,
      "safetyEvents": [],
      "_no_driver_login": false,
      "_fuel_note": ""
    },
    {
      "id": "trip_48291025_20250312_005",
      "vehicleId": "48291025",
      "driverId": "22831024",
      "startMs": 1741799160000,
      "endMs": 1741805271723,
      "startLocation": {
        "latitude": 40.797865,
        "longitude": -111.914607
      },
      "endLocation": {
        "latitude": 40.662677,
        "longitude": -111.907594
      },
      "startAddress": "500 Moran Isle",
      "endAddress": "490 Samantha Stravenue",
      "startCoords": {
        "latitude": 40.781335,
        "longitude": -111.960628
      },
      "endCoords": {
        "latitude": 40.658883,
        "longitude": -111.944806
      },
      "distanceMeters": 31308.3,
      "durationMs": 6111723,
      "drivingDurationMs": 5456391,
      "idlingDurationMs": 655332,
      "fuelConsumedMl": 3982,
      "fuelConsumedGallons": 1.052,
      "maxSpeedMph": 69.3,
      "averageSpeedMph": 11.5,
      "safetyEvents": [
        {
          "type": "speeding",
          "startMs": 1741801920000,
          "maxSpeedMph": 69.3
        }
      ],
      "_no_driver_login": false,
      "_fuel_note": ""
    },
    {
      "id": "trip_48291025_20250312_006",
      "vehicleId": "48291025",
      "driverId": "22831024",
      "startMs": 1741772580000,
      "endMs": 1741777879618,
      "startLocation": {
        "latitude": 40.747829,
        "longitude": -111.961625
      },
      "endLocation": {
        "latitude": 40.756444,
        "longitude": -111.789106
      },
      "startAddress": "680 Cynthia Mount",
      "endAddress": "6172 Chen Cliff Suite 331",
      "startCoords": {
        "latitude": 40.674403,
        "longitude": -111.936467
      },
      "endCoords": {
        "latitude": 40.798377,
        "longitude": -111.957691
      },
      "distanceMeters": 23975.3,
      "durationMs": 5299619,
      "drivingDurationMs": 4273493,
      "idlingDurationMs": 1026125,
      "fuelConsumedMl": 3047,
      "fuelConsumedGallons": 0.805,
      "maxSpeedMph": 46.5,
      "averageSpeedMph": 10.1,
      "safetyEvents": [],
      "_no_driver_login": false,
      "_fuel_note": ""
    },
    {
      "id": "trip_48291025_20250313_001",
      "vehicleId": "48291025",
      "driverId": "22831024",
      "startMs": 1741868580000,
      "endMs": 1741881454099,
      "startLocation": {
        "latitude": 40.785101,
        "longitude": -111.841465
      },
      "endLocation": {
        "latitude": 40.708929,
        "longitude": -111.816142
      },
      "startAddress": "2396 Espinoza Crossing",
      "endAddress": "34770 Tiffany Bypass Suite 212",
      "startCoords": {
        "latitude": 40.70828,
        "longitude": -111.834271
      },
      "endCoords": {
        "latitude": 40.789241,
        "longitude": -111.916991
      },
      "distanceMeters": 63314.9,
      "durationMs": 12874099,
      "drivingDurationMs": 11352310,
      "idlingDurationMs": 1521790,
      "fuelConsumedMl": 8052,
      "fuelConsumedGallons": 2.127,
      "maxSpeedMph": 42.7,
      "averageSpeedMph": 11.0,
      "safetyEvents": [],
      "_no_driver_login": false,
      "_fuel_note": "QUIRK 5: fuelConsumedGallons is in US gallons. Multiply by 3.785 for litres. Samsara does not link fuel to specific Onfleet tasks."
    },
    {
      "id": "trip_48291025_20250313_002",
      "vehicleId": "48291025",
      "driverId": "22831024",
      "startMs": 1741856340000,
      "endMs": 1741860700014,
      "startLocation": {
        "latitude": 40.66459,
        "longitude": -111.883152
      },
      "endLocation": {
        "latitude": 40.753216,
        "longitude": -111.919351
      },
      "startAddress": "85506 Frank Lights Suite 304",
      "endAddress": "42624 Lori Landing Apt. 737",
      "startCoords": {
        "latitude": 40.698228,
        "longitude": -111.903935
      },
      "endCoords": {
        "latitude": 40.684089,
        "longitude": -111.896965
      },
      "distanceMeters": 32500.9,
      "durationMs": 4360014,
      "drivingDurationMs": 4019211,
      "idlingDurationMs": 340804,
      "fuelConsumedMl": 4134,
      "fuelConsumedGallons": 1.092,
      "maxSpeedMph": 33.9,
      "averageSpeedMph": 16.7,
      "safetyEvents": [],
      "_no_driver_login": false,
      "_fuel_note": ""
    },
    {
      "id": "trip_48291025_20250313_003",
      "vehicleId": "48291025",
      "driverId": "22831024",
      "startMs": 1741881960000,
      "endMs": 1741888104386,
      "startLocation": {
        "latitude": 40.7982,
        "longitude": -111.936234
      },
      "endLocation": {
        "latitude": 40.691012,
        "longitude": -111.933982
      },
      "startAddress": "11231 Karen Plaza",
      "endAddress": "7218 Duncan Run Apt. 730",
      "startCoords": {
        "latitude": 40.685988,
        "longitude": -111.842015
      },
      "endCoords": {
        "latitude": 40.706499,
        "longitude": -111.948103
      },
      "distanceMeters": 42840.5,
      "durationMs": 6144386,
      "drivingDurationMs": 5008495,
      "idlingDurationMs": 1135891,
      "fuelConsumedMl": 5447,
      "fuelConsumedGallons": 1.439,
      "maxSpeedMph": 65.2,
      "averageSpeedMph": 15.6,
      "safetyEvents": [
        {
          "type": "speeding",
          "startMs": 1741884060000,
          "maxSpeedMph": 65.2
        }
      ],
      "_no_driver_login": false,
      "_fuel_note": ""
    },
    {
      "id": "trip_48291025_20250313_004",
      "vehicleId": "48291025",
      "driverId": "22831024",
      "startMs": 1741853040000,
      "endMs": 1741857866941,
      "startLocation": {
        "latitude": 40.720873,
        "longitude": -111.807743
      },
      "endLocation": {
        "latitude": 40.700997,
        "longitude": -111.824902
      },
      "startAddress": "108 Troy Gardens",
      "endAddress": "0779 Joseph Shoals",
      "startCoords": {
        "latitude": 40.730034,
        "longitude": -111.894433
      },
      "endCoords": {
        "latitude": 40.747662,
        "longitude": -111.927021
      },
      "distanceMeters": 36791.4,
      "durationMs": 4826942,
      "drivingDurationMs": 4203236,
      "idlingDurationMs": 623706,
      "fuelConsumedMl": 4679,
      "fuelConsumedGallons": 1.236,
      "maxSpeedMph": 31.2,
      "averageSpeedMph": 17.1,
      "safetyEvents": [],
      "_no_driver_login": false,
      "_fuel_note": ""
    },
    {
      "id": "trip_48291025_20250313_005",
      "vehicleId": "48291025",
      "driverId": "22831024",
      "startMs": 1741883880000,
      "endMs": 1741885240670,
      "startLocation": {
        "latitude": 40.684705,
        "longitude": -111.832905
      },
      "endLocation": {
        "latitude": 40.687232,
        "longitude": -111.793662
      },
      "startAddress": "754 Kenneth Rapid",
      "endAddress": "87979 Hartman Neck",
      "startCoords": {
        "latitude": 40.707763,
        "longitude": -111.904339
      },
      "endCoords": {
        "latitude": 40.710512,
        "longitude": -111.8855
      },
      "distanceMeters": 9690.7,
      "durationMs": 1360670,
      "drivingDurationMs": 1119393,
      "idlingDurationMs": 241277,
      "fuelConsumedMl": 1230,
      "fuelConsumedGallons": 0.325,
      "maxSpeedMph": 47.7,
      "averageSpeedMph": 15.9,
      "safetyEvents": [],
      "_no_driver_login": false,
      "_fuel_note": ""
    },
    {
      "id": "trip_48291025_20250314_001",
      "vehicleId": "48291025",
      "driverId": "22831024",
      "startMs": 1741969620000,
      "endMs": 1741975809093,
      "startLocation": {
        "latitude": 40.664186,
        "longitude": -111.892217
      },
      "endLocation": {
        "latitude": 40.67511,
        "longitude": -111.818682
      },
      "startAddress": "33708 Walker Gardens Suite 260",
      "endAddress": "579 Ryan Green",
      "startCoords": {
        "latitude": 40.7766,
        "longitude": -111.946855
      },
      "endCoords": {
        "latitude": 40.673441,
        "longitude": -111.786653
      },
      "distanceMeters": 48121.7,
      "durationMs": 6189094,
      "drivingDurationMs": 5652207,
      "idlingDurationMs": 536887,
      "fuelConsumedMl": 6117,
      "fuelConsumedGallons": 1.616,
      "maxSpeedMph": 42.9,
      "averageSpeedMph": 17.4,
      "safetyEvents": [],
      "_no_driver_login": false,
      "_fuel_note": "QUIRK 5: fuelConsumedGallons is in US gallons. Multiply by 3.785 for litres. Samsara does not link fuel to specific Onfleet tasks."
    },
    {
      "id": "trip_48291025_20250314_002",
      "vehicleId": "48291025",
      "driverId": "22831024",
      "startMs": 1741934820000,
      "endMs": 1741947287292,
      "startLocation": {
        "latitude": 40.761034,
        "longitude": -111.806734
      },
      "endLocation": {
        "latitude": 40.68551,
        "longitude": -111.91418
      },
      "startAddress": "8475 Lisa Grove Suite 864",
      "endAddress": "2553 Tracey Junctions",
      "startCoords": {
        "latitude": 40.708187,
        "longitude": -111.960126
      },
      "endCoords": {
        "latitude": 40.684911,
        "longitude": -111.813559
      },
      "distanceMeters": 79938.6,
      "durationMs": 12467292,
      "drivingDurationMs": 10903389,
      "idlingDurationMs": 1563904,
      "fuelConsumedMl": 10164,
      "fuelConsumedGallons": 2.685,
      "maxSpeedMph": 39.0,
      "averageSpeedMph": 14.3,
      "safetyEvents": [],
      "_no_driver_login": false,
      "_fuel_note": ""
    },
    {
      "id": "trip_48291025_20250315_001",
      "vehicleId": "48291025",
      "driverId": "22831024",
      "startMs": 1742036520000,
      "endMs": 1742045057751,
      "startLocation": {
        "latitude": 40.793328,
        "longitude": -111.953591
      },
      "endLocation": {
        "latitude": 40.703536,
        "longitude": -111.954411
      },
      "startAddress": "327 Heather Plains",
      "endAddress": "4195 Morris Coves Suite 781",
      "startCoords": {
        "latitude": 40.661169,
        "longitude": -111.78798
      },
      "endCoords": {
        "latitude": 40.757454,
        "longitude": -111.948041
      },
      "distanceMeters": 59941.6,
      "durationMs": 8537751,
      "drivingDurationMs": 7222877,
      "idlingDurationMs": 1314874,
      "fuelConsumedMl": 7620,
      "fuelConsumedGallons": 2.013,
      "maxSpeedMph": 37.5,
      "averageSpeedMph": 15.7,
      "safetyEvents": [],
      "_no_driver_login": false,
      "_fuel_note": "QUIRK 5: fuelConsumedGallons is in US gallons. Multiply by 3.785 for litres. Samsara does not link fuel to specific Onfleet tasks."
    },
    {
      "id": "trip_48291025_20250316_001",
      "vehicleId": "48291025",
      "driverId": "22831024",
      "startMs": 1742147640000,
      "endMs": 1742153997921,
      "startLocation": {
        "latitude": 40.708337,
        "longitude": -111.834849
      },
      "endLocation": {
        "latitude": 40.726834,
        "longitude": -111.945839
      },
      "startAddress": "47631 Jackson Plains Suite 996",
      "endAddress": "3408 Gutierrez Ports Apt. 802",
      "startCoords": {
        "latitude": 40.775488,
        "longitude": -111.811867
      },
      "endCoords": {
        "latitude": 40.697099,
        "longitude": -111.874865
      },
      "distanceMeters": 43693.7,
      "durationMs": 6357921,
      "drivingDurationMs": 5811008,
      "idlingDurationMs": 546914,
      "fuelConsumedMl": 5557,
      "fuelConsumedGallons": 1.468,
      "maxSpeedMph": 58.2,
      "averageSpeedMph": 15.4,
      "safetyEvents": [],
      "_no_driver_login": false,
      "_fuel_note": "QUIRK 5: fuelConsumedGallons is in US gallons. Multiply by 3.785 for litres. Samsara does not link fuel to specific Onfleet tasks."
    },
    {
      "id": "trip_48291025_20250316_002",
      "vehicleId": "48291025",
      "driverId": "22831024",
      "startMs": 1742142960000,
      "endMs": 1742147269506,
      "startLocation": {
        "latitude": 40.737516,
        "longitude": -111.873611
      },
      "endLocation": {
        "latitude": 40.767411,
        "longitude": -111.799051
      },
      "startAddress": "14452 Larry Squares",
      "endAddress": "6315 Zuniga Run",
      "startCoords": {
        "latitude": 40.790207,
        "longitude": -111.90197
      },
      "endCoords": {
        "latitude": 40.754587,
        "longitude": -111.785022
      },
      "distanceMeters": 25508.4,
      "durationMs": 4309506,
      "drivingDurationMs": 3484972,
      "idlingDurationMs": 824534,
      "fuelConsumedMl": 3244,
      "fuelConsumedGallons": 0.857,
      "maxSpeedMph": 34.4,
      "averageSpeedMph": 13.2,
      "safetyEvents": [],
      "_no_driver_login": false,
      "_fuel_note": ""
    },
    {
      "id": "trip_48291025_20250316_003",
      "vehicleId": "48291025",
      "driverId": "22831024",
      "startMs": 1742105760000,
      "endMs": 1742115156864,
      "startLocation": {
        "latitude": 40.780194,
        "longitude": -111.893486
      },
      "endLocation": {
        "latitude": 40.731138,
        "longitude": -111.821985
      },
      "startAddress": "3483 Williams Village",
      "endAddress": "263 Wiley Spring",
      "startCoords": {
        "latitude": 40.763688,
        "longitude": -111.952431
      },
      "endCoords": {
        "latitude": 40.729359,
        "longitude": -111.785666
      },
      "distanceMeters": 56213.6,
      "durationMs": 9396864,
      "drivingDurationMs": 8869833,
      "idlingDurationMs": 527031,
      "fuelConsumedMl": 7147,
      "fuelConsumedGallons": 1.888,
      "maxSpeedMph": 67.9,
      "averageSpeedMph": 13.4,
      "safetyEvents": [
        {
          "type": "speeding",
          "startMs": 1742108880000,
          "maxSpeedMph": 67.9
        }
      ],
      "_no_driver_login": false,
      "_fuel_note": ""
    },
    {
      "id": "trip_48291025_20250316_004",
      "vehicleId": "48291025",
      "driverId": "22831024",
      "startMs": 1742110920000,
      "endMs": 1742114790633,
      "startLocation": {
        "latitude": 40.709074,
        "longitude": -111.959664
      },
      "endLocation": {
        "latitude": 40.728607,
        "longitude": -111.96201
      },
      "startAddress": "3335 Johnson Fork Suite 110",
      "endAddress": "1750 Drew Mews Suite 179",
      "startCoords": {
        "latitude": 40.726783,
        "longitude": -111.837795
      },
      "endCoords": {
        "latitude": 40.757575,
        "longitude": -111.931881
      },
      "distanceMeters": 24043.0,
      "durationMs": 3870633,
      "drivingDurationMs": 3298029,
      "idlingDurationMs": 572605,
      "fuelConsumedMl": 3059,
      "fuelConsumedGallons": 0.808,
      "maxSpeedMph": 45.5,
      "averageSpeedMph": 13.9,
      "safetyEvents": [],
      "_no_driver_login": false,
      "_fuel_note": ""
    },
    {
      "id": "trip_48291025_20250317_001",
      "vehicleId": "48291025",
      "driverId": "22831024",
      "startMs": 1742220960000,
      "endMs": 1742238607057,
      "startLocation": {
        "latitude": 40.730481,
        "longitude": -111.923536
      },
      "endLocation": {
        "latitude": 40.739375,
        "longitude": -111.951161
      },
      "startAddress": "67601 Burgess Estate",
      "endAddress": "0868 King Viaduct",
      "startCoords": {
        "latitude": 40.69615,
        "longitude": -111.80079
      },
      "endCoords": {
        "latitude": 40.718693,
        "longitude": -111.82863
      },
      "distanceMeters": 79178.6,
      "durationMs": 17647057,
      "drivingDurationMs": 14491571,
      "idlingDurationMs": 3155486,
      "fuelConsumedMl": 10065,
      "fuelConsumedGallons": 2.659,
      "maxSpeedMph": 37.3,
      "averageSpeedMph": 10.0,
      "safetyEvents": [],
      "_no_driver_login": false,
      "_fuel_note": "QUIRK 5: fuelConsumedGallons is in US gallons. Multiply by 3.785 for litres. Samsara does not link fuel to specific Onfleet tasks."
    },
    {
      "id": "trip_48291025_20250317_002",
      "vehicleId": "48291025",
      "driverId": "22831024",
      "startMs": 1742205000000,
      "endMs": 1742210755274,
      "startLocation": {
        "latitude": 40.696371,
        "longitude": -111.909395
      },
      "endLocation": {
        "latitude": 40.66467,
        "longitude": -111.875066
      },
      "startAddress": "25770 White Way",
      "endAddress": "0849 Short Manors",
      "startCoords": {
        "latitude": 40.796355,
        "longitude": -111.9131
      },
      "endCoords": {
        "latitude": 40.705577,
        "longitude": -111.927392
      },
      "distanceMeters": 40860.5,
      "durationMs": 5755275,
      "drivingDurationMs": 4795096,
      "idlingDurationMs": 960178,
      "fuelConsumedMl": 5194,
      "fuelConsumedGallons": 1.372,
      "maxSpeedMph": 69.8,
      "averageSpeedMph": 15.9,
      "safetyEvents": [
        {
          "type": "speeding",
          "startMs": 1742207580000,
          "maxSpeedMph": 69.8
        }
      ],
      "_no_driver_login": false,
      "_fuel_note": ""
    },
    {
      "id": "trip_48291025_20250318_001",
      "vehicleId": "48291025",
      "driverId": "22831024",
      "startMs": 1742280960000,
      "endMs": 1742287986761,
      "startLocation": {
        "latitude": 40.679563,
        "longitude": -111.846851
      },
      "endLocation": {
        "latitude": 40.748301,
        "longitude": -111.853975
      },
      "startAddress": "4256 James Extensions",
      "endAddress": "75541 Peters Prairie Apt. 900",
      "startCoords": {
        "latitude": 40.664923,
        "longitude": -111.935151
      },
      "endCoords": {
        "latitude": 40.732592,
        "longitude": -111.878597
      },
      "distanceMeters": 36173.0,
      "durationMs": 7026761,
      "drivingDurationMs": 5902613,
      "idlingDurationMs": 1124148,
      "fuelConsumedMl": 4599,
      "fuelConsumedGallons": 1.215,
      "maxSpeedMph": 46.4,
      "averageSpeedMph": 11.5,
      "safetyEvents": [],
      "_no_driver_login": false,
      "_fuel_note": "QUIRK 5: fuelConsumedGallons is in US gallons. Multiply by 3.785 for litres. Samsara does not link fuel to specific Onfleet tasks."
    },
    {
      "id": "trip_48291025_20250318_002",
      "vehicleId": "48291025",
      "driverId": "22831024",
      "startMs": 1742298540000,
      "endMs": 1742310863494,
      "startLocation": {
        "latitude": 40.772032,
        "longitude": -111.866471
      },
      "endLocation": {
        "latitude": 40.769139,
        "longitude": -111.845411
      },
      "startAddress": "53021 Ryan Valley Suite 053",
      "endAddress": "399 Fuller Pines",
      "startCoords": {
        "latitude": 40.76042,
        "longitude": -111.81704
      },
      "endCoords": {
        "latitude": 40.77399,
        "longitude": -111.888977
      },
      "distanceMeters": 75102.7,
      "durationMs": 12323495,
      "drivingDurationMs": 11110905,
      "idlingDurationMs": 1212590,
      "fuelConsumedMl": 9551,
      "fuelConsumedGallons": 2.523,
      "maxSpeedMph": 36.5,
      "averageSpeedMph": 13.6,
      "safetyEvents": [],
      "_no_driver_login": false,
      "_fuel_note": ""
    },
    {
      "id": "trip_48291025_20250318_003",
      "vehicleId": "48291025",
      "driverId": "22831024",
      "startMs": 1742289180000,
      "endMs": 1742292998390,
      "startLocation": {
        "latitude": 40.769318,
        "longitude": -111.912761
      },
      "endLocation": {
        "latitude": 40.68603,
        "longitude": -111.820084
      },
      "startAddress": "18881 Hartman Pines",
      "endAddress": "260 Wall Drive",
      "startCoords": {
        "latitude": 40.683692,
        "longitude": -111.816076
      },
      "endCoords": {
        "latitude": 40.793344,
        "longitude": -111.854581
      },
      "distanceMeters": 18382.5,
      "durationMs": 3818391,
      "drivingDurationMs": 3486404,
      "idlingDurationMs": 331987,
      "fuelConsumedMl": 2336,
      "fuelConsumedGallons": 0.617,
      "maxSpeedMph": 50.7,
      "averageSpeedMph": 10.8,
      "safetyEvents": [],
      "_no_driver_login": false,
      "_fuel_note": ""
    },
    {
      "id": "trip_48291025_20250318_004",
      "vehicleId": "48291025",
      "driverId": "22831024",
      "startMs": 1742288640000,
      "endMs": 1742299073824,
      "startLocation": {
        "latitude": 40.686497,
        "longitude": -111.779953
      },
      "endLocation": {
        "latitude": 40.671883,
        "longitude": -111.945805
      },
      "startAddress": "02635 Rivera Pike Apt. 180",
      "endAddress": "88348 Christine Track",
      "startCoords": {
        "latitude": 40.780673,
        "longitude": -111.849995
      },
      "endCoords": {
        "latitude": 40.677598,
        "longitude": -111.776615
      },
      "distanceMeters": 66299.8,
      "durationMs": 10433825,
      "drivingDurationMs": 8975473,
      "idlingDurationMs": 1458351,
      "fuelConsumedMl": 8430,
      "fuelConsumedGallons": 2.227,
      "maxSpeedMph": 50.1,
      "averageSpeedMph": 14.2,
      "safetyEvents": [],
      "_no_driver_login": false,
      "_fuel_note": ""
    },
    {
      "id": "trip_48291025_20250318_005",
      "vehicleId": "48291025",
      "driverId": "22831024",
      "startMs": 1742313900000,
      "endMs": 1742327659507,
      "startLocation": {
        "latitude": 40.774458,
        "longitude": -111.946652
      },
      "endLocation": {
        "latitude": 40.752629,
        "longitude": -111.818993
      },
      "startAddress": "6531 Whitney Glen",
      "endAddress": "4164 Kelly Creek",
      "startCoords": {
        "latitude": 40.74797,
        "longitude": -111.866414
      },
      "endCoords": {
        "latitude": 40.764403,
        "longitude": -111.8557
      },
      "distanceMeters": 84123.3,
      "durationMs": 13759507,
      "drivingDurationMs": 12690157,
      "idlingDurationMs": 1069350,
      "fuelConsumedMl": 10698,
      "fuelConsumedGallons": 2.826,
      "maxSpeedMph": 46.0,
      "averageSpeedMph": 13.7,
      "safetyEvents": [],
      "_no_driver_login": false,
      "_fuel_note": ""
    },
    {
      "id": "trip_48291025_20250318_006",
      "vehicleId": "48291025",
      "driverId": "22831024",
      "startMs": 1742310900000,
      "endMs": 1742322474478,
      "startLocation": {
        "latitude": 40.74501,
        "longitude": -111.934807
      },
      "endLocation": {
        "latitude": 40.704717,
        "longitude": -111.866055
      },
      "startAddress": "161 Hernandez Creek",
      "endAddress": "5986 Michael Brooks Suite 237",
      "startCoords": {
        "latitude": 40.731644,
        "longitude": -111.888703
      },
      "endCoords": {
        "latitude": 40.743343,
        "longitude": -111.845807
      },
      "distanceMeters": 75509.7,
      "durationMs": 11574478,
      "drivingDurationMs": 9389382,
      "idlingDurationMs": 2185096,
      "fuelConsumedMl": 9600,
      "fuelConsumedGallons": 2.536,
      "maxSpeedMph": 46.0,
      "averageSpeedMph": 14.6,
      "safetyEvents": [],
      "_no_driver_login": false,
      "_fuel_note": ""
    },
    {
      "id": "trip_48291025_20250319_001",
      "vehicleId": "48291025",
      "driverId": "22831024",
      "startMs": 1742373360000,
      "endMs": 1742376099366,
      "startLocation": {
        "latitude": 40.780302,
        "longitude": -111.869122
      },
      "endLocation": {
        "latitude": 40.743427,
        "longitude": -111.774841
      },
      "startAddress": "549 Oliver Terrace Suite 363",
      "endAddress": "46920 Farrell Knoll Apt. 202",
      "startCoords": {
        "latitude": 40.693419,
        "longitude": -111.890122
      },
      "endCoords": {
        "latitude": 40.741281,
        "longitude": -111.819365
      },
      "distanceMeters": 14496.8,
      "durationMs": 2739367,
      "drivingDurationMs": 2414502,
      "idlingDurationMs": 324865,
      "fuelConsumedMl": 1843,
      "fuelConsumedGallons": 0.487,
      "maxSpeedMph": 44.9,
      "averageSpeedMph": 11.8,
      "safetyEvents": [],
      "_no_driver_login": false,
      "_fuel_note": "QUIRK 5: fuelConsumedGallons is in US gallons. Multiply by 3.785 for litres. Samsara does not link fuel to specific Onfleet tasks."
    },
    {
      "id": "trip_48291025_20250319_002",
      "vehicleId": "48291025",
      "driverId": "22831024",
      "startMs": 1742398080000,
      "endMs": 1742401544669,
      "startLocation": {
        "latitude": 40.778289,
        "longitude": -111.815544
      },
      "endLocation": {
        "latitude": 40.702106,
        "longitude": -111.92841
      },
      "startAddress": "46840 Danielle Park Suite 219",
      "endAddress": "57952 Wang Hollow Suite 309",
      "startCoords": {
        "latitude": 40.784863,
        "longitude": -111.90499
      },
      "endCoords": {
        "latitude": 40.754993,
        "longitude": -111.854913
      },
      "distanceMeters": 23507.8,
      "durationMs": 3464669,
      "drivingDurationMs": 2969973,
      "idlingDurationMs": 494696,
      "fuelConsumedMl": 2990,
      "fuelConsumedGallons": 0.79,
      "maxSpeedMph": 57.8,
      "averageSpeedMph": 15.2,
      "safetyEvents": [],
      "_no_driver_login": false,
      "_fuel_note": ""
    },
    {
      "id": "trip_48291025_20250319_003",
      "vehicleId": "48291025",
      "driverId": "22831024",
      "startMs": 1742365740000,
      "endMs": 1742372490383,
      "startLocation": {
        "latitude": 40.751616,
        "longitude": -111.866221
      },
      "endLocation": {
        "latitude": 40.716472,
        "longitude": -111.949074
      },
      "startAddress": "7594 Rebecca Pines Apt. 745",
      "endAddress": "238 Mercado Plains",
      "startCoords": {
        "latitude": 40.739473,
        "longitude": -111.777373
      },
      "endCoords": {
        "latitude": 40.701686,
        "longitude": -111.816238
      },
      "distanceMeters": 53485.2,
      "durationMs": 6750384,
      "drivingDurationMs": 6503508,
      "idlingDurationMs": 246876,
      "fuelConsumedMl": 6799,
      "fuelConsumedGallons": 1.796,
      "maxSpeedMph": 38.8,
      "averageSpeedMph": 17.7,
      "safetyEvents": [],
      "_no_driver_login": false,
      "_fuel_note": ""
    },
    {
      "id": "trip_48291025_20250319_004",
      "vehicleId": "48291025",
      "driverId": "22831024",
      "startMs": 1742401200000,
      "endMs": 1742410363194,
      "startLocation": {
        "latitude": 40.755753,
        "longitude": -111.953812
      },
      "endLocation": {
        "latitude": 40.703937,
        "longitude": -111.776521
      },
      "startAddress": "256 Jenny Run",
      "endAddress": "7151 Coffey Square Suite 119",
      "startCoords": {
        "latitude": 40.659791,
        "longitude": -111.88877
      },
      "endCoords": {
        "latitude": 40.719321,
        "longitude": -111.814005
      },
      "distanceMeters": 45088.6,
      "durationMs": 9163194,
      "drivingDurationMs": 8003020,
      "idlingDurationMs": 1160174,
      "fuelConsumedMl": 5731,
      "fuelConsumedGallons": 1.514,
      "maxSpeedMph": 54.3,
      "averageSpeedMph": 11.0,
      "safetyEvents": [],
      "_no_driver_login": false,
      "_fuel_note": ""
    },
    {
      "id": "trip_48291025_20250320_001",
      "vehicleId": "48291025",
      "driverId": "22831024",
      "startMs": 1742479320000,
      "endMs": 1742482265757,
      "startLocation": {
        "latitude": 40.787124,
        "longitude": -111.89277
      },
      "endLocation": {
        "latitude": 40.727807,
        "longitude": -111.85066
      },
      "startAddress": "002 Gomez Corners",
      "endAddress": "9146 Thomas Run Apt. 956",
      "startCoords": {
        "latitude": 40.666816,
        "longitude": -111.78124
      },
      "endCoords": {
        "latitude": 40.677031,
        "longitude": -111.960997
      },
      "distanceMeters": 19375.3,
      "durationMs": 2945758,
      "drivingDurationMs": 2508749,
      "idlingDurationMs": 437009,
      "fuelConsumedMl": 2464,
      "fuelConsumedGallons": 0.651,
      "maxSpeedMph": 49.3,
      "averageSpeedMph": 14.7,
      "safetyEvents": [],
      "_no_driver_login": false,
      "_fuel_note": "QUIRK 5: fuelConsumedGallons is in US gallons. Multiply by 3.785 for litres. Samsara does not link fuel to specific Onfleet tasks."
    },
    {
      "id": "trip_48291025_20250320_002",
      "vehicleId": "48291025",
      "driverId": "22831024",
      "startMs": 1742455020000,
      "endMs": 1742456190946,
      "startLocation": {
        "latitude": 40.784581,
        "longitude": -111.815037
      },
      "endLocation": {
        "latitude": 40.771891,
        "longitude": -111.80209
      },
      "startAddress": "068 Karen Harbors",
      "endAddress": "6690 Dwayne Junctions",
      "startCoords": {
        "latitude": 40.660052,
        "longitude": -111.873464
      },
      "endCoords": {
        "latitude": 40.703623,
        "longitude": -111.806981
      },
      "distanceMeters": 7547.7,
      "durationMs": 1170946,
      "drivingDurationMs": 986865,
      "idlingDurationMs": 184081,
      "fuelConsumedMl": 961,
      "fuelConsumedGallons": 0.254,
      "maxSpeedMph": 71.0,
      "averageSpeedMph": 14.4,
      "safetyEvents": [
        {
          "type": "speeding",
          "startMs": 1742455860000,
          "maxSpeedMph": 71.0
        }
      ],
      "_no_driver_login": false,
      "_fuel_note": ""
    },
    {
      "id": "trip_48291025_20250320_003",
      "vehicleId": "48291025",
      "driverId": "22831024",
      "startMs": 1742495340000,
      "endMs": 1742498354001,
      "startLocation": {
        "latitude": 40.783292,
        "longitude": -111.907601
      },
      "endLocation": {
        "latitude": 40.76525,
        "longitude": -111.923173
      },
      "startAddress": "811 Emily Hill Suite 938",
      "endAddress": "642 Mary Glen Apt. 303",
      "startCoords": {
        "latitude": 40.763268,
        "longitude": -111.949065
      },
      "endCoords": {
        "latitude": 40.675781,
        "longitude": -111.819637
      },
      "distanceMeters": 20181.6,
      "durationMs": 3014001,
      "drivingDurationMs": 2494913,
      "idlingDurationMs": 519089,
      "fuelConsumedMl": 2567,
      "fuelConsumedGallons": 0.678,
      "maxSpeedMph": 28.0,
      "averageSpeedMph": 15.0,
      "safetyEvents": [],
      "_no_driver_login": false,
      "_fuel_note": ""
    },
    {
      "id": "trip_48291025_20250321_001",
      "vehicleId": "48291025",
      "driverId": "22831024",
      "startMs": 1742550120000,
      "endMs": 1742554955831,
      "startLocation": {
        "latitude": 40.661703,
        "longitude": -111.877659
      },
      "endLocation": {
        "latitude": 40.720841,
        "longitude": -111.945012
      },
      "startAddress": "16944 David Mission Apt. 137",
      "endAddress": "2027 Farmer Mill Apt. 962",
      "startCoords": {
        "latitude": 40.711235,
        "longitude": -111.9563
      },
      "endCoords": {
        "latitude": 40.800095,
        "longitude": -111.818135
      },
      "distanceMeters": 23538.8,
      "durationMs": 4835832,
      "drivingDurationMs": 4355690,
      "idlingDurationMs": 480141,
      "fuelConsumedMl": 2994,
      "fuelConsumedGallons": 0.791,
      "maxSpeedMph": 60.8,
      "averageSpeedMph": 10.9,
      "safetyEvents": [],
      "_no_driver_login": false,
      "_fuel_note": "QUIRK 5: fuelConsumedGallons is in US gallons. Multiply by 3.785 for litres. Samsara does not link fuel to specific Onfleet tasks."
    },
    {
      "id": "trip_48291025_20250321_002",
      "vehicleId": "48291025",
      "driverId": "22831024",
      "startMs": 1742554740000,
      "endMs": 1742562043405,
      "startLocation": {
        "latitude": 40.711553,
        "longitude": -111.912233
      },
      "endLocation": {
        "latitude": 40.7713,
        "longitude": -111.936881
      },
      "startAddress": "897 Wilson Key",
      "endAddress": "89884 Vickie Forks",
      "startCoords": {
        "latitude": 40.775838,
        "longitude": -111.914035
      },
      "endCoords": {
        "latitude": 40.731631,
        "longitude": -111.874878
      },
      "distanceMeters": 44691.4,
      "durationMs": 7303406,
      "drivingDurationMs": 5880754,
      "idlingDurationMs": 1422652,
      "fuelConsumedMl": 5682,
      "fuelConsumedGallons": 1.501,
      "maxSpeedMph": 28.3,
      "averageSpeedMph": 13.7,
      "safetyEvents": [],
      "_no_driver_login": false,
      "_fuel_note": ""
    },
    {
      "id": "trip_48291025_20250321_003",
      "vehicleId": "48291025",
      "driverId": "22831024",
      "startMs": 1742564580000,
      "endMs": 1742574655868,
      "startLocation": {
        "latitude": 40.738375,
        "longitude": -111.915827
      },
      "endLocation": {
        "latitude": 40.799481,
        "longitude": -111.889733
      },
      "startAddress": "24379 Sharon Vista",
      "endAddress": "0612 Dorothy Landing",
      "startCoords": {
        "latitude": 40.729423,
        "longitude": -111.860364
      },
      "endCoords": {
        "latitude": 40.776198,
        "longitude": -111.927623
      },
      "distanceMeters": 52034.4,
      "durationMs": 10075868,
      "drivingDurationMs": 8819381,
      "idlingDurationMs": 1256487,
      "fuelConsumedMl": 6617,
      "fuelConsumedGallons": 1.748,
      "maxSpeedMph": 46.6,
      "averageSpeedMph": 11.6,
      "safetyEvents": [],
      "_no_driver_login": false,
      "_fuel_note": ""
    },
    {
      "id": "trip_48291025_20250321_004",
      "vehicleId": "48291025",
      "driverId": "22831024",
      "startMs": 1742550540000,
      "endMs": 1742552251334,
      "startLocation": {
        "latitude": 40.713901,
        "longitude": -111.846
      },
      "endLocation": {
        "latitude": 40.657444,
        "longitude": -111.834388
      },
      "startAddress": "647 Joseph Lakes Apt. 588",
      "endAddress": "602 Richardson Valleys",
      "startCoords": {
        "latitude": 40.743705,
        "longitude": -111.877727
      },
      "endCoords": {
        "latitude": 40.683023,
        "longitude": -111.830348
      },
      "distanceMeters": 7980.9,
      "durationMs": 1711335,
      "drivingDurationMs": 1485022,
      "idlingDurationMs": 226313,
      "fuelConsumedMl": 1014,
      "fuelConsumedGallons": 0.268,
      "maxSpeedMph": 54.5,
      "averageSpeedMph": 10.4,
      "safetyEvents": [],
      "_no_driver_login": false,
      "_fuel_note": ""
    },
    {
      "id": "trip_48291025_20250321_005",
      "vehicleId": "48291025",
      "driverId": "22831024",
      "startMs": 1742572560000,
      "endMs": 1742574377230,
      "startLocation": {
        "latitude": 40.7877,
        "longitude": -111.808694
      },
      "endLocation": {
        "latitude": 40.755643,
        "longitude": -111.900299
      },
      "startAddress": "00653 Jason Points Apt. 489",
      "endAddress": "5871 Sarah Crest Apt. 775",
      "startCoords": {
        "latitude": 40.747703,
        "longitude": -111.781673
      },
      "endCoords": {
        "latitude": 40.732481,
        "longitude": -111.907074
      },
      "distanceMeters": 10425.2,
      "durationMs": 1817231,
      "drivingDurationMs": 1571901,
      "idlingDurationMs": 245330,
      "fuelConsumedMl": 1325,
      "fuelConsumedGallons": 0.35,
      "maxSpeedMph": 41.1,
      "averageSpeedMph": 12.8,
      "safetyEvents": [],
      "_no_driver_login": false,
      "_fuel_note": ""
    },
    {
      "id": "trip_48291025_20250322_001",
      "vehicleId": "48291025",
      "driverId": "22831024",
      "startMs": 1742662500000,
      "endMs": 1742673471211,
      "startLocation": {
        "latitude": 40.76155,
        "longitude": -111.812052
      },
      "endLocation": {
        "latitude": 40.734035,
        "longitude": -111.898657
      },
      "startAddress": "6643 White Mews",
      "endAddress": "984 Carmen Mission Apt. 736",
      "startCoords": {
        "latitude": 40.741767,
        "longitude": -111.890542
      },
      "endCoords": {
        "latitude": 40.765978,
        "longitude": -111.860388
      },
      "distanceMeters": 70961.5,
      "durationMs": 10971212,
      "drivingDurationMs": 9298127,
      "idlingDurationMs": 1673085,
      "fuelConsumedMl": 9021,
      "fuelConsumedGallons": 2.383,
      "maxSpeedMph": 50.1,
      "averageSpeedMph": 14.5,
      "safetyEvents": [],
      "_no_driver_login": false,
      "_fuel_note": "QUIRK 5: fuelConsumedGallons is in US gallons. Multiply by 3.785 for litres. Samsara does not link fuel to specific Onfleet tasks."
    },
    {
      "id": "trip_48291025_20250322_002",
      "vehicleId": "48291025",
      "driverId": null,
      "startMs": 1742641560000,
      "endMs": 1742652267380,
      "startLocation": {
        "latitude": 40.712542,
        "longitude": -111.912681
      },
      "endLocation": {
        "latitude": 40.682426,
        "longitude": -111.834852
      },
      "startAddress": "7947 Williamson Glen",
      "endAddress": "6789 Donald Rest Apt. 004",
      "startCoords": {
        "latitude": 40.713523,
        "longitude": -111.933628
      },
      "endCoords": {
        "latitude": 40.738914,
        "longitude": -111.87567
      },
      "distanceMeters": 61685.2,
      "durationMs": 10707380,
      "drivingDurationMs": 9907325,
      "idlingDurationMs": 800055,
      "fuelConsumedMl": 7843,
      "fuelConsumedGallons": 2.072,
      "maxSpeedMph": 48.4,
      "averageSpeedMph": 12.9,
      "safetyEvents": [],
      "_no_driver_login": true,
      "_fuel_note": ""
    },
    {
      "id": "trip_48291025_20250323_001",
      "vehicleId": "48291025",
      "driverId": "22831024",
      "startMs": 1742724420000,
      "endMs": 1742725623215,
      "startLocation": {
        "latitude": 40.788093,
        "longitude": -111.948924
      },
      "endLocation": {
        "latitude": 40.70817,
        "longitude": -111.960269
      },
      "startAddress": "056 Joseph Meadow",
      "endAddress": "3972 Lisa Vista",
      "startCoords": {
        "latitude": 40.672387,
        "longitude": -111.844022
      },
      "endCoords": {
        "latitude": 40.745747,
        "longitude": -111.874681
      },
      "distanceMeters": 7638.3,
      "durationMs": 1203215,
      "drivingDurationMs": 1002431,
      "idlingDurationMs": 200784,
      "fuelConsumedMl": 973,
      "fuelConsumedGallons": 0.257,
      "maxSpeedMph": 59.9,
      "averageSpeedMph": 14.2,
      "safetyEvents": [],
      "_no_driver_login": false,
      "_fuel_note": "QUIRK 5: fuelConsumedGallons is in US gallons. Multiply by 3.785 for litres. Samsara does not link fuel to specific Onfleet tasks."
    },
    {
      "id": "trip_48291025_20250323_002",
      "vehicleId": "48291025",
      "driverId": "22831024",
      "startMs": 1742734200000,
      "endMs": 1742738800841,
      "startLocation": {
        "latitude": 40.706948,
        "longitude": -111.899403
      },
      "endLocation": {
        "latitude": 40.66511,
        "longitude": -111.82645
      },
      "startAddress": "25975 Brenda Centers Suite 760",
      "endAddress": "8575 Daniel Crescent Apt. 132",
      "startCoords": {
        "latitude": 40.72572,
        "longitude": -111.836163
      },
      "endCoords": {
        "latitude": 40.674011,
        "longitude": -111.830921
      },
      "distanceMeters": 37218.1,
      "durationMs": 4600841,
      "drivingDurationMs": 4289567,
      "idlingDurationMs": 311274,
      "fuelConsumedMl": 4732,
      "fuelConsumedGallons": 1.25,
      "maxSpeedMph": 50.1,
      "averageSpeedMph": 18.1,
      "safetyEvents": [],
      "_no_driver_login": false,
      "_fuel_note": ""
    },
    {
      "id": "trip_48291025_20250323_003",
      "vehicleId": "48291025",
      "driverId": "22831024",
      "startMs": 1742714280000,
      "endMs": 1742717333303,
      "startLocation": {
        "latitude": 40.785549,
        "longitude": -111.848978
      },
      "endLocation": {
        "latitude": 40.659796,
        "longitude": -111.930342
      },
      "startAddress": "683 Hartman Mountains",
      "endAddress": "1506 Schmidt Wall",
      "startCoords": {
        "latitude": 40.721823,
        "longitude": -111.934706
      },
      "endCoords": {
        "latitude": 40.717988,
        "longitude": -111.850662
      },
      "distanceMeters": 15985.1,
      "durationMs": 3053303,
      "drivingDurationMs": 2479658,
      "idlingDurationMs": 573645,
      "fuelConsumedMl": 2033,
      "fuelConsumedGallons": 0.537,
      "maxSpeedMph": 28.1,
      "averageSpeedMph": 11.7,
      "safetyEvents": [],
      "_no_driver_login": false,
      "_fuel_note": ""
    },
    {
      "id": "trip_48291025_20250323_004",
      "vehicleId": "48291025",
      "driverId": "22831024",
      "startMs": 1742743800000,
      "endMs": 1742748994984,
      "startLocation": {
        "latitude": 40.696602,
        "longitude": -111.823772
      },
      "endLocation": {
        "latitude": 40.694464,
        "longitude": -111.788455
      },
      "startAddress": "2687 Christine Crescent Apt. 794",
      "endAddress": "5328 Gray Cliff",
      "startCoords": {
        "latitude": 40.733243,
        "longitude": -111.85255
      },
      "endCoords": {
        "latitude": 40.716967,
        "longitude": -111.904694
      },
      "distanceMeters": 36203.2,
      "durationMs": 5194985,
      "drivingDurationMs": 4798057,
      "idlingDurationMs": 396928,
      "fuelConsumedMl": 4603,
      "fuelConsumedGallons": 1.216,
      "maxSpeedMph": 31.8,
      "averageSpeedMph": 15.6,
      "safetyEvents": [],
      "_no_driver_login": false,
      "_fuel_note": ""
    },
    {
      "id": "trip_48291025_20250324_001",
      "vehicleId": "48291025",
      "driverId": "22831024",
      "startMs": 1742811360000,
      "endMs": 1742814185921,
      "startLocation": {
        "latitude": 40.754585,
        "longitude": -111.777819
      },
      "endLocation": {
        "latitude": 40.745358,
        "longitude": -111.89872
      },
      "startAddress": "33685 Dawn Courts",
      "endAddress": "65966 Kristen Falls",
      "startCoords": {
        "latitude": 40.755381,
        "longitude": -111.866514
      },
      "endCoords": {
        "latitude": 40.779905,
        "longitude": -111.950731
      },
      "distanceMeters": 19607.0,
      "durationMs": 2825922,
      "drivingDurationMs": 2458880,
      "idlingDurationMs": 367042,
      "fuelConsumedMl": 2495,
      "fuelConsumedGallons": 0.659,
      "maxSpeedMph": 46.0,
      "averageSpeedMph": 15.5,
      "safetyEvents": [],
      "_no_driver_login": false,
      "_fuel_note": "QUIRK 5: fuelConsumedGallons is in US gallons. Multiply by 3.785 for litres. Samsara does not link fuel to specific Onfleet tasks."
    },
    {
      "id": "trip_48291025_20250324_002",
      "vehicleId": "48291025",
      "driverId": "22831024",
      "startMs": 1742800680000,
      "endMs": 1742802955656,
      "startLocation": {
        "latitude": 40.761082,
        "longitude": -111.822966
      },
      "endLocation": {
        "latitude": 40.708376,
        "longitude": -111.934246
      },
      "startAddress": "635 Hanson Branch Apt. 646",
      "endAddress": "8460 John Glens",
      "startCoords": {
        "latitude": 40.694987,
        "longitude": -111.858872
      },
      "endCoords": {
        "latitude": 40.791574,
        "longitude": -111.836424
      },
      "distanceMeters": 11902.4,
      "durationMs": 2275656,
      "drivingDurationMs": 1848211,
      "idlingDurationMs": 427446,
      "fuelConsumedMl": 1514,
      "fuelConsumedGallons": 0.4,
      "maxSpeedMph": 51.3,
      "averageSpeedMph": 11.7,
      "safetyEvents": [],
      "_no_driver_login": false,
      "_fuel_note": ""
    },
    {
      "id": "trip_48291025_20250324_003",
      "vehicleId": "48291025",
      "driverId": "22831024",
      "startMs": 1742833200000,
      "endMs": 1742837657004,
      "startLocation": {
        "latitude": 40.725149,
        "longitude": -111.935659
      },
      "endLocation": {
        "latitude": 40.736566,
        "longitude": -111.777008
      },
      "startAddress": "57868 Williams Mountains",
      "endAddress": "40847 Murphy Way",
      "startCoords": {
        "latitude": 40.723516,
        "longitude": -111.879961
      },
      "endCoords": {
        "latitude": 40.779245,
        "longitude": -111.952009
      },
      "distanceMeters": 25205.0,
      "durationMs": 4457005,
      "drivingDurationMs": 3887310,
      "idlingDurationMs": 569695,
      "fuelConsumedMl": 3206,
      "fuelConsumedGallons": 0.847,
      "maxSpeedMph": 51.2,
      "averageSpeedMph": 12.7,
      "safetyEvents": [],
      "_no_driver_login": false,
      "_fuel_note": ""
    },
    {
      "id": "trip_48291025_20250324_004",
      "vehicleId": "48291025",
      "driverId": "22831024",
      "startMs": 1742826540000,
      "endMs": 1742830947668,
      "startLocation": {
        "latitude": 40.724894,
        "longitude": -111.82532
      },
      "endLocation": {
        "latitude": 40.686066,
        "longitude": -111.83215
      },
      "startAddress": "126 William River",
      "endAddress": "9422 Roberts Stravenue",
      "startCoords": {
        "latitude": 40.762661,
        "longitude": -111.869474
      },
      "endCoords": {
        "latitude": 40.672289,
        "longitude": -111.927555
      },
      "distanceMeters": 19140.1,
      "durationMs": 4407669,
      "drivingDurationMs": 3549174,
      "idlingDurationMs": 858495,
      "fuelConsumedMl": 2434,
      "fuelConsumedGallons": 0.643,
      "maxSpeedMph": 45.6,
      "averageSpeedMph": 9.7,
      "safetyEvents": [],
      "_no_driver_login": false,
      "_fuel_note": ""
    },
    {
      "id": "trip_48291025_20250324_005",
      "vehicleId": "48291025",
      "driverId": "22831024",
      "startMs": 1742829900000,
      "endMs": 1742839320792,
      "startLocation": {
        "latitude": 40.773738,
        "longitude": -111.899974
      },
      "endLocation": {
        "latitude": 40.741009,
        "longitude": -111.95368
      },
      "startAddress": "15725 Kimberly Square Apt. 194",
      "endAddress": "6145 Savage Pike Apt. 908",
      "startCoords": {
        "latitude": 40.794304,
        "longitude": -111.864735
      },
      "endCoords": {
        "latitude": 40.669086,
        "longitude": -111.804035
      },
      "distanceMeters": 48019.9,
      "durationMs": 9420793,
      "drivingDurationMs": 7938383,
      "idlingDurationMs": 1482409,
      "fuelConsumedMl": 6106,
      "fuelConsumedGallons": 1.613,
      "maxSpeedMph": 71.1,
      "averageSpeedMph": 11.4,
      "safetyEvents": [
        {
          "type": "speeding",
          "startMs": 1742835240000,
          "maxSpeedMph": 71.1
        }
      ],
      "_no_driver_login": false,
      "_fuel_note": ""
    },
    {
      "id": "trip_48291025_20250325_001",
      "vehicleId": "48291025",
      "driverId": "22831024",
      "startMs": 1742920080000,
      "endMs": 1742921315164,
      "startLocation": {
        "latitude": 40.664015,
        "longitude": -111.875032
      },
      "endLocation": {
        "latitude": 40.75642,
        "longitude": -111.884564
      },
      "startAddress": "353 Mccall Tunnel Apt. 144",
      "endAddress": "538 Ellis Gardens",
      "startCoords": {
        "latitude": 40.698753,
        "longitude": -111.823804
      },
      "endCoords": {
        "latitude": 40.662102,
        "longitude": -111.858064
      },
      "distanceMeters": 5113.4,
      "durationMs": 1235164,
      "drivingDurationMs": 1005493,
      "idlingDurationMs": 229671,
      "fuelConsumedMl": 651,
      "fuelConsumedGallons": 0.172,
      "maxSpeedMph": 49.3,
      "averageSpeedMph": 9.3,
      "safetyEvents": [],
      "_no_driver_login": false,
      "_fuel_note": "QUIRK 5: fuelConsumedGallons is in US gallons. Multiply by 3.785 for litres. Samsara does not link fuel to specific Onfleet tasks."
    },
    {
      "id": "trip_48291025_20250325_002",
      "vehicleId": "48291025",
      "driverId": "22831024",
      "startMs": 1742882460000,
      "endMs": 1742887793492,
      "startLocation": {
        "latitude": 40.716324,
        "longitude": -111.906786
      },
      "endLocation": {
        "latitude": 40.772344,
        "longitude": -111.819598
      },
      "startAddress": "109 Hines Run Apt. 154",
      "endAddress": "813 Henry Squares",
      "startCoords": {
        "latitude": 40.727281,
        "longitude": -111.861461
      },
      "endCoords": {
        "latitude": 40.676479,
        "longitude": -111.80148
      },
      "distanceMeters": 34750.5,
      "durationMs": 5333493,
      "drivingDurationMs": 4438240,
      "idlingDurationMs": 895253,
      "fuelConsumedMl": 4418,
      "fuelConsumedGallons": 1.167,
      "maxSpeedMph": 60.7,
      "averageSpeedMph": 14.6,
      "safetyEvents": [],
      "_no_driver_login": false,
      "_fuel_note": ""
    },
    {
      "id": "trip_48291025_20250325_003",
      "vehicleId": "48291025",
      "driverId": "22831024",
      "startMs": 1742893380000,
      "endMs": 1742904853057,
      "startLocation": {
        "latitude": 40.727671,
        "longitude": -111.857301
      },
      "endLocation": {
        "latitude": 40.755936,
        "longitude": -111.777919
      },
      "startAddress": "2142 Emily Circles Apt. 047",
      "endAddress": "13958 Ronald Highway",
      "startCoords": {
        "latitude": 40.751354,
        "longitude": -111.837318
      },
      "endCoords": {
        "latitude": 40.681545,
        "longitude": -111.809782
      },
      "distanceMeters": 81387.0,
      "durationMs": 11473058,
      "drivingDurationMs": 9804414,
      "idlingDurationMs": 1668644,
      "fuelConsumedMl": 10349,
      "fuelConsumedGallons": 2.734,
      "maxSpeedMph": 55.8,
      "averageSpeedMph": 15.9,
      "safetyEvents": [],
      "_no_driver_login": false,
      "_fuel_note": ""
    },
    {
      "id": "trip_48291025_20250325_004",
      "vehicleId": "48291025",
      "driverId": "22831024",
      "startMs": 1742905740000,
      "endMs": 1742907657696,
      "startLocation": {
        "latitude": 40.763218,
        "longitude": -111.804812
      },
      "endLocation": {
        "latitude": 40.776061,
        "longitude": -111.873892
      },
      "startAddress": "639 Shea Pine Apt. 258",
      "endAddress": "820 Adams Plains Suite 319",
      "startCoords": {
        "latitude": 40.715676,
        "longitude": -111.784632
      },
      "endCoords": {
        "latitude": 40.697959,
        "longitude": -111.936586
      },
      "distanceMeters": 14489.5,
      "durationMs": 1917696,
      "drivingDurationMs": 1698559,
      "idlingDurationMs": 219137,
      "fuelConsumedMl": 1843,
      "fuelConsumedGallons": 0.487,
      "maxSpeedMph": 33.9,
      "averageSpeedMph": 16.9,
      "safetyEvents": [],
      "_no_driver_login": false,
      "_fuel_note": ""
    },
    {
      "id": "trip_48291025_20250326_001",
      "vehicleId": "48291025",
      "driverId": "22831024",
      "startMs": 1743005340000,
      "endMs": 1743008943780,
      "startLocation": {
        "latitude": 40.7294,
        "longitude": -111.825921
      },
      "endLocation": {
        "latitude": 40.722661,
        "longitude": -111.927191
      },
      "startAddress": "156 Sellers Trafficway",
      "endAddress": "115 Tina Corner",
      "startCoords": {
        "latitude": 40.66424,
        "longitude": -111.926223
      },
      "endCoords": {
        "latitude": 40.677604,
        "longitude": -111.837164
      },
      "distanceMeters": 25616.1,
      "durationMs": 3603780,
      "drivingDurationMs": 3420157,
      "idlingDurationMs": 183623,
      "fuelConsumedMl": 3255,
      "fuelConsumedGallons": 0.86,
      "maxSpeedMph": 65.5,
      "averageSpeedMph": 15.9,
      "safetyEvents": [
        {
          "type": "speeding",
          "startMs": 1743006420000,
          "maxSpeedMph": 65.5
        }
      ],
      "_no_driver_login": false,
      "_fuel_note": "QUIRK 5: fuelConsumedGallons is in US gallons. Multiply by 3.785 for litres. Samsara does not link fuel to specific Onfleet tasks."
    },
    {
      "id": "trip_48291025_20250326_002",
      "vehicleId": "48291025",
      "driverId": "22831024",
      "startMs": 1742996400000,
      "endMs": 1743000437738,
      "startLocation": {
        "latitude": 40.727127,
        "longitude": -111.897175
      },
      "endLocation": {
        "latitude": 40.769323,
        "longitude": -111.837101
      },
      "startAddress": "9307 Todd Knolls Suite 301",
      "endAddress": "31454 Edward Pike Apt. 924",
      "startCoords": {
        "latitude": 40.749017,
        "longitude": -111.943435
      },
      "endCoords": {
        "latitude": 40.668546,
        "longitude": -111.818616
      },
      "distanceMeters": 28168.7,
      "durationMs": 4037738,
      "drivingDurationMs": 3462603,
      "idlingDurationMs": 575135,
      "fuelConsumedMl": 3581,
      "fuelConsumedGallons": 0.946,
      "maxSpeedMph": 50.9,
      "averageSpeedMph": 15.6,
      "safetyEvents": [],
      "_no_driver_login": false,
      "_fuel_note": ""
    },
    {
      "id": "trip_48291025_20250326_003",
      "vehicleId": "48291025",
      "driverId": "22831024",
      "startMs": 1742989200000,
      "endMs": 1742996278367,
      "startLocation": {
        "latitude": 40.740139,
        "longitude": -111.948515
      },
      "endLocation": {
        "latitude": 40.756795,
        "longitude": -111.875389
      },
      "startAddress": "0820 Brian Mall Apt. 626",
      "endAddress": "5386 Whitehead Mews Suite 442",
      "startCoords": {
        "latitude": 40.656533,
        "longitude": -111.942861
      },
      "endCoords": {
        "latitude": 40.734992,
        "longitude": -111.915207
      },
      "distanceMeters": 37637.6,
      "durationMs": 7078367,
      "drivingDurationMs": 6348104,
      "idlingDurationMs": 730263,
      "fuelConsumedMl": 4785,
      "fuelConsumedGallons": 1.264,
      "maxSpeedMph": 29.3,
      "averageSpeedMph": 11.9,
      "safetyEvents": [],
      "_no_driver_login": false,
      "_fuel_note": ""
    },
    {
      "id": "trip_48291025_20250326_004",
      "vehicleId": "48291025",
      "driverId": "22831024",
      "startMs": 1742994600000,
      "endMs": 1742998308125,
      "startLocation": {
        "latitude": 40.697821,
        "longitude": -111.844808
      },
      "endLocation": {
        "latitude": 40.661864,
        "longitude": -111.954251
      },
      "startAddress": "427 Mendez Valley Apt. 950",
      "endAddress": "354 Kenneth Gateway",
      "startCoords": {
        "latitude": 40.766289,
        "longitude": -111.774715
      },
      "endCoords": {
        "latitude": 40.695881,
        "longitude": -111.799623
      },
      "distanceMeters": 24268.2,
      "durationMs": 3708125,
      "drivingDurationMs": 3242812,
      "idlingDurationMs": 465313,
      "fuelConsumedMl": 3085,
      "fuelConsumedGallons": 0.815,
      "maxSpeedMph": 53.5,
      "averageSpeedMph": 14.6,
      "safetyEvents": [],
      "_no_driver_login": false,
      "_fuel_note": ""
    },
    {
      "id": "trip_48291025_20250326_005",
      "vehicleId": "48291025",
      "driverId": "22831024",
      "startMs": 1742988480000,
      "endMs": 1742993852040,
      "startLocation": {
        "latitude": 40.723847,
        "longitude": -111.774278
      },
      "endLocation": {
        "latitude": 40.753715,
        "longitude": -111.778306
      },