{
  "vehicleId": "48291002",
  "vehicleName": "DEN-CAR-03",
  "month": "2025_03",
  "pagination": {
    "endCursor": "trip_48291002_20250331_002",
    "hasNextPage": false
  },
  "trips": [
    {
      "id": "trip_48291002_20250301_001",
      "vehicleId": "48291002",
      "driverId": "22831001",
      "startMs": 1740829980000,
      "endMs": 1740834543806,
      "startLocation": {
        "latitude": 39.719704,
        "longitude": -105.081849
      },
      "endLocation": {
        "latitude": 39.70738,
        "longitude": -105.081484
      },
      "startAddress": "43594 Conrad Trafficway Apt. 193",
      "endAddress": "2296 Lisa Ports Suite 295",
      "startCoords": {
        "latitude": 39.798699,
        "longitude": -104.947194
      },
      "endCoords": {
        "latitude": 39.705933,
        "longitude": -105.086461
      },
      "distanceMeters": 22652.2,
      "durationMs": 4563806,
      "drivingDurationMs": 4292780,
      "idlingDurationMs": 271026,
      "fuelConsumedMl": 2881,
      "fuelConsumedGallons": 0.761,
      "maxSpeedMph": 45.9,
      "averageSpeedMph": 11.1,
      "safetyEvents": [],
      "_no_driver_login": false,
      "_fuel_note": "QUIRK 5: fuelConsumedGallons is in US gallons. Multiply by 3.785 for litres. Samsara does not link fuel to specific Onfleet tasks."
    },
    {
      "id": "trip_48291002_20250301_002",
      "vehicleId": "48291002",
      "driverId": null,
      "startMs": 1740845700000,
      "endMs": 1740860474108,
      "startLocation": {
        "latitude": 39.70193,
        "longitude": -105.074169
      },
      "endLocation": {
        "latitude": 39.815713,
        "longitude": -104.900952
      },
      "startAddress": "9597 Banks Tunnel",
      "endAddress": "605 Patricia Bridge",
      "startCoords": {
        "latitude": 39.738861,
        "longitude": -105.080881
      },
      "endCoords": {
        "latitude": 39.720834,
        "longitude": -105.026323
      },
      "distanceMeters": 68963.9,
      "durationMs": 14774109,
      "drivingDurationMs": 13364290,
      "idlingDurationMs": 1409819,
      "fuelConsumedMl": 8767,
      "fuelConsumedGallons": 2.316,
      "maxSpeedMph": 30.5,
      "averageSpeedMph": 10.4,
      "safetyEvents": [],
      "_no_driver_login": true,
      "_fuel_note": ""
    },
    {
      "id": "trip_48291002_20250301_003",
      "vehicleId": "48291002",
      "driverId": "22831001",
      "startMs": 1740810840000,
      "endMs": 1740815848230,
      "startLocation": {
        "latitude": 39.748432,
        "longitude": -104.909817
      },
      "endLocation": {
        "latitude": 39.74529,
        "longitude": -104.908486
      },
      "startAddress": "21345 Tina Well",
      "endAddress": "3145 Lisa Gardens",
      "startCoords": {
        "latitude": 39.783411,
        "longitude": -105.008472
      },
      "endCoords": {
        "latitude": 39.819852,
        "longitude": -105.039385
      },
      "distanceMeters": 32074.7,
      "durationMs": 5008230,
      "drivingDurationMs": 4268007,
      "idlingDurationMs": 740223,
      "fuelConsumedMl": 4077,
      "fuelConsumedGallons": 1.077,
      "maxSpeedMph": 49.6,
      "averageSpeedMph": 14.3,
      "safetyEvents": [],
      "_no_driver_login": false,
      "_fuel_note": ""
    },
    {
      "id": "trip_48291002_20250301_004",
      "vehicleId": "48291002",
      "driverId": "22831001",
      "startMs": 1740847260000,
      "endMs": 1740853615152,
      "startLocation": {
        "latitude": 39.804297,
        "longitude": -104.947537
      },
      "endLocation": {
        "latitude": 39.817102,
        "longitude": -104.96199
      },
      "startAddress": "332 Ray Parkways",
      "endAddress": "39103 Jacob Shores Suite 833",
      "startCoords": {
        "latitude": 39.711002,
        "longitude": -104.916653
      },
      "endCoords": {
        "latitude": 39.748578,
        "longitude": -105.042874
      },
      "distanceMeters": 38020.9,
      "durationMs": 6355152,
      "drivingDurationMs": 5840595,
      "idlingDurationMs": 514557,
      "fuelConsumedMl": 4834,
      "fuelConsumedGallons": 1.277,
      "maxSpeedMph": 66.2,
      "averageSpeedMph": 13.4,
      "safetyEvents": [
        {
          "type": "speeding",
          "startMs": 1740850920000,
          "maxSpeedMph": 66.2
        }
      ],
      "_no_driver_login": false,
      "_fuel_note": ""
    },
    {
      "id": "trip_48291002_20250302_001",
      "vehicleId": "48291002",
      "driverId": "22831001",
      "startMs": 1740930960000,
      "endMs": 1740935795801,
      "startLocation": {
        "latitude": 39.714716,
        "longitude": -104.913036
      },
      "endLocation": {
        "latitude": 39.794176,
        "longitude": -104.982479
      },
      "startAddress": "6830 Williamson Roads Suite 868",
      "endAddress": "785 Olsen Mountains",
      "startCoords": {
        "latitude": 39.785248,
        "longitude": -105.036636
      },
      "endCoords": {
        "latitude": 39.808229,
        "longitude": -104.922167
      },
      "distanceMeters": 24036.9,
      "durationMs": 4835801,
      "drivingDurationMs": 4152254,
      "idlingDurationMs": 683547,
      "fuelConsumedMl": 3055,
      "fuelConsumedGallons": 0.807,
      "maxSpeedMph": 56.4,
      "averageSpeedMph": 11.1,
      "safetyEvents": [],
      "_no_driver_login": false,
      "_fuel_note": "QUIRK 5: fuelConsumedGallons is in US gallons. Multiply by 3.785 for litres. Samsara does not link fuel to specific Onfleet tasks."
    },
    {
      "id": "trip_48291002_20250302_002",
      "vehicleId": "48291002",
      "driverId": "22831001",
      "startMs": 1740902760000,
      "endMs": 1740911190708,
      "startLocation": {
        "latitude": 39.743824,
        "longitude": -105.038986
      },
      "endLocation": {
        "latitude": 39.819184,
        "longitude": -104.922225
      },
      "startAddress": "914 Ruth Gateway Suite 474",
      "endAddress": "82787 Richard Manor",
      "startCoords": {
        "latitude": 39.816647,
        "longitude": -105.058092
      },
      "endCoords": {
        "latitude": 39.793802,
        "longitude": -105.03281
      },
      "distanceMeters": 73068.4,
      "durationMs": 8430708,
      "drivingDurationMs": 8227790,
      "idlingDurationMs": 202919,
      "fuelConsumedMl": 9289,
      "fuelConsumedGallons": 2.454,
      "maxSpeedMph": 47.0,
      "averageSpeedMph": 19.4,
      "safetyEvents": [],
      "_no_driver_login": false,
      "_fuel_note": ""
    },
    {
      "id": "trip_48291002_20250302_003",
      "vehicleId": "48291002",
      "driverId": "22831001",
      "startMs": 1740902280000,
      "endMs": 1740905202439,
      "startLocation": {
        "latitude": 39.789685,
        "longitude": -105.043089
      },
      "endLocation": {
        "latitude": 39.732315,
        "longitude": -104.914794
      },
      "startAddress": "93355 Harrell Ports",
      "endAddress": "8064 Carrie Parkways Apt. 615",
      "startCoords": {
        "latitude": 39.811288,
        "longitude": -105.061636
      },
      "endCoords": {
        "latitude": 39.822187,
        "longitude": -105.007647
      },
      "distanceMeters": 21032.3,
      "durationMs": 2922440,
      "drivingDurationMs": 2407261,
      "idlingDurationMs": 515179,
      "fuelConsumedMl": 2672,
      "fuelConsumedGallons": 0.706,
      "maxSpeedMph": 58.6,
      "averageSpeedMph": 16.1,
      "safetyEvents": [],
      "_no_driver_login": false,
      "_fuel_note": ""
    },
    {
      "id": "trip_48291002_20250302_004",
      "vehicleId": "48291002",
      "driverId": "22831001",
      "startMs": 1740899400000,
      "endMs": 1740905844276,
      "startLocation": {
        "latitude": 39.741961,
        "longitude": -105.010797
      },
      "endLocation": {
        "latitude": 39.818607,
        "longitude": -105.036044
      },
      "startAddress": "553 Robert Plains",
      "endAddress": "931 Gray Wall",
      "startCoords": {
        "latitude": 39.755787,
        "longitude": -105.057418
      },
      "endCoords": {
        "latitude": 39.708029,
        "longitude": -104.925287
      },
      "distanceMeters": 45323.8,
      "durationMs": 6444277,
      "drivingDurationMs": 6077341,
      "idlingDurationMs": 366936,
      "fuelConsumedMl": 5761,
      "fuelConsumedGallons": 1.522,
      "maxSpeedMph": 47.7,
      "averageSpeedMph": 15.7,
      "safetyEvents": [],
      "_no_driver_login": false,
      "_fuel_note": ""
    },
    {
      "id": "trip_48291002_20250303_001",
      "vehicleId": "48291002",
      "driverId": "22831001",
      "startMs": 1741004460000,
      "endMs": 1741011988123,
      "startLocation": {
        "latitude": 39.755808,
        "longitude": -104.938818
      },
      "endLocation": {
        "latitude": 39.688765,
        "longitude": -105.037224
      },
      "startAddress": "9087 Michelle Road Suite 929",
      "endAddress": "529 Blake Groves",
      "startCoords": {
        "latitude": 39.772691,
        "longitude": -104.924593
      },
      "endCoords": {
        "latitude": 39.7217,
        "longitude": -105.051712
      },
      "distanceMeters": 39012.2,
      "durationMs": 7528123,
      "drivingDurationMs": 6980676,
      "idlingDurationMs": 547447,
      "fuelConsumedMl": 4959,
      "fuelConsumedGallons": 1.31,
      "maxSpeedMph": 40.7,
      "averageSpeedMph": 11.6,
      "safetyEvents": [],
      "_no_driver_login": false,
      "_fuel_note": "QUIRK 5: fuelConsumedGallons is in US gallons. Multiply by 3.785 for litres. Samsara does not link fuel to specific Onfleet tasks."
    },
    {
      "id": "trip_48291002_20250303_002",
      "vehicleId": "48291002",
      "driverId": "22831001",
      "startMs": 1740985680000,
      "endMs": 1740987629590,
      "startLocation": {
        "latitude": 39.741762,
        "longitude": -105.073019
      },
      "endLocation": {
        "latitude": 39.741991,
        "longitude": -105.028377
      },
      "startAddress": "9821 Scott Estates",
      "endAddress": "8933 Steven Walks Suite 940",
      "startCoords": {
        "latitude": 39.795502,
        "longitude": -104.980633
      },
      "endCoords": {
        "latitude": 39.704384,
        "longitude": -105.00345
      },
      "distanceMeters": 10722.1,
      "durationMs": 1949590,
      "drivingDurationMs": 1725667,
      "idlingDurationMs": 223923,
      "fuelConsumedMl": 1363,
      "fuelConsumedGallons": 0.36,
      "maxSpeedMph": 61.0,
      "averageSpeedMph": 12.3,
      "safetyEvents": [],
      "_no_driver_login": false,
      "_fuel_note": ""
    },
    {
      "id": "trip_48291002_20250303_003",
      "vehicleId": "48291002",
      "driverId": "22831001",
      "startMs": 1741008900000,
      "endMs": 1741011491823,
      "startLocation": {
        "latitude": 39.734317,
        "longitude": -105.003537
      },
      "endLocation": {
        "latitude": 39.707073,
        "longitude": -104.960916
      },
      "startAddress": "04895 Tiffany Place",
      "endAddress": "0350 Brenda Passage Apt. 308",
      "startCoords": {
        "latitude": 39.806132,
        "longitude": -104.96185
      },
      "endCoords": {
        "latitude": 39.732961,
        "longitude": -104.984316
      },
      "distanceMeters": 12418.9,
      "durationMs": 2591823,
      "drivingDurationMs": 2080143,
      "idlingDurationMs": 511680,
      "fuelConsumedMl": 1579,
      "fuelConsumedGallons": 0.417,
      "maxSpeedMph": 55.5,
      "averageSpeedMph": 10.7,
      "safetyEvents": [],
      "_no_driver_login": false,
      "_fuel_note": ""
    },
    {
      "id": "trip_48291002_20250303_004",
      "vehicleId": "48291002",
      "driverId": "22831001",
      "startMs": 1741021920000,
      "endMs": 1741035509703,
      "startLocation": {
        "latitude": 39.753852,
        "longitude": -105.028634
      },
      "endLocation": {
        "latitude": 39.794783,
        "longitude": -105.007419
      },
      "startAddress": "6194 Michael Shores",
      "endAddress": "3860 Martin Pine Suite 279",
      "startCoords": {
        "latitude": 39.822565,
        "longitude": -105.006279
      },
      "endCoords": {
        "latitude": 39.710363,
        "longitude": -105.043518
      },
      "distanceMeters": 77437.3,
      "durationMs": 13589704,
      "drivingDurationMs": 12465023,
      "idlingDurationMs": 1124681,
      "fuelConsumedMl": 9846,
      "fuelConsumedGallons": 2.601,
      "maxSpeedMph": 29.5,
      "averageSpeedMph": 12.7,
      "safetyEvents": [],
      "_no_driver_login": false,
      "_fuel_note": ""
    },
    {
      "id": "trip_48291002_20250303_005",
      "vehicleId": "48291002",
      "driverId": "22831001",
      "startMs": 1741022400000,
      "endMs": 1741025847796,
      "startLocation": {
        "latitude": 39.697673,
        "longitude": -104.906486
      },
      "endLocation": {
        "latitude": 39.758922,
        "longitude": -104.945356
      },
      "startAddress": "081 Michael Path",
      "endAddress": "75897 Anthony Place Apt. 534",
      "startCoords": {
        "latitude": 39.793603,
        "longitude": -104.978682
      },
      "endCoords": {
        "latitude": 39.709415,
        "longitude": -104.97382
      },
      "distanceMeters": 18028.6,
      "durationMs": 3447797,
      "drivingDurationMs": 2868761,
      "idlingDurationMs": 579036,
      "fuelConsumedMl": 2294,
      "fuelConsumedGallons": 0.606,
      "maxSpeedMph": 48.7,
      "averageSpeedMph": 11.7,
      "safetyEvents": [],
      "_no_driver_login": false,
      "_fuel_note": ""
    },
    {
      "id": "trip_48291002_20250304_001",
      "vehicleId": "48291002",
      "driverId": "22831001",
      "startMs": 1741095720000,
      "endMs": 1741108757276,
      "startLocation": {
        "latitude": 39.796412,
        "longitude": -104.931802
      },
      "endLocation": {
        "latitude": 39.771343,
        "longitude": -105.08535
      },
      "startAddress": "18643 Ethan Station",
      "endAddress": "3516 Jackie Station",
      "startCoords": {
        "latitude": 39.733645,
        "longitude": -104.982422
      },
      "endCoords": {
        "latitude": 39.761225,
        "longitude": -105.046825
      },
      "distanceMeters": 77717.0,
      "durationMs": 13037276,
      "drivingDurationMs": 10534892,
      "idlingDurationMs": 2502385,
      "fuelConsumedMl": 9880,
      "fuelConsumedGallons": 2.61,
      "maxSpeedMph": 34.9,
      "averageSpeedMph": 13.3,
      "safetyEvents": [],
      "_no_driver_login": false,
      "_fuel_note": "QUIRK 5: fuelConsumedGallons is in US gallons. Multiply by 3.785 for litres. Samsara does not link fuel to specific Onfleet tasks."
    },
    {
      "id": "trip_48291002_20250304_002",
      "vehicleId": "48291002",
      "driverId": "22831001",
      "startMs": 1741113720000,
      "endMs": 1741119502373,
      "startLocation": {
        "latitude": 39.691957,
        "longitude": -105.082837
      },
      "endLocation": {
        "latitude": 39.785458,
        "longitude": -104.924541
      },
      "startAddress": "68846 John Roads",
      "endAddress": "66973 Janet Orchard",
      "startCoords": {
        "latitude": 39.721714,
        "longitude": -105.027637
      },
      "endCoords": {
        "latitude": 39.824591,
        "longitude": -104.95782
      },
      "distanceMeters": 37377.8,
      "durationMs": 5782374,
      "drivingDurationMs": 4960852,
      "idlingDurationMs": 821521,
      "fuelConsumedMl": 4751,
      "fuelConsumedGallons": 1.255,
      "maxSpeedMph": 66.4,
      "averageSpeedMph": 14.5,
      "safetyEvents": [
        {
          "type": "speeding",
          "startMs": 1741119060000,
          "maxSpeedMph": 66.4
        }
      ],
      "_no_driver_login": false,
      "_fuel_note": ""
    },
    {
      "id": "trip_48291002_20250305_001",
      "vehicleId": "48291002",
      "driverId": "22831001",
      "startMs": 1741194360000,
      "endMs": 1741198817162,
      "startLocation": {
        "latitude": 39.709284,
        "longitude": -104.903896
      },
      "endLocation": {
        "latitude": 39.780948,
        "longitude": -104.966936
      },
      "startAddress": "730 Jose Valleys Apt. 022",
      "endAddress": "4524 Nancy Mews Apt. 292",
      "startCoords": {
        "latitude": 39.807265,
        "longitude": -105.012441
      },
      "endCoords": {
        "latitude": 39.739452,
        "longitude": -104.96426
      },
      "distanceMeters": 30410.9,
      "durationMs": 4457162,
      "drivingDurationMs": 3946551,
      "idlingDurationMs": 510611,
      "fuelConsumedMl": 3865,
      "fuelConsumedGallons": 1.021,
      "maxSpeedMph": 33.3,
      "averageSpeedMph": 15.3,
      "safetyEvents": [],
      "_no_driver_login": false,
      "_fuel_note": "QUIRK 5: fuelConsumedGallons is in US gallons. Multiply by 3.785 for litres. Samsara does not link fuel to specific Onfleet tasks."
    },
    {
      "id": "trip_48291002_20250305_002",
      "vehicleId": "48291002",
      "driverId": "22831001",
      "startMs": 1741158900000,
      "endMs": 1741169893662,
      "startLocation": {
        "latitude": 39.764884,
        "longitude": -105.039514
      },
      "endLocation": {
        "latitude": 39.755766,
        "longitude": -104.986524
      },
      "startAddress": "676 Burns Park",
      "endAddress": "553 Crawford Freeway",
      "startCoords": {
        "latitude": 39.795858,
        "longitude": -105.022819
      },
      "endCoords": {
        "latitude": 39.815909,
        "longitude": -104.951083
      },
      "distanceMeters": 60708.0,
      "durationMs": 10993662,
      "drivingDurationMs": 8991739,
      "idlingDurationMs": 2001923,
      "fuelConsumedMl": 7718,
      "fuelConsumedGallons": 2.039,
      "maxSpeedMph": 67.8,
      "averageSpeedMph": 12.4,
      "safetyEvents": [
        {
          "type": "speeding",
          "startMs": 1741167300000,
          "maxSpeedMph": 67.8
        }
      ],
      "_no_driver_login": false,
      "_fuel_note": ""
    },
    {
      "id": "trip_48291002_20250305_003",
      "vehicleId": "48291002",
      "driverId": "22831001",
      "startMs": 1741195320000,
      "endMs": 1741197877995,
      "startLocation": {
        "latitude": 39.743153,
        "longitude": -105.042308
      },
      "endLocation": {
        "latitude": 39.68702,
        "longitude": -104.941294
      },
      "startAddress": "5595 Christopher Prairie",
      "endAddress": "25033 Butler Mill",
      "startCoords": {
        "latitude": 39.80024,
        "longitude": -104.906408
      },
      "endCoords": {
        "latitude": 39.816877,
        "longitude": -105.05971
      },
      "distanceMeters": 16705.9,
      "durationMs": 2557996,
      "drivingDurationMs": 2178885,
      "idlingDurationMs": 379111,
      "fuelConsumedMl": 2124,
      "fuelConsumedGallons": 0.561,
      "maxSpeedMph": 34.2,
      "averageSpeedMph": 14.6,
      "safetyEvents": [],
      "_no_driver_login": false,
      "_fuel_note": ""
    },
    {
      "id": "trip_48291002_20250305_004",
      "vehicleId": "48291002",
      "driverId": "22831001",
      "startMs": 1741185240000,
      "endMs": 1741189957310,
      "startLocation": {
        "latitude": 39.717647,
        "longitude": -105.083496
      },
      "endLocation": {
        "latitude": 39.773075,
        "longitude": -105.059064
      },
      "startAddress": "334 William Expressway",
      "endAddress": "06127 Danielle Streets Apt. 454",
      "startCoords": {
        "latitude": 39.773024,
        "longitude": -104.923976
      },
      "endCoords": {
        "latitude": 39.744062,
        "longitude": -105.033692
      },
      "distanceMeters": 34214.7,
      "durationMs": 4717311,
      "drivingDurationMs": 3976684,
      "idlingDurationMs": 740627,
      "fuelConsumedMl": 4349,
      "fuelConsumedGallons": 1.149,
      "maxSpeedMph": 50.0,
      "averageSpeedMph": 16.2,
      "safetyEvents": [],
      "_no_driver_login": false,
      "_fuel_note": ""
    },
    {
      "id": "trip_48291002_20250306_001",
      "vehicleId": "48291002",
      "driverId": "22831001",
      "startMs": 1741264140000,
      "endMs": 1741267499360,
      "startLocation": {
        "latitude": 39.806663,
        "longitude": -105.004268
      },
      "endLocation": {
        "latitude": 39.689706,
        "longitude": -105.050864
      },
      "startAddress": "8841 Sarah Villages",
      "endAddress": "992 Gregory Cliff",
      "startCoords": {
        "latitude": 39.798305,
        "longitude": -105.018665
      },
      "endCoords": {
        "latitude": 39.797936,
        "longitude": -104.906466
      },
      "distanceMeters": 20941.1,
      "durationMs": 3359360,
      "drivingDurationMs": 2813729,
      "idlingDurationMs": 545632,
      "fuelConsumedMl": 2661,
      "fuelConsumedGallons": 0.703,
      "maxSpeedMph": 43.4,
      "averageSpeedMph": 13.9,
      "safetyEvents": [],
      "_no_driver_login": false,
      "_fuel_note": "QUIRK 5: fuelConsumedGallons is in US gallons. Multiply by 3.785 for litres. Samsara does not link fuel to specific Onfleet tasks."
    },
    {
      "id": "trip_48291002_20250306_002",
      "vehicleId": "48291002",
      "driverId": "22831001",
      "startMs": 1741244160000,
      "endMs": 1741250992463,
      "startLocation": {
        "latitude": 39.782754,
        "longitude": -104.980948
      },
      "endLocation": {
        "latitude": 39.758126,
        "longitude": -105.049685
      },
      "startAddress": "27453 Molina Vista Suite 848",
      "endAddress": "4638 Matthew Inlet Suite 941",
      "startCoords": {
        "latitude": 39.690863,
        "longitude": -105.01153
      },
      "endCoords": {
        "latitude": 39.766104,
        "longitude": -105.029734
      },
      "distanceMeters": 53699.1,
      "durationMs": 6832464,
      "drivingDurationMs": 6515206,
      "idlingDurationMs": 317258,
      "fuelConsumedMl": 6829,
      "fuelConsumedGallons": 1.804,
      "maxSpeedMph": 54.4,
      "averageSpeedMph": 17.6,
      "safetyEvents": [],
      "_no_driver_login": false,
      "_fuel_note": ""
    },
    {
      "id": "trip_48291002_20250306_003",
      "vehicleId": "48291002",
      "driverId": "22831001",
      "startMs": 1741261320000,
      "endMs": 1741267779757,
      "startLocation": {
        "latitude": 39.710098,
        "longitude": -105.054039
      },
      "endLocation": {
        "latitude": 39.827278,
        "longitude": -105.041978
      },
      "startAddress": "0339 Linda Point Suite 064",
      "endAddress": "1392 Jennifer Prairie",
      "startCoords": {
        "latitude": 39.75008,
        "longitude": -105.047682
      },
      "endCoords": {
        "latitude": 39.824787,
        "longitude": -104.957492
      },
      "distanceMeters": 45321.2,
      "durationMs": 6459758,
      "drivingDurationMs": 5480684,
      "idlingDurationMs": 979074,
      "fuelConsumedMl": 5761,
      "fuelConsumedGallons": 1.522,
      "maxSpeedMph": 54.5,
      "averageSpeedMph": 15.7,
      "safetyEvents": [],
      "_no_driver_login": false,
      "_fuel_note": ""
    },
    {
      "id": "trip_48291002_20250306_004",
      "vehicleId": "48291002",
      "driverId": "22831001",
      "startMs": 1741263960000,
      "endMs": 1741270954509,
      "startLocation": {
        "latitude": 39.730004,
        "longitude": -104.900732
      },
      "endLocation": {
        "latitude": 39.807229,
        "longitude": -104.933186
      },
      "startAddress": "07991 Kevin Fields",
      "endAddress": "682 Christopher Locks Apt. 602",
      "startCoords": {
        "latitude": 39.803902,
        "longitude": -104.957483
      },
      "endCoords": {
        "latitude": 39.772815,
        "longitude": -104.982942
      },
      "distanceMeters": 39013.5,
      "durationMs": 6994510,
      "drivingDurationMs": 5797598,
      "idlingDurationMs": 1196912,
      "fuelConsumedMl": 4959,
      "fuelConsumedGallons": 1.31,
      "maxSpeedMph": 32.2,
      "averageSpeedMph": 12.5,
      "safetyEvents": [],
      "_no_driver_login": false,
      "_fuel_note": ""
    },
    {
      "id": "trip_48291002_20250306_005",
      "vehicleId": "48291002",
      "driverId": "22831001",
      "startMs": 1741258080000,
      "endMs": 1741259405338,
      "startLocation": {
        "latitude": 39.735678,
        "longitude": -104.943
      },
      "endLocation": {
        "latitude": 39.752356,
        "longitude": -104.991266
      },
      "startAddress": "593 Woods Meadow",
      "endAddress": "9801 Frank Route",
      "startCoords": {
        "latitude": 39.727342,
        "longitude": -105.02689
      },
      "endCoords": {
        "latitude": 39.796907,
        "longitude": -104.990877
      },
      "distanceMeters": 8216.5,
      "durationMs": 1325339,
      "drivingDurationMs": 1069777,
      "idlingDurationMs": 255562,
      "fuelConsumedMl": 1045,
      "fuelConsumedGallons": 0.276,
      "maxSpeedMph": 56.0,
      "averageSpeedMph": 13.9,
      "safetyEvents": [],
      "_no_driver_login": false,
      "_fuel_note": ""
    },
    {
      "id": "trip_48291002_20250306_006",
      "vehicleId": "48291002",
      "driverId": "22831001",
      "startMs": 1741281300000,
      "endMs": 1741292267424,
      "startLocation": {
        "latitude": 39.78212,
        "longitude": -105.002726
      },
      "endLocation": {
        "latitude": 39.814023,
        "longitude": -105.032375
      },
      "startAddress": "01773 Melissa Burg",
      "endAddress": "71684 Henderson Island Suite 307",
      "startCoords": {
        "latitude": 39.748612,
        "longitude": -104.950223
      },
      "endCoords": {
        "latitude": 39.732318,
        "longitude": -105.048264
      },
      "distanceMeters": 63880.0,
      "durationMs": 10967425,
      "drivingDurationMs": 9204008,
      "idlingDurationMs": 1763417,
      "fuelConsumedMl": 8123,
      "fuelConsumedGallons": 2.146,
      "maxSpeedMph": 53.6,
      "averageSpeedMph": 13.0,
      "safetyEvents": [],
      "_no_driver_login": false,
      "_fuel_note": ""
    },
    {
      "id": "trip_48291002_20250307_001",
      "vehicleId": "48291002",
      "driverId": "22831001",
      "startMs": 1741371060000,
      "endMs": 1741381200000,
      "startLocation": {
        "latitude": 39.737901,
        "longitude": -105.012153
      },
      "endLocation": {
        "latitude": 39.723749,
        "longitude": -104.979708
      },
      "startAddress": "427 Cantu Keys",
      "endAddress": "48118 James Centers Suite 130",
      "startCoords": {
        "latitude": 39.733322,
        "longitude": -104.916204
      },
      "endCoords": {
        "latitude": 39.756979,
        "longitude": -104.924492
      },
      "distanceMeters": 52213.4,
      "durationMs": 10140000,
      "drivingDurationMs": 8112000,
      "idlingDurationMs": 2028000,
      "fuelConsumedMl": 6640,
      "fuelConsumedGallons": 1.754,
      "maxSpeedMph": 47.2,
      "averageSpeedMph": 11.5,
      "safetyEvents": [],
      "_no_driver_login": false,
      "_fuel_note": "QUIRK 5: fuelConsumedGallons is in US gallons. Multiply by 3.785 for litres. Samsara does not link fuel to specific Onfleet tasks."
    },
    {
      "id": "trip_48291002_20250307_002",
      "vehicleId": "48291002",
      "driverId": "22831001",
      "startMs": 1741336020000,
      "endMs": 1741341937609,
      "startLocation": {
        "latitude": 39.744955,
        "longitude": -104.900452
      },
      "endLocation": {
        "latitude": 39.74587,
        "longitude": -104.963634
      },
      "startAddress": "41564 Harris Stream",
      "endAddress": "4991 Singleton Forks",
      "startCoords": {
        "latitude": 39.819054,
        "longitude": -105.025941
      },
      "endCoords": {
        "latitude": 39.707822,
        "longitude": -104.95378
      },
      "distanceMeters": 38180.7,
      "durationMs": 5917609,
      "drivingDurationMs": 4749695,
      "idlingDurationMs": 1167914,
      "fuelConsumedMl": 4853,
      "fuelConsumedGallons": 1.282,
      "maxSpeedMph": 28.5,
      "averageSpeedMph": 14.4,
      "safetyEvents": [],
      "_no_driver_login": false,
      "_fuel_note": ""
    },
    {
      "id": "trip_48291002_20250307_003",
      "vehicleId": "48291002",
      "driverId": "22831001",
      "startMs": 1741367100000,
      "endMs": 1741374449332,
      "startLocation": {
        "latitude": 39.771526,
        "longitude": -105.024734
      },
      "endLocation": {
        "latitude": 39.787791,
        "longitude": -104.957015
      },
      "startAddress": "697 Doyle Station",
      "endAddress": "31981 Griffin Shore Suite 684",
      "startCoords": {
        "latitude": 39.715236,
        "longitude": -104.952198
      },
      "endCoords": {
        "latitude": 39.764899,
        "longitude": -105.069994
      },
      "distanceMeters": 39873.9,
      "durationMs": 7349333,
      "drivingDurationMs": 6549636,
      "idlingDurationMs": 799697,
      "fuelConsumedMl": 5069,
      "fuelConsumedGallons": 1.339,
      "maxSpeedMph": 60.5,
      "averageSpeedMph": 12.1,
      "safetyEvents": [],
      "_no_driver_login": false,
      "_fuel_note": ""
    },
    {
      "id": "trip_48291002_20250308_001",
      "vehicleId": "48291002",
      "driverId": "22831001",
      "startMs": 1741428420000,
      "endMs": 1741429923514,
      "startLocation": {
        "latitude": 39.718357,
        "longitude": -104.981566
      },
      "endLocation": {
        "latitude": 39.7837,
        "longitude": -105.052392
      },
      "startAddress": "458 Dorothy Court",
      "endAddress": "213 Daugherty Spurs Apt. 999",
      "startCoords": {
        "latitude": 39.740302,
        "longitude": -105.009619
      },
      "endCoords": {
        "latitude": 39.690956,
        "longitude": -105.029356
      },
      "distanceMeters": 8073.6,
      "durationMs": 1503515,
      "drivingDurationMs": 1210749,
      "idlingDurationMs": 292765,
      "fuelConsumedMl": 1026,
      "fuelConsumedGallons": 0.271,
      "maxSpeedMph": 69.2,
      "averageSpeedMph": 12.0,
      "safetyEvents": [
        {
          "type": "speeding",
          "startMs": 1741428840000,
          "maxSpeedMph": 69.2
        }
      ],
      "_no_driver_login": false,
      "_fuel_note": "QUIRK 5: fuelConsumedGallons is in US gallons. Multiply by 3.785 for litres. Samsara does not link fuel to specific Onfleet tasks."
    },
    {
      "id": "trip_48291002_20250309_001",
      "vehicleId": "48291002",
      "driverId": "22831001",
      "startMs": 1741518000000,
      "endMs": 1741523413000,
      "startLocation": {
        "latitude": 39.762691,
        "longitude": -105.044528
      },
      "endLocation": {
        "latitude": 39.822931,
        "longitude": -104.901084
      },
      "startAddress": "549 Betty Harbors Apt. 663",
      "endAddress": "492 Jones Forge",
      "startCoords": {
        "latitude": 39.747442,
        "longitude": -105.039452
      },
      "endCoords": {
        "latitude": 39.758925,
        "longitude": -104.920735
      },
      "distanceMeters": 38006.2,
      "durationMs": 5413000,
      "drivingDurationMs": 4981830,
      "idlingDurationMs": 431170,
      "fuelConsumedMl": 4834,
      "fuelConsumedGallons": 1.277,
      "maxSpeedMph": 69.5,
      "averageSpeedMph": 15.7,
      "safetyEvents": [
        {
          "type": "speeding",
          "startMs": 1741520460000,
          "maxSpeedMph": 69.5
        }
      ],
      "_no_driver_login": false,
      "_fuel_note": "QUIRK 5: fuelConsumedGallons is in US gallons. Multiply by 3.785 for litres. Samsara does not link fuel to specific Onfleet tasks."
    },
    {
      "id": "trip_48291002_20250310_001",
      "vehicleId": "48291002",
      "driverId": "22831001",
      "startMs": 1741632660000,
      "endMs": 1741634141959,
      "startLocation": {
        "latitude": 39.68524,
        "longitude": -105.067885
      },
      "endLocation": {
        "latitude": 39.766991,
        "longitude": -105.062451
      },
      "startAddress": "7522 Melinda Summit Suite 797",
      "endAddress": "65885 Jeanne Curve Suite 719",
      "startCoords": {
        "latitude": 39.716734,
        "longitude": -104.947016
      },
      "endCoords": {
        "latitude": 39.814389,
        "longitude": -104.980983
      },
      "distanceMeters": 6506.2,
      "durationMs": 1481959,
      "drivingDurationMs": 1246396,
      "idlingDurationMs": 235563,
      "fuelConsumedMl": 829,
      "fuelConsumedGallons": 0.219,
      "maxSpeedMph": 60.5,
      "averageSpeedMph": 9.8,
      "safetyEvents": [],
      "_no_driver_login": false,
      "_fuel_note": "QUIRK 5: fuelConsumedGallons is in US gallons. Multiply by 3.785 for litres. Samsara does not link fuel to specific Onfleet tasks."
    },
    {
      "id": "trip_48291002_20250310_002",
      "vehicleId": "48291002",
      "driverId": "22831001",
      "startMs": 1741626780000,
      "endMs": 1741638823093,
      "startLocation": {
        "latitude": 39.756875,
        "longitude": -105.073972
      },
      "endLocation": {
        "latitude": 39.821868,
        "longitude": -105.028398
      },
      "startAddress": "3391 Johnson Brook",
      "endAddress": "550 Sheila Prairie",
      "startCoords": {
        "latitude": 39.744013,
        "longitude": -105.062912
      },
      "endCoords": {
        "latitude": 39.729532,
        "longitude": -104.960979
      },
      "distanceMeters": 57805.0,
      "durationMs": 12043093,
      "drivingDurationMs": 11017270,
      "idlingDurationMs": 1025823,
      "fuelConsumedMl": 7351,
      "fuelConsumedGallons": 1.942,
      "maxSpeedMph": 43.9,
      "averageSpeedMph": 10.7,
      "safetyEvents": [],
      "_no_driver_login": false,
      "_fuel_note": ""
    },
    {
      "id": "trip_48291002_20250310_003",
      "vehicleId": "48291002",
      "driverId": null,
      "startMs": 1741619580000,
      "endMs": 1741634065537,
      "startLocation": {
        "latitude": 39.819847,
        "longitude": -104.957307
      },
      "endLocation": {
        "latitude": 39.743245,
        "longitude": -104.923157
      },
      "startAddress": "524 Torres Gardens Suite 897",
      "endAddress": "4446 Kelly Place Suite 268",
      "startCoords": {
        "latitude": 39.798205,
        "longitude": -104.94624
      },
      "endCoords": {
        "latitude": 39.810763,
        "longitude": -105.077192
      },
      "distanceMeters": 59881.0,
      "durationMs": 14485537,
      "drivingDurationMs": 11629639,
      "idlingDurationMs": 2855898,
      "fuelConsumedMl": 7612,
      "fuelConsumedGallons": 2.011,
      "maxSpeedMph": 51.0,
      "averageSpeedMph": 9.2,
      "safetyEvents": [],
      "_no_driver_login": true,
      "_fuel_note": ""
    },
    {
      "id": "trip_48291002_20250311_001",
      "vehicleId": "48291002",
      "driverId": "22831001",
      "startMs": 1741714260000,
      "endMs": 1741726800000,
      "startLocation": {
        "latitude": 39.744569,
        "longitude": -105.087261
      },
      "endLocation": {
        "latitude": 39.780091,
        "longitude": -104.990687
      },
      "startAddress": "8608 Matthew Shores",
      "endAddress": "404 Hatfield Center Apt. 621",
      "startCoords": {
        "latitude": 39.816478,
        "longitude": -104.978233
      },
      "endCoords": {
        "latitude": 39.810446,
        "longitude": -105.085973
      },
      "distanceMeters": 69625.9,
      "durationMs": 12540000,
      "drivingDurationMs": 10032000,
      "idlingDurationMs": 2508000,
      "fuelConsumedMl": 8854,
      "fuelConsumedGallons": 2.339,
      "maxSpeedMph": 66.5,
      "averageSpeedMph": 12.4,
      "safetyEvents": [
        {
          "type": "speeding",
          "startMs": 1741723380000,
          "maxSpeedMph": 66.5
        }
      ],
      "_no_driver_login": false,
      "_fuel_note": "QUIRK 5: fuelConsumedGallons is in US gallons. Multiply by 3.785 for litres. Samsara does not link fuel to specific Onfleet tasks."
    },
    {
      "id": "trip_48291002_20250311_002",
      "vehicleId": "48291002",
      "driverId": "22831001",
      "startMs": 1741676700000,
      "endMs": 1741678363764,
      "startLocation": {
        "latitude": 39.725203,
        "longitude": -105.079099
      },
      "endLocation": {
        "latitude": 39.772045,
        "longitude": -104.97695
      },
      "startAddress": "4622 Aaron Summit",
      "endAddress": "516 Sonya Way Suite 599",
      "startCoords": {
        "latitude": 39.765895,
        "longitude": -104.92177
      },
      "endCoords": {
        "latitude": 39.809746,
        "longitude": -104.949143
      },
      "distanceMeters": 10502.2,
      "durationMs": 1663764,
      "drivingDurationMs": 1359086,
      "idlingDurationMs": 304678,
      "fuelConsumedMl": 1336,
      "fuelConsumedGallons": 0.353,
      "maxSpeedMph": 57.7,
      "averageSpeedMph": 14.1,
      "safetyEvents": [],
      "_no_driver_login": false,
      "_fuel_note": ""
    },
    {
      "id": "trip_48291002_20250311_003",
      "vehicleId": "48291002",
      "driverId": "22831001",
      "startMs": 1741689660000,
      "endMs": 1741699110079,
      "startLocation": {
        "latitude": 39.732505,
        "longitude": -105.031734
      },
      "endLocation": {
        "latitude": 39.730142,
        "longitude": -105.080351
      },
      "startAddress": "170 Christina Highway",
      "endAddress": "127 Harris Plaza Suite 029",
      "startCoords": {
        "latitude": 39.789112,
        "longitude": -105.01055
      },
      "endCoords": {
        "latitude": 39.777801,
        "longitude": -105.027985
      },
      "distanceMeters": 50848.8,
      "durationMs": 9450080,
      "drivingDurationMs": 9063133,
      "idlingDurationMs": 386947,
      "fuelConsumedMl": 6465,
      "fuelConsumedGallons": 1.708,
      "maxSpeedMph": 33.8,
      "averageSpeedMph": 12.0,
      "safetyEvents": [],
      "_no_driver_login": false,
      "_fuel_note": ""
    },
    {
      "id": "trip_48291002_20250311_004",
      "vehicleId": "48291002",
      "driverId": "22831001",
      "startMs": 1741696260000,
      "endMs": 1741707127385,
      "startLocation": {
        "latitude": 39.697115,
        "longitude": -105.03782
      },
      "endLocation": {
        "latitude": 39.703497,
        "longitude": -105.064217
      },
      "startAddress": "738 Linda Ridge Apt. 386",
      "endAddress": "5025 Williams Expressway Suite 487",
      "startCoords": {
        "latitude": 39.712322,
        "longitude": -104.916727
      },
      "endCoords": {
        "latitude": 39.747518,
        "longitude": -104.960992
      },
      "distanceMeters": 72713.9,
      "durationMs": 10867385,
      "drivingDurationMs": 9587291,
      "idlingDurationMs": 1280094,
      "fuelConsumedMl": 9244,
      "fuelConsumedGallons": 2.442,
      "maxSpeedMph": 53.9,
      "averageSpeedMph": 15.0,
      "safetyEvents": [],
      "_no_driver_login": false,
      "_fuel_note": ""
    },
    {
      "id": "trip_48291002_20250312_001",
      "vehicleId": "48291002",
      "driverId": "22831001",
      "startMs": 1741805640000,
      "endMs": 1741808319076,
      "startLocation": {
        "latitude": 39.82727,
        "longitude": -105.000769
      },
      "endLocation": {
        "latitude": 39.74972,
        "longitude": -105.069121
      },
      "startAddress": "71900 Wang Curve",
      "endAddress": "71462 Christopher Keys",
      "startCoords": {
        "latitude": 39.791328,
        "longitude": -105.017491
      },
      "endCoords": {
        "latitude": 39.684381,
        "longitude": -105.06841
      },
      "distanceMeters": 12484.4,
      "durationMs": 2679076,
      "drivingDurationMs": 2170293,
      "idlingDurationMs": 508783,
      "fuelConsumedMl": 1586,
      "fuelConsumedGallons": 0.419,
      "maxSpeedMph": 47.9,
      "averageSpeedMph": 10.4,
      "safetyEvents": [],
      "_no_driver_login": false,
      "_fuel_note": "QUIRK 5: fuelConsumedGallons is in US gallons. Multiply by 3.785 for litres. Samsara does not link fuel to specific Onfleet tasks."
    },
    {
      "id": "trip_48291002_20250312_002",
      "vehicleId": "48291002",
      "driverId": "22831001",
      "startMs": 1741772460000,
      "endMs": 1741774285665,
      "startLocation": {
        "latitude": 39.7715,
        "longitude": -105.042395
      },
      "endLocation": {
        "latitude": 39.780022,
        "longitude": -104.992539
      },
      "startAddress": "5411 Laura Dale Suite 454",
      "endAddress": "16567 Lindsay Meadows",
      "startCoords": {
        "latitude": 39.700054,
        "longitude": -105.020339
      },
      "endCoords": {
        "latitude": 39.749088,
        "longitude": -104.96273
      },
      "distanceMeters": 9112.8,
      "durationMs": 1825665,
      "drivingDurationMs": 1568493,
      "idlingDurationMs": 257173,
      "fuelConsumedMl": 1158,
      "fuelConsumedGallons": 0.306,
      "maxSpeedMph": 30.9,
      "averageSpeedMph": 11.2,
      "safetyEvents": [],
      "_no_driver_login": false,
      "_fuel_note": ""
    },
    {
      "id": "trip_48291002_20250312_003",
      "vehicleId": "48291002",
      "driverId": "22831001",
      "startMs": 1741781700000,
      "endMs": 1741794083703,
      "startLocation": {
        "latitude": 39.707739,
        "longitude": -105.067586
      },
      "endLocation": {
        "latitude": 39.683807,
        "longitude": -105.005533
      },
      "startAddress": "732 Saunders Stravenue Apt. 623",
      "endAddress": "491 Charles Crossing Apt. 724",
      "startCoords": {
        "latitude": 39.794964,
        "longitude": -104.958847
      },
      "endCoords": {
        "latitude": 39.752794,
        "longitude": -104.978282
      },
      "distanceMeters": 77166.7,
      "durationMs": 12383704,
      "drivingDurationMs": 10771008,
      "idlingDurationMs": 1612696,
      "fuelConsumedMl": 9812,
      "fuelConsumedGallons": 2.592,
      "maxSpeedMph": 52.1,
      "averageSpeedMph": 13.9,
      "safetyEvents": [],
      "_no_driver_login": false,
      "_fuel_note": ""
    },
    {
      "id": "trip_48291002_20250312_004",
      "vehicleId": "48291002",
      "driverId": "22831001",
      "startMs": 1741773360000,
      "endMs": 1741776021337,
      "startLocation": {
        "latitude": 39.751415,
        "longitude": -104.929075
      },
      "endLocation": {
        "latitude": 39.77371,
        "longitude": -104.972522
      },
      "startAddress": "848 Michael Mission Suite 983",
      "endAddress": "24575 Robin Ridge Suite 837",
      "startCoords": {
        "latitude": 39.738311,
        "longitude": -104.908312
      },
      "endCoords": {
        "latitude": 39.768648,
        "longitude": -104.970279
      },
      "distanceMeters": 19428.4,
      "durationMs": 2661337,
      "drivingDurationMs": 2400324,
      "idlingDurationMs": 261013,
      "fuelConsumedMl": 2472,
      "fuelConsumedGallons": 0.653,
      "maxSpeedMph": 29.6,
      "averageSpeedMph": 16.3,
      "safetyEvents": [],
      "_no_driver_login": false,
      "_fuel_note": ""
    },
    {
      "id": "trip_48291002_20250312_005",
      "vehicleId": "48291002",
      "driverId": "22831001",
      "startMs": 1741803900000,
      "endMs": 1741813200000,
      "startLocation": {
        "latitude": 39.696096,
        "longitude": -105.063862
      },
      "endLocation": {
        "latitude": 39.724699,
        "longitude": -104.934386
      },
      "startAddress": "00130 Ibarra Mill",
      "endAddress": "0796 Ryan Views",
      "startCoords": {
        "latitude": 39.699994,
        "longitude": -105.041878
      },
      "endCoords": {
        "latitude": 39.743542,
        "longitude": -104.958263
      },
      "distanceMeters": 64216.7,
      "durationMs": 9300000,
      "drivingDurationMs": 7728938,
      "idlingDurationMs": 1571062,
      "fuelConsumedMl": 8165,
      "fuelConsumedGallons": 2.157,
      "maxSpeedMph": 38.3,
      "averageSpeedMph": 15.4,
      "safetyEvents": [],
      "_no_driver_login": false,
      "_fuel_note": ""
    },
    {
      "id": "trip_48291002_20250312_006",
      "vehicleId": "48291002",
      "driverId": "22831001",
      "startMs": 1741762020000,
      "endMs": 1741765063578,
      "startLocation": {
        "latitude": 39.778114,
        "longitude": -104.96605
      },
      "endLocation": {
        "latitude": 39.794367,
        "longitude": -105.072939
      },
      "startAddress": "4467 Robert Radial",
      "endAddress": "111 Lopez Pines",
      "startCoords": {
        "latitude": 39.731604,
        "longitude": -104.999923
      },
      "endCoords": {
        "latitude": 39.816468,
        "longitude": -104.904608
      },
      "distanceMeters": 20399.0,
      "durationMs": 3043579,
      "drivingDurationMs": 2534650,
      "idlingDurationMs": 508928,
      "fuelConsumedMl": 2593,
      "fuelConsumedGallons": 0.685,
      "maxSpeedMph": 44.8,
      "averageSpeedMph": 15.0,
      "safetyEvents": [],
      "_no_driver_login": false,
      "_fuel_note": ""
    },
    {
      "id": "trip_48291002_20250313_001",
      "vehicleId": "48291002",
      "driverId": "22831001",
      "startMs": 1741862520000,
      "endMs": 1741872054919,
      "startLocation": {
        "latitude": 39.739284,
        "longitude": -105.057791
      },
      "endLocation": {
        "latitude": 39.793915,
        "longitude": -104.977893
      },
      "startAddress": "1766 Frazier Meadows Apt. 588",
      "endAddress": "3363 Trevino Drives",
      "startCoords": {
        "latitude": 39.820668,
        "longitude": -104.956759
      },
      "endCoords": {
        "latitude": 39.71401,
        "longitude": -105.009431
      },
      "distanceMeters": 74087.0,
      "durationMs": 9534919,
      "drivingDurationMs": 8767789,
      "idlingDurationMs": 767131,
      "fuelConsumedMl": 9418,
      "fuelConsumedGallons": 2.488,
      "maxSpeedMph": 58.0,
      "averageSpeedMph": 17.4,
      "safetyEvents": [],
      "_no_driver_login": false,
      "_fuel_note": "QUIRK 5: fuelConsumedGallons is in US gallons. Multiply by 3.785 for litres. Samsara does not link fuel to specific Onfleet tasks."
    },
    {
      "id": "trip_48291002_20250313_002",
      "vehicleId": "48291002",
      "driverId": "22831001",
      "startMs": 1741892340000,
      "endMs": 1741894579033,
      "startLocation": {
        "latitude": 39.763005,
        "longitude": -105.085452
      },
      "endLocation": {
        "latitude": 39.724717,
        "longitude": -104.900959
      },
      "startAddress": "04049 Miller Station",
      "endAddress": "99199 Crystal Harbor Suite 954",
      "startCoords": {
        "latitude": 39.82745,
        "longitude": -105.073777
      },
      "endCoords": {
        "latitude": 39.818287,
        "longitude": -104.954472
      },
      "distanceMeters": 10963.2,
      "durationMs": 2239034,
      "drivingDurationMs": 1981227,
      "idlingDurationMs": 257807,
      "fuelConsumedMl": 1393,
      "fuelConsumedGallons": 0.368,
      "maxSpeedMph": 32.4,
      "averageSpeedMph": 11.0,
      "safetyEvents": [],
      "_no_driver_login": false,
      "_fuel_note": ""
    },
    {
      "id": "trip_48291002_20250313_003",
      "vehicleId": "48291002",
      "driverId": "22831001",
      "startMs": 1741852620000,
      "endMs": 1741859854663,
      "startLocation": {
        "latitude": 39.802833,
        "longitude": -105.008948
      },
      "endLocation": {
        "latitude": 39.742868,
        "longitude": -104.947549
      },
      "startAddress": "52734 Miller Mount",
      "endAddress": "98642 Hernandez Pine Apt. 605",
      "startCoords": {
        "latitude": 39.707029,
        "longitude": -105.000588
      },
      "endCoords": {
        "latitude": 39.691634,
        "longitude": -104.968279
      },
      "distanceMeters": 37978.8,
      "durationMs": 7234664,
      "drivingDurationMs": 6437836,
      "idlingDurationMs": 796828,
      "fuelConsumedMl": 4830,
      "fuelConsumedGallons": 1.276,
      "maxSpeedMph": 67.7,
      "averageSpeedMph": 11.7,
      "safetyEvents": [
        {
          "type": "speeding",
          "startMs": 1741853160000,
          "maxSpeedMph": 67.7
        }
      ],
      "_no_driver_login": false,
      "_fuel_note": ""
    },
    {
      "id": "trip_48291002_20250314_001",
      "vehicleId": "48291002",
      "driverId": "22831001",
      "startMs": 1741956900000,
      "endMs": 1741961507372,
      "startLocation": {
        "latitude": 39.695648,
        "longitude": -104.92496
      },
      "endLocation": {
        "latitude": 39.714296,
        "longitude": -105.074784
      },
      "startAddress": "601 Amanda Forks Suite 081",
      "endAddress": "73714 Hailey Circle",
      "startCoords": {
        "latitude": 39.734389,
        "longitude": -105.045534
      },
      "endCoords": {
        "latitude": 39.779025,
        "longitude": -104.900876
      },
      "distanceMeters": 25969.5,
      "durationMs": 4607372,
      "drivingDurationMs": 3910625,
      "idlingDurationMs": 696747,
      "fuelConsumedMl": 3301,
      "fuelConsumedGallons": 0.872,
      "maxSpeedMph": 39.7,
      "averageSpeedMph": 12.6,
      "safetyEvents": [],
      "_no_driver_login": false,
      "_fuel_note": "QUIRK 5: fuelConsumedGallons is in US gallons. Multiply by 3.785 for litres. Samsara does not link fuel to specific Onfleet tasks."
    },
    {
      "id": "trip_48291002_20250314_002",
      "vehicleId": "48291002",
      "driverId": "22831001",
      "startMs": 1741964640000,
      "endMs": 1741969373949,
      "startLocation": {
        "latitude": 39.762694,
        "longitude": -105.044066
      },
      "endLocation": {
        "latitude": 39.755254,
        "longitude": -104.944928
      },
      "startAddress": "5202 Burgess Springs",
      "endAddress": "147 Brad Plaza",
      "startCoords": {
        "latitude": 39.756088,
        "longitude": -105.040914
      },
      "endCoords": {
        "latitude": 39.824595,
        "longitude": -104.922043
      },
      "distanceMeters": 26094.7,
      "durationMs": 4733950,
      "drivingDurationMs": 3954535,
      "idlingDurationMs": 779415,
      "fuelConsumedMl": 3316,
      "fuelConsumedGallons": 0.876,
      "maxSpeedMph": 52.6,
      "averageSpeedMph": 12.3,
      "safetyEvents": [],
      "_no_driver_login": false,
      "_fuel_note": ""
    },
    {
      "id": "trip_48291002_20250314_003",
      "vehicleId": "48291002",
      "driverId": "22831001",
      "startMs": 1741966620000,
      "endMs": 1741969200982,
      "startLocation": {
        "latitude": 39.82512,
        "longitude": -105.069222
      },
      "endLocation": {
        "latitude": 39.762364,
        "longitude": -104.939203
      },
      "startAddress": "7298 Hansen Avenue Apt. 784",
      "endAddress": "753 Sexton Parkways Suite 074",
      "startCoords": {
        "latitude": 39.807988,
        "longitude": -104.910495
      },
      "endCoords": {
        "latitude": 39.735221,
        "longitude": -105.050166
      },
      "distanceMeters": 17151.5,
      "durationMs": 2580982,
      "drivingDurationMs": 2267901,
      "idlingDurationMs": 313081,
      "fuelConsumedMl": 2180,
      "fuelConsumedGallons": 0.576,
      "maxSpeedMph": 62.8,
      "averageSpeedMph": 14.9,
      "safetyEvents": [],
      "_no_driver_login": false,
      "_fuel_note": ""
    },
    {
      "id": "trip_48291002_20250314_004",
      "vehicleId": "48291002",
      "driverId": "22831001",
      "startMs": 1741962180000,
      "endMs": 1741970649195,
      "startLocation": {
        "latitude": 39.758785,
        "longitude": -104.923551
      },
      "endLocation": {
        "latitude": 39.791833,
        "longitude": -104.925438
      },
      "startAddress": "727 Rhodes Points",
      "endAddress": "33421 Lopez River Suite 122",
      "startCoords": {
        "latitude": 39.737398,
        "longitude": -104.944329
      },
      "endCoords": {
        "latitude": 39.716578,
        "longitude": -104.966431
      },
      "distanceMeters": 71754.2,
      "durationMs": 8469196,
      "drivingDurationMs": 8153330,
      "idlingDurationMs": 315865,
      "fuelConsumedMl": 9123,
      "fuelConsumedGallons": 2.41,
      "maxSpeedMph": 38.9,
      "averageSpeedMph": 19.0,
      "safetyEvents": [],
      "_no_driver_login": false,
      "_fuel_note": ""
    },
    {
      "id": "trip_48291002_20250315_001",
      "vehicleId": "48291002",
      "driverId": "22831001",
      "startMs": 1742033700000,
      "endMs": 1742044291723,
      "startLocation": {
        "latitude": 39.80279,
        "longitude": -104.90973
      },
      "endLocation": {
        "latitude": 39.796463,
        "longitude": -104.911493
      },
      "startAddress": "7370 Kenneth View",
      "endAddress": "22465 Mitchell Course Apt. 973",
      "startCoords": {
        "latitude": 39.763132,
        "longitude": -105.061992
      },
      "endCoords": {
        "latitude": 39.747472,
        "longitude": -105.015628
      },
      "distanceMeters": 71010.4,
      "durationMs": 10591723,
      "drivingDurationMs": 8788317,
      "idlingDurationMs": 1803407,
      "fuelConsumedMl": 9028,
      "fuelConsumedGallons": 2.385,
      "maxSpeedMph": 52.2,
      "averageSpeedMph": 15.0,
      "safetyEvents": [],
      "_no_driver_login": false,
      "_fuel_note": "QUIRK 5: fuelConsumedGallons is in US gallons. Multiply by 3.785 for litres. Samsara does not link fuel to specific Onfleet tasks."
    },
    {
      "id": "trip_48291002_20250315_002",
      "vehicleId": "48291002",
      "driverId": "22831001",
      "startMs": 1742030640000,
      "endMs": 1742041997249,
      "startLocation": {
        "latitude": 39.817038,
        "longitude": -105.044579
      },
      "endLocation": {
        "latitude": 39.685915,
        "longitude": -105.067301
      },
      "startAddress": "593 Thomas Walk Apt. 813",
      "endAddress": "3241 Stephen Lock Suite 423",
      "startCoords": {
        "latitude": 39.687277,
        "longitude": -104.929691
      },
      "endCoords": {
        "latitude": 39.781257,
        "longitude": -104.954566
      },
      "distanceMeters": 64298.8,
      "durationMs": 11357250,
      "drivingDurationMs": 10985679,
      "idlingDurationMs": 371570,
      "fuelConsumedMl": 8176,
      "fuelConsumedGallons": 2.16,
      "maxSpeedMph": 44.9,
      "averageSpeedMph": 12.7,
      "safetyEvents": [],
      "_no_driver_login": false,
      "_fuel_note": ""
    },
    {
      "id": "trip_48291002_20250315_003",
      "vehicleId": "48291002",
      "driverId": "22831001",
      "startMs": 1742054460000,
      "endMs": 1742058013569,
      "startLocation": {
        "latitude": 39.744348,
        "longitude": -104.959887
      },
      "endLocation": {
        "latitude": 39.716621,
        "longitude": -104.95265
      },
      "startAddress": "8370 Ellis Loop",
      "endAddress": "41942 Tonya Shore",
      "startCoords": {
        "latitude": 39.707618,
        "longitude": -105.008098
      },
      "endCoords": {
        "latitude": 39.811866,
        "longitude": -105.036412
      },
      "distanceMeters": 24004.4,
      "durationMs": 3553570,
      "drivingDurationMs": 3277183,
      "idlingDurationMs": 276387,
      "fuelConsumedMl": 3051,
      "fuelConsumedGallons": 0.806,
      "maxSpeedMph": 33.4,
      "averageSpeedMph": 15.1,
      "safetyEvents": [],
      "_no_driver_login": false,
      "_fuel_note": ""
    },
    {
      "id": "trip_48291002_20250315_004",
      "vehicleId": "48291002",
      "driverId": "22831001",
      "startMs": 1742037180000,
      "endMs": 1742039751291,
      "startLocation": {
        "latitude": 39.774944,
        "longitude": -105.026474
      },
      "endLocation": {
        "latitude": 39.725494,
        "longitude": -104.938655
      },
      "startAddress": "6783 Blair Greens",
      "endAddress": "491 Doyle Views Apt. 015",
      "startCoords": {
        "latitude": 39.741102,
        "longitude": -104.942795
      },
      "endCoords": {
        "latitude": 39.801824,
        "longitude": -105.067415
      },
      "distanceMeters": 17623.4,
      "durationMs": 2571292,
      "drivingDurationMs": 2105077,
      "idlingDurationMs": 466215,
      "fuelConsumedMl": 2241,
      "fuelConsumedGallons": 0.592,
      "maxSpeedMph": 70.6,
      "averageSpeedMph": 15.3,
      "safetyEvents": [
        {
          "type": "speeding",
          "startMs": 1742039580000,
          "maxSpeedMph": 70.6
        }
      ],
      "_no_driver_login": false,
      "_fuel_note": ""
    },
    {
      "id": "trip_48291002_20250316_001",
      "vehicleId": "48291002",
      "driverId": "22831001",
      "startMs": 1742144460000,
      "endMs": 1742158293379,
      "startLocation": {
        "latitude": 39.777327,
        "longitude": -104.991955
      },
      "endLocation": {
        "latitude": 39.80681,
        "longitude": -104.925785
      },
      "startAddress": "04141 Rasmussen Court",
      "endAddress": "7917 William Junction",
      "startCoords": {
        "latitude": 39.698482,
        "longitude": -104.979256
      },
      "endCoords": {
        "latitude": 39.687244,
        "longitude": -104.970194
      },
      "distanceMeters": 64600.3,
      "durationMs": 13833380,
      "drivingDurationMs": 12428087,
      "idlingDurationMs": 1405293,
      "fuelConsumedMl": 8214,
      "fuelConsumedGallons": 2.17,
      "maxSpeedMph": 70.6,
      "averageSpeedMph": 10.4,
      "safetyEvents": [
        {
          "type": "speeding",
          "startMs": 1742155620000,
          "maxSpeedMph": 70.6
        }
      ],
      "_no_driver_login": false,
      "_fuel_note": "QUIRK 5: fuelConsumedGallons is in US gallons. Multiply by 3.785 for litres. Samsara does not link fuel to specific Onfleet tasks."
    },
    {
      "id": "trip_48291002_20250316_002",
      "vehicleId": "48291002",
      "driverId": "22831001",
      "startMs": 1742129280000,
      "endMs": 1742139005087,
      "startLocation": {
        "latitude": 39.797766,
        "longitude": -105.009766
      },
      "endLocation": {
        "latitude": 39.711668,
        "longitude": -105.016021
      },
      "startAddress": "30156 Crawford Pass Suite 747",
      "endAddress": "42231 Sandra Viaduct",
      "startCoords": {
        "latitude": 39.747836,
        "longitude": -104.99679
      },
      "endCoords": {
        "latitude": 39.742399,
        "longitude": -105.042786
      },
      "distanceMeters": 55517.9,
      "durationMs": 9725087,
      "drivingDurationMs": 8086664,
      "idlingDurationMs": 1638424,
      "fuelConsumedMl": 7060,
      "fuelConsumedGallons": 1.865,
      "maxSpeedMph": 62.1,
      "averageSpeedMph": 12.8,
      "safetyEvents": [],
      "_no_driver_login": false,
      "_fuel_note": ""
    },
    {
      "id": "trip_48291002_20250316_003",
      "vehicleId": "48291002",
      "driverId": "22831001",
      "startMs": 1742134320000,
      "endMs": 1742135817616,
      "startLocation": {
        "latitude": 39.72038,
        "longitude": -105.016815
      },
      "endLocation": {
        "latitude": 39.718009,
        "longitude": -104.986965
      },
      "startAddress": "24071 Mallory Terrace",
      "endAddress": "103 Michael Curve",
      "startCoords": {
        "latitude": 39.732934,
        "longitude": -105.08622
      },
      "endCoords": {
        "latitude": 39.810093,
        "longitude": -104.925124
      },
      "distanceMeters": 7652.2,
      "durationMs": 1497616,
      "drivingDurationMs": 1250484,
      "idlingDurationMs": 247132,
      "fuelConsumedMl": 973,
      "fuelConsumedGallons": 0.257,
      "maxSpeedMph": 70.5,
      "averageSpeedMph": 11.4,
      "safetyEvents": [
        {
          "type": "speeding",
          "startMs": 1742134440000,
          "maxSpeedMph": 70.5
        }
      ],
      "_no_driver_login": false,
      "_fuel_note": ""
    },
    {
      "id": "trip_48291002_20250316_004",
      "vehicleId": "48291002",
      "driverId": "22831001",
      "startMs": 1742140740000,
      "endMs": 1742144043437,
      "startLocation": {
        "latitude": 39.782189,
        "longitude": -104.93524
      },
      "endLocation": {
        "latitude": 39.746179,
        "longitude": -105.023276
      },
      "startAddress": "964 Mejia Passage Apt. 863",
      "endAddress": "246 Raymond Meadow",
      "startCoords": {
        "latitude": 39.754151,
        "longitude": -105.033393
      },
      "endCoords": {
        "latitude": 39.818774,
        "longitude": -104.97069
      },
      "distanceMeters": 24766.2,
      "durationMs": 3303438,
      "drivingDurationMs": 3010719,
      "idlingDurationMs": 292719,
      "fuelConsumedMl": 3149,
      "fuelConsumedGallons": 0.832,
      "maxSpeedMph": 53.8,
      "averageSpeedMph": 16.8,
      "safetyEvents": [],
      "_no_driver_login": false,
      "_fuel_note": ""
    },
    {
      "id": "trip_48291002_20250317_001",
      "vehicleId": "48291002",
      "driverId": "22831001",
      "startMs": 1742203020000,
      "endMs": 1742203842665,
      "startLocation": {
        "latitude": 39.80012,
        "longitude": -105.063949
      },
      "endLocation": {
        "latitude": 39.693465,
        "longitude": -105.035511
      },
      "startAddress": "3085 Paige Fields",
      "endAddress": "59881 Jacobs Forge",
      "startCoords": {
        "latitude": 39.727811,
        "longitude": -105.03888
      },
      "endCoords": {
        "latitude": 39.705614,
        "longitude": -104.977403
      },
      "distanceMeters": 5276.5,
      "durationMs": 822666,
      "drivingDurationMs": 649163,
      "idlingDurationMs": 173503,
      "fuelConsumedMl": 670,
      "fuelConsumedGallons": 0.177,
      "maxSpeedMph": 37.1,
      "averageSpeedMph": 14.3,
      "safetyEvents": [],
      "_no_driver_login": false,
      "_fuel_note": "QUIRK 5: fuelConsumedGallons is in US gallons. Multiply by 3.785 for litres. Samsara does not link fuel to specific Onfleet tasks."
    },
    {
      "id": "trip_48291002_20250317_002",
      "vehicleId": "48291002",
      "driverId": "22831001",
      "startMs": 1742199120000,
      "endMs": 1742207688176,
      "startLocation": {
        "latitude": 39.729976,
        "longitude": -104.993773
      },
      "endLocation": {
        "latitude": 39.735949,
        "longitude": -105.028175
      },
      "startAddress": "108 Williams Expressway Suite 670",
      "endAddress": "1857 Ashley Islands",
      "startCoords": {
        "latitude": 39.698573,
        "longitude": -104.948344
      },
      "endCoords": {
        "latitude": 39.784146,
        "longitude": -104.923261
      },
      "distanceMeters": 46740.5,
      "durationMs": 8568177,
      "drivingDurationMs": 6962906,
      "idlingDurationMs": 1605270,
      "fuelConsumedMl": 5943,
      "fuelConsumedGallons": 1.57,
      "maxSpeedMph": 69.6,
      "averageSpeedMph": 12.2,
      "safetyEvents": [
        {
          "type": "speeding",
          "startMs": 1742203800000,
          "maxSpeedMph": 69.6
        }
      ],
      "_no_driver_login": false,
      "_fuel_note": ""
    },
    {
      "id": "trip_48291002_20250317_003",
      "vehicleId": "48291002",
      "driverId": "22831001",
      "startMs": 1742200380000,
      "endMs": 1742206967497,
      "startLocation": {
        "latitude": 39.770665,
        "longitude": -105.017609
      },
      "endLocation": {
        "latitude": 39.722312,
        "longitude": -104.933966
      },
      "startAddress": "084 Michelle Manors",
      "endAddress": "84541 Sanders Hill Suite 652",
      "startCoords": {
        "latitude": 39.81239,
        "longitude": -104.960885
      },
      "endCoords": {
        "latitude": 39.691029,
        "longitude": -105.041355
      },
      "distanceMeters": 43908.8,
      "durationMs": 6587498,
      "drivingDurationMs": 6108985,
      "idlingDurationMs": 478513,
      "fuelConsumedMl": 5583,
      "fuelConsumedGallons": 1.475,
      "maxSpeedMph": 48.1,
      "averageSpeedMph": 14.9,
      "safetyEvents": [],
      "_no_driver_login": false,
      "_fuel_note": ""
    },
    {
      "id": "trip_48291002_20250318_001",
      "vehicleId": "48291002",
      "driverId": "22831001",
      "startMs": 1742322000000,
      "endMs": 1742329074129,
      "startLocation": {
        "latitude": 39.710998,
        "longitude": -105.033287
      },
      "endLocation": {
        "latitude": 39.738004,
        "longitude": -105.066911
      },
      "startAddress": "461 Lucas Groves",
      "endAddress": "53842 Andrew Islands Suite 770",
      "startCoords": {
        "latitude": 39.761403,
        "longitude": -104.931631
      },
      "endCoords": {
        "latitude": 39.742896,
        "longitude": -104.973417
      },
      "distanceMeters": 44195.4,
      "durationMs": 7074129,
      "drivingDurationMs": 6087050,
      "idlingDurationMs": 987079,
      "fuelConsumedMl": 5618,
      "fuelConsumedGallons": 1.484,
      "maxSpeedMph": 30.5,
      "averageSpeedMph": 14.0,
      "safetyEvents": [],
      "_no_driver_login": false,
      "_fuel_note": "QUIRK 5: fuelConsumedGallons is in US gallons. Multiply by 3.785 for litres. Samsara does not link fuel to specific Onfleet tasks."
    },
    {
      "id": "trip_48291002_20250318_002",
      "vehicleId": "48291002",
      "driverId": "22831001",
      "startMs": 1742283240000,
      "endMs": 1742295094647,
      "startLocation": {
        "latitude": 39.719838,
        "longitude": -104.918193
      },
      "endLocation": {
        "latitude": 39.720568,
        "longitude": -104.977573
      },
      "startAddress": "0546 Keith Harbor",
      "endAddress": "955 Kevin Key Suite 227",
      "startCoords": {
        "latitude": 39.704653,
        "longitude": -105.077762
      },
      "endCoords": {
        "latitude": 39.823226,
        "longitude": -104.916836
      },
      "distanceMeters": 59726.5,
      "durationMs": 11854648,
      "drivingDurationMs": 9543532,
      "idlingDurationMs": 2311116,
      "fuelConsumedMl": 7594,
      "fuelConsumedGallons": 2.006,
      "maxSpeedMph": 51.3,
      "averageSpeedMph": 11.3,
      "safetyEvents": [],
      "_no_driver_login": false,
      "_fuel_note": ""
    },
    {
      "id": "trip_48291002_20250318_003",
      "vehicleId": "48291002",
      "driverId": "22831001",
      "startMs": 1742293500000,
      "endMs": 1742305037650,
      "startLocation": {
        "latitude": 39.763698,
        "longitude": -104.899547
      },
      "endLocation": {
        "latitude": 39.77063,
        "longitude": -104.906095
      },
      "startAddress": "1614 Matthew Well",
      "endAddress": "720 Russell Spurs Suite 546",
      "startCoords": {
        "latitude": 39.816385,
        "longitude": -105.043279
      },
      "endCoords": {
        "latitude": 39.704699,
        "longitude": -105.009199
      },
      "distanceMeters": 77617.2,
      "durationMs": 11537650,
      "drivingDurationMs": 9547330,
      "idlingDurationMs": 1990320,
      "fuelConsumedMl": 9869,
      "fuelConsumedGallons": 2.607,
      "maxSpeedMph": 43.1,
      "averageSpeedMph": 15.0,
      "safetyEvents": [],
      "_no_driver_login": false,
      "_fuel_note": ""
    },
    {
      "id": "trip_48291002_20250319_001",
      "vehicleId": "48291002",
      "driverId": "22831001",
      "startMs": 1742394360000,
      "endMs": 1742400263151,
      "startLocation": {
        "latitude": 39.798057,
        "longitude": -104.900178
      },
      "endLocation": {
        "latitude": 39.741415,
        "longitude": -104.968375
      },
      "startAddress": "319 Angela Way",
      "endAddress": "49275 Angela Loop Suite 468",
      "startCoords": {
        "latitude": 39.714851,
        "longitude": -104.92918
      },
      "endCoords": {
        "latitude": 39.700316,
        "longitude": -105.037164
      },
      "distanceMeters": 38777.0,
      "durationMs": 5903152,
      "drivingDurationMs": 5566835,
      "idlingDurationMs": 336317,
      "fuelConsumedMl": 4929,
      "fuelConsumedGallons": 1.302,
      "maxSpeedMph": 58.3,
      "averageSpeedMph": 14.7,
      "safetyEvents": [],
      "_no_driver_login": false,
      "_fuel_note": "QUIRK 5: fuelConsumedGallons is in US gallons. Multiply by 3.785 for litres. Samsara does not link fuel to specific Onfleet tasks."
    },
    {
      "id": "trip_48291002_20250319_002",
      "vehicleId": "48291002",
      "driverId": "22831001",
      "startMs": 1742392680000,
      "endMs": 1742403215616,
      "startLocation": {
        "latitude": 39.779952,
        "longitude": -105.002364
      },
      "endLocation": {
        "latitude": 39.687054,
        "longitude": -104.984411
      },
      "startAddress": "2748 Rodney Tunnel",
      "endAddress": "230 Tyler Unions",
      "startCoords": {
        "latitude": 39.706664,
        "longitude": -105.081754
      },
      "endCoords": {
        "latitude": 39.825852,
        "longitude": -105.07258
      },
      "distanceMeters": 70363.1,
      "durationMs": 10535616,
      "drivingDurationMs": 8676985,
      "idlingDurationMs": 1858631,
      "fuelConsumedMl": 8945,
      "fuelConsumedGallons": 2.363,
      "maxSpeedMph": 69.6,
      "averageSpeedMph": 14.9,
      "safetyEvents": [
        {
          "type": "speeding",
          "startMs": 1742396760000,
          "maxSpeedMph": 69.6
        }
      ],
      "_no_driver_login": false,
      "_fuel_note": ""
    },
    {
      "id": "trip_48291002_20250319_003",
      "vehicleId": "48291002",
      "driverId": "22831001",
      "startMs": 1742397360000,
      "endMs": 1742404311119,
      "startLocation": {
        "latitude": 39.723856,
        "longitude": -105.039312
      },
      "endLocation": {
        "latitude": 39.704784,
        "longitude": -105.061916
      },
      "startAddress": "41347 Bishop Locks Apt. 287",
      "endAddress": "08236 Natalie Spur Suite 088",
      "startCoords": {
        "latitude": 39.814742,
        "longitude": -105.073014
      },
      "endCoords": {
        "latitude": 39.726239,
        "longitude": -104.9659
      },
      "distanceMeters": 46720.6,
      "durationMs": 6951120,
      "drivingDurationMs": 5681759,
      "idlingDurationMs": 1269361,
      "fuelConsumedMl": 5939,
      "fuelConsumedGallons": 1.569,
      "maxSpeedMph": 71.7,
      "averageSpeedMph": 15.0,
      "safetyEvents": [
        {
          "type": "speeding",
          "startMs": 1742402220000,
          "maxSpeedMph": 71.7
        }
      ],
      "_no_driver_login": false,
      "_fuel_note": ""
    },
    {
      "id": "trip_48291002_20250320_001",
      "vehicleId": "48291002",
      "driverId": "22831001",
      "startMs": 1742469240000,
      "endMs": 1742482015829,
      "startLocation": {
        "latitude": 39.758655,
        "longitude": -104.906287
      },
      "endLocation": {
        "latitude": 39.782166,
        "longitude": -104.977058
      },
      "startAddress": "60394 Douglas Cliff Suite 382",
      "endAddress": "36016 Stevens Way Suite 324",
      "startCoords": {
        "latitude": 39.782613,
        "longitude": -105.078814
      },
      "endCoords": {
        "latitude": 39.736342,
        "longitude": -105.029873
      },
      "distanceMeters": 82978.8,
      "durationMs": 12775829,
      "drivingDurationMs": 11280361,
      "idlingDurationMs": 1495468,
      "fuelConsumedMl": 10550,
      "fuelConsumedGallons": 2.787,
      "maxSpeedMph": 70.0,
      "averageSpeedMph": 14.5,
      "safetyEvents": [
        {
          "type": "speeding",
          "startMs": 1742475480000,
          "maxSpeedMph": 70.0
        }
      ],
      "_no_driver_login": false,
      "_fuel_note": "QUIRK 5: fuelConsumedGallons is in US gallons. Multiply by 3.785 for litres. Samsara does not link fuel to specific Onfleet tasks."
    },
    {
      "id": "trip_48291002_20250320_002",
      "vehicleId": "48291002",
      "driverId": "22831001",
      "startMs": 1742480400000,
      "endMs": 1742482120528,
      "startLocation": {
        "latitude": 39.823176,
        "longitude": -104.909817
      },
      "endLocation": {
        "latitude": 39.699334,
        "longitude": -104.971781
      },
      "startAddress": "2461 Gutierrez Ramp",
      "endAddress": "077 Schmitt Green Apt. 601",
      "startCoords": {
        "latitude": 39.718874,
        "longitude": -104.979473
      },
      "endCoords": {
        "latitude": 39.699843,
        "longitude": -104.973044
      },
      "distanceMeters": 11827.3,
      "durationMs": 1720528,
      "drivingDurationMs": 1535062,
      "idlingDurationMs": 185466,
      "fuelConsumedMl": 1503,
      "fuelConsumedGallons": 0.397,
      "maxSpeedMph": 33.7,
      "averageSpeedMph": 15.4,
      "safetyEvents": [],
      "_no_driver_login": false,
      "_fuel_note": ""
    },
    {
      "id": "trip_48291002_20250320_003",
      "vehicleId": "48291002",
      "driverId": "22831001",
      "startMs": 1742494560000,
      "endMs": 1742504400000,
      "startLocation": {
        "latitude": 39.754228,
        "longitude": -104.961003
      },
      "endLocation": {
        "latitude": 39.703329,
        "longitude": -105.018562
      },
      "startAddress": "4830 Rebecca Extension Apt. 417",
      "endAddress": "287 Elizabeth Path Apt. 608",
      "startCoords": {
        "latitude": 39.8233,
        "longitude": -104.91751
      },
      "endCoords": {
        "latitude": 39.686501,
        "longitude": -104.959098
      },
      "distanceMeters": 67869.7,
      "durationMs": 9840000,
      "drivingDurationMs": 9386586,
      "idlingDurationMs": 453414,
      "fuelConsumedMl": 8631,
      "fuelConsumedGallons": 2.28,
      "maxSpeedMph": 36.1,
      "averageSpeedMph": 15.4,
      "safetyEvents": [],
      "_no_driver_login": false,
      "_fuel_note": ""
    },
    {
      "id": "trip_48291002_20250321_001",
      "vehicleId": "48291002",
      "driverId": "22831001",
      "startMs": 1742541480000,
      "endMs": 1742549311855,
      "startLocation": {
        "latitude": 39.733695,
        "longitude": -104.975144
      },
      "endLocation": {
        "latitude": 39.794235,
        "longitude": -104.899952
      },
      "startAddress": "80299 Hobbs Meadows",
      "endAddress": "518 Freeman Spur Suite 754",
      "startCoords": {
        "latitude": 39.712031,
        "longitude": -104.958241
      },
      "endCoords": {
        "latitude": 39.765579,
        "longitude": -105.024836
      },
      "distanceMeters": 59120.5,
      "durationMs": 7831855,
      "drivingDurationMs": 6743315,
      "idlingDurationMs": 1088540,
      "fuelConsumedMl": 7518,
      "fuelConsumedGallons": 1.986,
      "maxSpeedMph": 49.9,
      "averageSpeedMph": 16.9,
      "safetyEvents": [],
      "_no_driver_login": false,
      "_fuel_note": "QUIRK 5: fuelConsumedGallons is in US gallons. Multiply by 3.785 for litres. Samsara does not link fuel to specific Onfleet tasks."
    },
    {
      "id": "trip_48291002_20250321_002",
      "vehicleId": "48291002",
      "driverId": "22831001",
      "startMs": 1742571840000,
      "endMs": 1742578063193,
      "startLocation": {
        "latitude": 39.818594,
        "longitude": -105.051314
      },
      "endLocation": {
        "latitude": 39.76139,
        "longitude": -105.058199
      },
      "startAddress": "38548 Key Garden",
      "endAddress": "2299 Robert Courts",
      "startCoords": {
        "latitude": 39.701019,
        "longitude": -105.067718
      },
      "endCoords": {
        "latitude": 39.779375,
        "longitude": -104.926841
      },
      "distanceMeters": 29986.7,
      "durationMs": 6223193,
      "drivingDurationMs": 5842019,
      "idlingDurationMs": 381174,
      "fuelConsumedMl": 3812,
      "fuelConsumedGallons": 1.007,
      "maxSpeedMph": 60.5,
      "averageSpeedMph": 10.8,
      "safetyEvents": [],
      "_no_driver_login": false,
      "_fuel_note": ""
    },
    {
      "id": "trip_48291002_20250322_001",
      "vehicleId": "48291002",
      "driverId": "22831001",
      "startMs": 1742649180000,
      "endMs": 1742652527829,
      "startLocation": {
        "latitude": 39.737628,
        "longitude": -104.999517
      },
      "endLocation": {
        "latitude": 39.802077,
        "longitude": -104.974946
      },
      "startAddress": "037 Brenda Circle",
      "endAddress": "0366 Porter Neck",
      "startCoords": {
        "latitude": 39.746339,
        "longitude": -104.97634
      },
      "endCoords": {
        "latitude": 39.685163,
        "longitude": -105.018971
      },
      "distanceMeters": 22098.7,
      "durationMs": 3347829,
      "drivingDurationMs": 2971602,
      "idlingDurationMs": 376227,
      "fuelConsumedMl": 2809,
      "fuelConsumedGallons": 0.742,
      "maxSpeedMph": 65.9,
      "averageSpeedMph": 14.8,
      "safetyEvents": [
        {
          "type": "speeding",
          "startMs": 1742650980000,
          "maxSpeedMph": 65.9
        }
      ],
      "_no_driver_login": false,
      "_fuel_note": "QUIRK 5: fuelConsumedGallons is in US gallons. Multiply by 3.785 for litres. Samsara does not link fuel to specific Onfleet tasks."
    },
    {
      "id": "trip_48291002_20250322_002",
      "vehicleId": "48291002",
      "driverId": "22831001",
      "startMs": 1742647680000,
      "endMs": 1742660123411,
      "startLocation": {
        "latitude": 39.779751,
        "longitude": -105.062304
      },
      "endLocation": {
        "latitude": 39.719424,
        "longitude": -105.058007
      },
      "startAddress": "07180 Wallace Island Apt. 877",
      "endAddress": "288 Barnes Square Suite 989",
      "startCoords": {
        "latitude": 39.765714,
        "longitude": -104.976585
      },
      "endCoords": {
        "latitude": 39.804063,
        "longitude": -104.900815
      },
      "distanceMeters": 62984.3,
      "durationMs": 12443411,
      "drivingDurationMs": 10643563,
      "idlingDurationMs": 1799848,
      "fuelConsumedMl": 8006,
      "fuelConsumedGallons": 2.115,
      "maxSpeedMph": 29.4,
      "averageSpeedMph": 11.3,
      "safetyEvents": [],
      "_no_driver_login": false,
      "_fuel_note": ""
    },
    {
      "id": "trip_48291002_20250323_001",
      "vehicleId": "48291002",
      "driverId": "22831001",
      "startMs": 1742737020000,
      "endMs": 1742741773111,
      "startLocation": {
        "latitude": 39.703803,
        "longitude": -104.913335
      },
      "endLocation": {
        "latitude": 39.799109,
        "longitude": -105.006726
      },
      "startAddress": "726 Frank Keys Suite 497",
      "endAddress": "76448 Matthews Lake",
      "startCoords": {
        "latitude": 39.810914,
        "longitude": -104.967218
      },
      "endCoords": {
        "latitude": 39.761736,
        "longitude": -104.901453
      },
      "distanceMeters": 32777.7,
      "durationMs": 4753111,
      "drivingDurationMs": 3813641,
      "idlingDurationMs": 939470,
      "fuelConsumedMl": 4168,
      "fuelConsumedGallons": 1.101,
      "maxSpeedMph": 44.2,
      "averageSpeedMph": 15.4,
      "safetyEvents": [],
      "_no_driver_login": false,
      "_fuel_note": "QUIRK 5: fuelConsumedGallons is in US gallons. Multiply by 3.785 for litres. Samsara does not link fuel to specific Onfleet tasks."
    },
    {
      "id": "trip_48291002_20250324_001",
      "vehicleId": "48291002",
      "driverId": "22831001",
      "startMs": 1742803680000,
      "endMs": 1742810148700,
      "startLocation": {
        "latitude": 39.754017,
        "longitude": -105.067947
      },
      "endLocation": {
        "latitude": 39.724488,
        "longitude": -105.061797
      },
      "startAddress": "66949 Adrian Loaf",
      "endAddress": "24352 Peggy Garden Apt. 766",
      "startCoords": {
        "latitude": 39.800239,
        "longitude": -104.988008
      },
      "endCoords": {
        "latitude": 39.776648,
        "longitude": -104.905692
      },
      "distanceMeters": 32683.2,
      "durationMs": 6468701,
      "drivingDurationMs": 6266662,
      "idlingDurationMs": 202039,
      "fuelConsumedMl": 4156,
      "fuelConsumedGallons": 1.098,
      "maxSpeedMph": 56.3,
      "averageSpeedMph": 11.3,
      "safetyEvents": [],
      "_no_driver_login": false,
      "_fuel_note": "QUIRK 5: fuelConsumedGallons is in US gallons. Multiply by 3.785 for litres. Samsara does not link fuel to specific Onfleet tasks."
    },
    {
      "id": "trip_48291002_20250324_002",
      "vehicleId": "48291002",
      "driverId": "22831001",
      "startMs": 1742804820000,
      "endMs": 1742816786081,
      "startLocation": {
        "latitude": 39.711159,
        "longitude": -104.911304
      },
      "endLocation": {
        "latitude": 39.790755,
        "longitude": -104.901869
      },
      "startAddress": "980 Flores Glen",
      "endAddress": "0655 Smith Mountain",
      "startCoords": {
        "latitude": 39.807981,
        "longitude": -105.032701
      },
      "endCoords": {
        "latitude": 39.798234,
        "longitude": -104.945409
      },
      "distanceMeters": 66911.8,
      "durationMs": 11966081,
      "drivingDurationMs": 9773210,
      "idlingDurationMs": 2192872,
      "fuelConsumedMl": 8506,
      "fuelConsumedGallons": 2.247,
      "maxSpeedMph": 37.4,
      "averageSpeedMph": 12.5,
      "safetyEvents": [],
      "_no_driver_login": false,
      "_fuel_note": ""
    },
    {
      "id": "trip_48291002_20250324_003",
      "vehicleId": "48291002",
      "driverId": "22831001",
      "startMs": 1742806920000,
      "endMs": 1742818214622,
      "startLocation": {
        "latitude": 39.689064,
        "longitude": -105.034866
      },
      "endLocation": {
        "latitude": 39.689086,
        "longitude": -105.011781
      },
      "startAddress": "64182 Roberts Green Apt. 957",
      "endAddress": "97026 Taylor Stream Suite 028",
      "startCoords": {
        "latitude": 39.79229,
        "longitude": -104.928543
      },
      "endCoords": {
        "latitude": 39.693528,
        "longitude": -104.992927
      },
      "distanceMeters": 51411.7,
      "durationMs": 11294623,
      "drivingDurationMs": 9160512,
      "idlingDurationMs": 2134110,
      "fuelConsumedMl": 6537,
      "fuelConsumedGallons": 1.727,
      "maxSpeedMph": 58.8,
      "averageSpeedMph": 10.2,
      "safetyEvents": [],
      "_no_driver_login": false,
      "_fuel_note": ""
    },
    {
      "id": "trip_48291002_20250324_004",
      "vehicleId": "48291002",
      "driverId": "22831001",
      "startMs": 1742802480000,
      "endMs": 1742806694272,
      "startLocation": {
        "latitude": 39.800207,
        "longitude": -104.960221
      },
      "endLocation": {
        "latitude": 39.75915,
        "longitude": -104.976079
      },
      "startAddress": "09469 Jamie Islands Apt. 105",
      "endAddress": "8849 Jared Expressway Suite 081",
      "startCoords": {
        "latitude": 39.692209,
        "longitude": -104.949266
      },
      "endCoords": {
        "latitude": 39.726413,
        "longitude": -105.086078
      },
      "distanceMeters": 21286.9,
      "durationMs": 4214273,
      "drivingDurationMs": 3593220,
      "idlingDurationMs": 621052,
      "fuelConsumedMl": 2707,
      "fuelConsumedGallons": 0.715,
      "maxSpeedMph": 52.1,
      "averageSpeedMph": 11.3,
      "safetyEvents": [],
      "_no_driver_login": false,
      "_fuel_note": ""
    },
    {
      "id": "trip_48291002_20250325_001",
      "vehicleId": "48291002",
      "driverId": "22831001",
      "startMs": 1742925840000,
      "endMs": 1742930747107,
      "startLocation": {
        "latitude": 39.751723,
        "longitude": -105.079588
      },
      "endLocation": {
        "latitude": 39.739188,
        "longitude": -104.958989
      },
      "startAddress": "4573 Anderson Shores",
      "endAddress": "143 Duffy Plaza",
      "startCoords": {
        "latitude": 39.686236,
        "longitude": -105.041544
      },
      "endCoords": {
        "latitude": 39.789388,
        "longitude": -104.965308
      },
      "distanceMeters": 33017.9,
      "durationMs": 4907108,
      "drivingDurationMs": 4360984,
      "idlingDurationMs": 546124,
      "fuelConsumedMl": 4198,
      "fuelConsumedGallons": 1.109,
      "maxSpeedMph": 28.3,
      "averageSpeedMph": 15.1,
      "safetyEvents": [],
      "_no_driver_login": false,
      "_fuel_note": "QUIRK 5: fuelConsumedGallons is in US gallons. Multiply by 3.785 for litres. Samsara does not link fuel to specific Onfleet tasks."
    },
    {
      "id": "trip_48291002_20250325_002",
      "vehicleId": "48291002",
      "driverId": "22831001",
      "startMs": 1742889120000,
      "endMs": 1742894650736,
      "startLocation": {
        "latitude": 39.764579,
        "longitude": -104.925642
      },
      "endLocation": {
        "latitude": 39.688358,
        "longitude": -105.045112
      },
      "startAddress": "006 Ryan Branch",
      "endAddress": "311 Chloe Shoal",
      "startCoords": {
        "latitude": 39.689837,
        "longitude": -105.060567
      },
      "endCoords": {
        "latitude": 39.720651,
        "longitude": -105.006564
      },
      "distanceMeters": 38821.3,
      "durationMs": 5530737,
      "drivingDurationMs": 5108884,
      "idlingDurationMs": 421853,
      "fuelConsumedMl": 4936,
      "fuelConsumedGallons": 1.304,
      "maxSpeedMph": 70.0,
      "averageSpeedMph": 15.7,
      "safetyEvents": [
        {
          "type": "speeding",
          "startMs": 1742891400000,
          "maxSpeedMph": 70.0
        }
      ],
      "_no_driver_login": false,
      "_fuel_note": ""
    },
    {
      "id": "trip_48291002_20250325_003",
      "vehicleId": "48291002",
      "driverId": null,
      "startMs": 1742926140000,
      "endMs": 1742934654929,
      "startLocation": {
        "latitude": 39.758477,
        "longitude": -105.022897
      },
      "endLocation": {
        "latitude": 39.783195,
        "longitude": -104.971024
      },
      "startAddress": "738 Madden Roads Suite 357",
      "endAddress": "98160 Edward Tunnel Suite 304",
      "startCoords": {
        "latitude": 39.808747,
        "longitude": -105.039038
      },
      "endCoords": {
        "latitude": 39.809864,
        "longitude": -104.929109
      },
      "distanceMeters": 71934.6,
      "durationMs": 8514929,
      "drivingDurationMs": 8289178,
      "idlingDurationMs": 225751,
      "fuelConsumedMl": 9146,
      "fuelConsumedGallons": 2.416,
      "maxSpeedMph": 52.9,
      "averageSpeedMph": 18.9,
      "safetyEvents": [],
      "_no_driver_login": true,
      "_fuel_note": ""
    },
    {
      "id": "trip_48291002_20250325_004",
      "vehicleId": "48291002",
      "driverId": "22831001",
      "startMs": 1742925060000,
      "endMs": 1742934309510,
      "startLocation": {
        "latitude": 39.750193,
        "longitude": -105.086111
      },
      "endLocation": {
        "latitude": 39.795311,
        "longitude": -104.97784
      },
      "startAddress": "15822 Kramer Throughway",
      "endAddress": "089 Ariel Locks",
      "startCoords": {
        "latitude": 39.696077,
        "longitude": -104.92998
      },
      "endCoords": {
        "latitude": 39.689971,
        "longitude": -104.943714
      },
      "distanceMeters": 56298.7,
      "durationMs": 9249511,
      "drivingDurationMs": 7536577,
      "idlingDurationMs": 1712934,
      "fuelConsumedMl": 7158,
      "fuelConsumedGallons": 1.891,
      "maxSpeedMph": 37.5,
      "averageSpeedMph": 13.6,
      "safetyEvents": [],
      "_no_driver_login": false,
      "_fuel_note": ""
    },
    {
      "id": "trip_48291002_20250325_005",
      "vehicleId": "48291002",
      "driverId": "22831001",
      "startMs": 1742921640000,
      "endMs": 1742925207453,
      "startLocation": {
        "latitude": 39.772913,
        "longitude": -105.02811
      },
      "endLocation": {
        "latitude": 39.739261,
        "longitude": -104.915414
      },
      "startAddress": "200 Alyssa Extension",
      "endAddress": "702 Green Club",
      "startCoords": {
        "latitude": 39.751121,
        "longitude": -104.980972
      },
      "endCoords": {
        "latitude": 39.766869,
        "longitude": -104.990013
      },
      "distanceMeters": 23083.6,
      "durationMs": 3567453,
      "drivingDurationMs": 3337388,
      "idlingDurationMs": 230065,
      "fuelConsumedMl": 2934,
      "fuelConsumedGallons": 0.775,
      "maxSpeedMph": 36.1,
      "averageSpeedMph": 14.5,
      "safetyEvents": [],
      "_no_driver_login": false,
      "_fuel_note": ""
    },
    {
      "id": "trip_48291002_20250325_006",
      "vehicleId": "48291002",
      "driverId": "22831001",
      "startMs": 1742889600000,
      "endMs": 1742897041242,
      "startLocation": {
        "latitude": 39.698283,
        "longitude": -105.024014
      },
      "endLocation": {
        "latitude": 39.798413,
        "longitude": -104.936492
      },
      "startAddress": "9535 David Overpass Suite 496",
      "endAddress": "13980 Snyder Stream",
      "startCoords": {
        "latitude": 39.745048,
        "longitude": -104.921262
      },
      "endCoords": {
        "latitude": 39.741328,
        "longitude": -105.022647
      },
      "distanceMeters": 51430.3,
      "durationMs": 7441242,
      "drivingDurationMs": 6027606,
      "idlingDurationMs": 1413636,
      "fuelConsumedMl": 6537,
      "fuelConsumedGallons": 1.727,
      "maxSpeedMph": 70.2,
      "averageSpeedMph": 15.5,
      "safetyEvents": [
        {
          "type": "speeding",
          "startMs": 1742895600000,
          "maxSpeedMph": 70.2
        }
      ],
      "_no_driver_login": false,
      "_fuel_note": ""
    },
    {
      "id": "trip_48291002_20250326_001",
      "vehicleId": "48291002",
      "driverId": "22831001",
      "startMs": 1743010680000,
      "endMs": 1743022333513,
      "startLocation": {
        "latitude": 39.691878,
        "longitude": -104.982947
      },
      "endLocation": {
        "latitude": 39.798167,
        "longitude": -104.929759
      },
      "startAddress": "72103 Singh Mount",
      "endAddress": "267 Michael Views Suite 473",
      "startCoords": {
        "latitude": 39.749025,
        "longitude": -105.054144
      },
      "endCoords": {
        "latitude": 39.724122,
        "longitude": -104.934469
      },
      "distanceMeters": 72358.2,
      "durationMs": 11653514,
      "drivingDurationMs": 11398846,
      "idlingDurationMs": 254667,
      "fuelConsumedMl": 9199,
      "fuelConsumedGallons": 2.43,
      "maxSpeedMph": 67.1,
      "averageSpeedMph": 13.9,
      "safetyEvents": [
        {
          "type": "speeding",
          "startMs": 1743012360000,
          "maxSpeedMph": 67.1
        }
      ],
      "_no_driver_login": false,
      "_fuel_note": "QUIRK 5: fuelConsumedGallons is in US gallons. Multiply by 3.785 for litres. Samsara does not link fuel to specific Onfleet tasks."
    },
    {
      "id": "trip_48291002_20250326_002",
      "vehicleId": "48291002",
      "driverId": "22831001",
      "startMs": 1742971260000,
      "endMs": 1742983261700,
      "startLocation": {
        "latitude": 39.699723,
        "longitude": -104.971864
      },
      "endLocation": {
        "latitude": 39.706802,
        "longitude": -104.914063
      },
      "startAddress": "5449 Lawson Junctions",
      "endAddress": "650 Patterson Avenue Suite 161",
      "startCoords": {
        "latitude": 39.788019,
        "longitude": -104.921498
      },
      "endCoords": {
        "latitude": 39.729945,
        "longitude": -105.067723
      },
      "distanceMeters": 73440.4,
      "durationMs": 12001700,
      "drivingDurationMs": 11657649,
      "idlingDurationMs": 344051,
      "fuelConsumedMl": 9339,
      "fuelConsumedGallons": 2.467,
      "maxSpeedMph": 33.7,
      "averageSpeedMph": 13.7,
      "safetyEvents": [],
      "_no_driver_login": false,
      "_fuel_note": ""
    },
    {
      "id": "trip_48291002_20250326_003",
      "vehicleId": "48291002",
      "driverId": "22831001",
      "startMs": 1742979060000,
      "endMs": 1742989600330,
      "startLocation": {
        "latitude": 39.737602,
        "longitude": -105.030906
      },
      "endLocation": {
        "latitude": 39.73336,
        "longitude": -104.991973
      },
      "startAddress": "2562 Castaneda Ridge Suite 481",
      "endAddress": "041 Daniel Avenue Suite 784",
      "startCoords": {
        "latitude": 39.686866,
        "longitude": -104.94428
      },
      "endCoords": {
        "latitude": 39.70317,
        "longitude": -105.032382
      },
      "distanceMeters": 48777.8,
      "durationMs": 10540330,
      "drivingDurationMs": 8517389,
      "idlingDurationMs": 2022941,
      "fuelConsumedMl": 6201,
      "fuelConsumedGallons": 1.638,
      "maxSpeedMph": 70.7,
      "averageSpeedMph": 10.4,
      "safetyEvents": [
        {
          "type": "speeding",
          "startMs": 1742980620000,
          "maxSpeedMph": 70.7
        }
      ],
      "_no_driver_login": false,
      "_fuel_note": ""
    },
    {
      "id": "trip_48291002_20250327_001",
      "vehicleId": "48291002",
      "driverId": "22831001",
      "startMs": 1743081900000,
      "endMs": 1743090825934,
      "startLocation": {
        "latitude": 39.77708,
        "longitude": -105.024874
      },
      "endLocation": {
        "latitude": 39.742087,
        "longitude": -105.02655
      },
      "startAddress": "4893 Dougherty Island",
      "endAddress": "339 Noah Parkway",
      "startCoords": {
        "latitude": 39.708112,
        "longitude": -105.040722
      },
      "endCoords": {
        "latitude": 39.703676,
        "longitude": -104.966968
      },
      "distanceMeters": 52101.1,
      "durationMs": 8925935,
      "drivingDurationMs": 8677870,
      "idlingDurationMs": 248064,
      "fuelConsumedMl": 6624,
      "fuelConsumedGallons": 1.75,
      "maxSpeedMph": 33.7,
      "averageSpeedMph": 13.1,
      "safetyEvents": [],
      "_no_driver_login": false,
      "_fuel_note": "QUIRK 5: fuelConsumedGallons is in US gallons. Multiply by 3.785 for litres. Samsara does not link fuel to specific Onfleet tasks."
    },
    {
      "id": "trip_48291002_20250327_002",
      "vehicleId": "48291002",
      "driverId": "22831001",
      "startMs": 1743083820000,
      "endMs": 1743096533028,
      "startLocation": {
        "latitude": 39.779187,
        "longitude": -104.90021
      },
      "endLocation": {
        "latitude": 39.769423,
        "longitude": -104.974283
      },
      "startAddress": "206 James Inlet",
      "endAddress": "7170 Clinton Summit",
      "startCoords": {
        "latitude": 39.757206,
        "longitude": -104.989726
      },
      "endCoords": {
        "latitude": 39.825782,
        "longitude": -105.083788
      },
      "distanceMeters": 64285.0,
      "durationMs": 12713028,
      "drivingDurationMs": 11789134,
      "idlingDurationMs": 923895,
      "fuelConsumedMl": 8173,
      "fuelConsumedGallons": 2.159,
      "maxSpeedMph": 66.8,
      "averageSpeedMph": 11.3,
      "safetyEvents": [
        {
          "type": "speeding",
          "startMs": 1743094320000,
          "maxSpeedMph": 66.8
        }
      ],
      "_no_driver_login": false,
      "_fuel_note": ""
    },
    {
      "id": "trip_48291002_20250327_003",
      "vehicleId": "48291002",
      "driverId": "22831001",
      "startMs": 1743067200000,
      "endMs": 1743073797235,
      "startLocation": {
        "latitude": 39.719971,
        "longitude": -105.027603
      },
      "endLocation": {
        "latitude": 39.76374,
        "longitude": -105.067861
      },
      "startAddress": "061 Cassandra Camp Suite 430",
      "endAddress": "043 Allen Stream",
      "startCoords": {
        "latitude": 39.695744,
        "longitude": -104.968307
      },
      "endCoords": {
        "latitude": 39.709565,
        "longitude": -104.949877
      },
      "distanceMeters": 29640.6,
      "durationMs": 6597236,
      "drivingDurationMs": 5661412,
      "idlingDurationMs": 935823,
      "fuelConsumedMl": 3770,
      "fuelConsumedGallons": 0.996,
      "maxSpeedMph": 50.2,
      "averageSpeedMph": 10.1,
      "safetyEvents": [],
      "_no_driver_login": false,
      "_fuel_note": ""
    },
    {
      "id": "trip_48291002_20250327_004",
      "vehicleId": "48291002",
      "driverId": "22831001",
      "startMs": 1743088140000,
      "endMs": 1743098578335,
      "startLocation": {
        "latitude": 39.704386,
        "longitude": -105.007143
      },
      "endLocation": {
        "latitude": 39.76341,
        "longitude": -104.984672
      },
      "startAddress": "7373 Sean Mountains",
      "endAddress": "543 Ross Estates",
      "startCoords": {
        "latitude": 39.700699,
        "longitude": -104.980344
      },
      "endCoords": {
        "latitude": 39.76873,
        "longitude": -104.972983
      },
      "distanceMeters": 59279.6,
      "durationMs": 10438335,
      "drivingDurationMs": 9528278,
      "idlingDurationMs": 910057,
      "fuelConsumedMl": 7537,
      "fuelConsumedGallons": 1.991,
      "maxSpeedMph": 62.7,
      "averageSpeedMph": 12.7,
      "safetyEvents": [],
      "_no_driver_login": false,
      "_fuel_note": ""
    },
    {
      "id": "trip_48291002_20250328_001",
      "vehicleId": "48291002",
      "driverId": "22831001",
      "startMs": 1743152040000,
      "endMs": 1743165581910,
      "startLocation": {
        "latitude": 39.751917,
        "longitude": -105.006432
      },
      "endLocation": {
        "latitude": 39.705601,
        "longitude": -104.915775
      },
      "startAddress": "6413 Daryl Square Apt. 254",
      "endAddress": "447 Cox Landing",
      "startCoords": {
        "latitude": 39.761592,
        "longitude": -105.015133
      },
      "endCoords": {
        "latitude": 39.790879,
        "longitude": -104.987945
      },
      "distanceMeters": 76305.0,
      "durationMs": 13541911,
      "drivingDurationMs": 10979022,
      "idlingDurationMs": 2562888,
      "fuelConsumedMl": 9702,
      "fuelConsumedGallons": 2.563,
      "maxSpeedMph": 47.1,
      "averageSpeedMph": 12.6,
      "safetyEvents": [],
      "_no_driver_login": false,
      "_fuel_note": "QUIRK 5: fuelConsumedGallons is in US gallons. Multiply by 3.785 for litres. Samsara does not link fuel to specific Onfleet tasks."
    },
    {
      "id": "trip_48291002_20250328_002",
      "vehicleId": "48291002",
      "driverId": "22831001",
      "startMs": 1743164820000,
      "endMs": 1743166638083,
      "startLocation": {
        "latitude": 39.73804,
        "longitude": -104.929095
      },
      "endLocation": {
        "latitude": 39.694219,
        "longitude": -104.997712
      },
      "startAddress": "54018 Case Creek",
      "endAddress": "756 Sharon Way Suite 155",
      "startCoords": {
        "latitude": 39.730981,
        "longitude": -104.967045
      },
      "endCoords": {
        "latitude": 39.70124,
        "longitude": -104.972379
      },
      "distanceMeters": 8002.0,
      "durationMs": 1818083,
      "drivingDurationMs": 1462419,
      "idlingDurationMs": 355664,
      "fuelConsumedMl": 1018,
      "fuelConsumedGallons": 0.269,
      "maxSpeedMph": 46.8,
      "averageSpeedMph": 9.8,
      "safetyEvents": [],
      "_no_driver_login": false,
      "_fuel_note": ""
    },
    {
      "id": "trip_48291002_20250329_001",
      "vehicleId": "48291002",
      "driverId": "22831001",
      "startMs": 1743272700000,
      "endMs": 1743273968039,
      "startLocation": {
        "latitude": 39.699735,
        "longitude": -105.034656
      },