{
  "vehicleId": "40026912",
  "vehicleName": "DEN-MOTO-01",
  "month": "2025_03",
  "pagination": {
    "endCursor": "trip_40026912_20250331_013",
    "hasNextPage": false
  },
  "trips": [
    {
      "id": "trip_40026912_20250301_001",
      "vehicleId": "40026912",
      "driverId": "20000016",
      "startMs": 1740854160000,
      "endMs": 1740857916110,
      "startAddress": "765 Beck Shoals",
      "endAddress": "719 Thomas Crossroad Apt. 971",
      "startCoords": {
        "latitude": 39.71612,
        "longitude": -104.924667
      },
      "endCoords": {
        "latitude": 39.722639,
        "longitude": -105.061846
      },
      "distanceMeters": 24947.1,
      "durationMs": 3756111,
      "drivingDurationMs": 3041108,
      "idlingDurationMs": 715002,
      "fuelConsumedMl": 1128,
      "fuelConsumedGallons": 0.298,
      "maxSpeedMph": 37.1,
      "averageSpeedMph": 14.9,
      "safetyEvents": []
    },
    {
      "id": "trip_40026912_20250301_002",
      "vehicleId": "40026912",
      "driverId": "20000016",
      "startMs": 1740846660000,
      "endMs": 1740847978893,
      "startAddress": "14497 Hardy Parkway Suite 212",
      "endAddress": "55403 Mcpherson Lodge Apt. 142",
      "startCoords": {
        "latitude": 39.685539,
        "longitude": -105.035643
      },
      "endCoords": {
        "latitude": 39.804326,
        "longitude": -104.965198
      },
      "distanceMeters": 11007.7,
      "durationMs": 1318893,
      "drivingDurationMs": 1077722,
      "idlingDurationMs": 241171,
      "fuelConsumedMl": 500,
      "fuelConsumedGallons": 0.132,
      "maxSpeedMph": 33.6,
      "averageSpeedMph": 18.7,
      "safetyEvents": []
    },
    {
      "id": "trip_40026912_20250301_003",
      "vehicleId": "40026912",
      "driverId": "20000016",
      "startMs": 1740826440000,
      "endMs": 1740829197766,
      "startAddress": "03303 Garcia Branch",
      "endAddress": "808 Reilly Circle Suite 588",
      "startCoords": {
        "latitude": 39.801189,
        "longitude": -105.038179
      },
      "endCoords": {
        "latitude": 39.765507,
        "longitude": -104.957293
      },
      "distanceMeters": 18269.4,
      "durationMs": 2757766,
      "drivingDurationMs": 2298877,
      "idlingDurationMs": 458890,
      "fuelConsumedMl": 825,
      "fuelConsumedGallons": 0.218,
      "maxSpeedMph": 46.1,
      "averageSpeedMph": 14.8,
      "safetyEvents": []
    },
    {
      "id": "trip_40026912_20250301_004",
      "vehicleId": "40026912",
      "driverId": "20000016",
      "startMs": 1740839040000,
      "endMs": 1740842040046,
      "startAddress": "3030 Tran Port Suite 375",
      "endAddress": "73614 Kevin Islands Apt. 491",
      "startCoords": {
        "latitude": 39.756869,
        "longitude": -105.043241
      },
      "endCoords": {
        "latitude": 39.720554,
        "longitude": -105.00526
      },
      "distanceMeters": 24287.6,
      "durationMs": 3000047,
      "drivingDurationMs": 2508030,
      "idlingDurationMs": 492016,
      "fuelConsumedMl": 1098,
      "fuelConsumedGallons": 0.29,
      "maxSpeedMph": 64.8,
      "averageSpeedMph": 18.1,
      "safetyEvents": []
    },
    {
      "id": "trip_40026912_20250301_005",
      "vehicleId": "40026912",
      "driverId": "20000016",
      "startMs": 1740808800000,
      "endMs": 1740809558888,
      "startAddress": "8932 Shannon Terrace Suite 362",
      "endAddress": "67088 Hancock Shoal",
      "startCoords": {
        "latitude": 39.694989,
        "longitude": -104.965868
      },
      "endCoords": {
        "latitude": 39.731932,
        "longitude": -104.949249
      },
      "distanceMeters": 5154.9,
      "durationMs": 758889,
      "drivingDurationMs": 592634,
      "idlingDurationMs": 166255,
      "fuelConsumedMl": 235,
      "fuelConsumedGallons": 0.062,
      "maxSpeedMph": 42.1,
      "averageSpeedMph": 15.2,
      "safetyEvents": []
    },
    {
      "id": "trip_40026912_20250301_006",
      "vehicleId": "40026912",
      "driverId": "20000016",
      "startMs": 1740848880000,
      "endMs": 1740851674198,
      "startAddress": "68886 Carter Meadows Suite 232",
      "endAddress": "53833 Linda Ways",
      "startCoords": {
        "latitude": 39.825732,
        "longitude": -105.05125
      },
      "endCoords": {
        "latitude": 39.807183,
        "longitude": -104.975751
      },
      "distanceMeters": 23332.9,
      "durationMs": 2794199,
      "drivingDurationMs": 2285603,
      "idlingDurationMs": 508596,
      "fuelConsumedMl": 1056,
      "fuelConsumedGallons": 0.279,
      "maxSpeedMph": 33.7,
      "averageSpeedMph": 18.7,
      "safetyEvents": []
    },
    {
      "id": "trip_40026912_20250303_001",
      "vehicleId": "40026912",
      "driverId": "20000008",
      "startMs": 1741027860000,
      "endMs": 1741029799468,
      "startAddress": "195 Teresa Oval Suite 216",
      "endAddress": "2466 Robert Lakes Apt. 252",
      "startCoords": {
        "latitude": 39.713107,
        "longitude": -104.983478
      },
      "endCoords": {
        "latitude": 39.728226,
        "longitude": -105.05029
      },
      "distanceMeters": 17399.6,
      "durationMs": 1939469,
      "drivingDurationMs": 1698277,
      "idlingDurationMs": 241192,
      "fuelConsumedMl": 787,
      "fuelConsumedGallons": 0.208,
      "maxSpeedMph": 53.0,
      "averageSpeedMph": 20.1,
      "safetyEvents": []
    },
    {
      "id": "trip_40026912_20250303_002",
      "vehicleId": "40026912",
      "driverId": "20000008",
      "startMs": 1741024740000,
      "endMs": 1741027289016,
      "startAddress": "115 Ryan Mountains",
      "endAddress": "405 Walton Viaduct Suite 431",
      "startCoords": {
        "latitude": 39.753845,
        "longitude": -104.985635
      },
      "endCoords": {
        "latitude": 39.724765,
        "longitude": -105.007213
      },
      "distanceMeters": 14935.2,
      "durationMs": 2549017,
      "drivingDurationMs": 2340765,
      "idlingDurationMs": 208252,
      "fuelConsumedMl": 674,
      "fuelConsumedGallons": 0.178,
      "maxSpeedMph": 53.0,
      "averageSpeedMph": 13.1,
      "safetyEvents": []
    },
    {
      "id": "trip_40026912_20250303_003",
      "vehicleId": "40026912",
      "driverId": "20000008",
      "startMs": 1741027440000,
      "endMs": 1741029941345,
      "startAddress": "13628 Yoder Common Apt. 199",
      "endAddress": "554 Andrew Via Suite 787",
      "startCoords": {
        "latitude": 39.755783,
        "longitude": -104.950569
      },
      "endCoords": {
        "latitude": 39.740613,
        "longitude": -104.92704
      },
      "distanceMeters": 21141.8,
      "durationMs": 2501345,
      "drivingDurationMs": 2114814,
      "idlingDurationMs": 386531,
      "fuelConsumedMl": 958,
      "fuelConsumedGallons": 0.253,
      "maxSpeedMph": 31.5,
      "averageSpeedMph": 18.9,
      "safetyEvents": []
    },
    {
      "id": "trip_40026912_20250303_004",
      "vehicleId": "40026912",
      "driverId": "20000008",
      "startMs": 1741003620000,
      "endMs": 1741007614154,
      "startAddress": "773 Rodriguez Squares Suite 061",
      "endAddress": "403 Kyle Prairie",
      "startCoords": {
        "latitude": 39.740916,
        "longitude": -105.008952
      },
      "endCoords": {
        "latitude": 39.809655,
        "longitude": -104.921276
      },
      "distanceMeters": 24017.2,
      "durationMs": 3994154,
      "drivingDurationMs": 3250527,
      "idlingDurationMs": 743628,
      "fuelConsumedMl": 1086,
      "fuelConsumedGallons": 0.287,
      "maxSpeedMph": 57.0,
      "averageSpeedMph": 13.5,
      "safetyEvents": []
    },
    {
      "id": "trip_40026912_20250303_005",
      "vehicleId": "40026912",
      "driverId": "20000008",
      "startMs": 1741000980000,
      "endMs": 1741001586396,
      "startAddress": "31392 Brian Plains Suite 521",
      "endAddress": "739 Patricia Lake",
      "startCoords": {
        "latitude": 39.79691,
        "longitude": -105.0651
      },
      "endCoords": {
        "latitude": 39.714928,
        "longitude": -104.939798
      },
      "distanceMeters": 4546.6,
      "durationMs": 606396,
      "drivingDurationMs": 434808,
      "idlingDurationMs": 171588,
      "fuelConsumedMl": 204,
      "fuelConsumedGallons": 0.054,
      "maxSpeedMph": 44.0,
      "averageSpeedMph": 16.8,
      "safetyEvents": []
    },
    {
      "id": "trip_40026912_20250303_006",
      "vehicleId": "40026912",
      "driverId": "20000008",
      "startMs": 1741020780000,
      "endMs": 1741022312325,
      "startAddress": "42408 Barnett Views",
      "endAddress": "6685 Ibarra Plains",
      "startCoords": {
        "latitude": 39.740527,
        "longitude": -104.986473
      },
      "endCoords": {
        "latitude": 39.788122,
        "longitude": -105.021299
      },
      "distanceMeters": 11377.4,
      "durationMs": 1532325,
      "drivingDurationMs": 1289820,
      "idlingDurationMs": 242505,
      "fuelConsumedMl": 515,
      "fuelConsumedGallons": 0.136,
      "maxSpeedMph": 58.6,
      "averageSpeedMph": 16.6,
      "safetyEvents": []
    },
    {
      "id": "trip_40026912_20250303_007",
      "vehicleId": "40026912",
      "driverId": "20000008",
      "startMs": 1741023780000,
      "endMs": 1741025521075,
      "startAddress": "219 Costa Springs",
      "endAddress": "3400 Wiley Groves",
      "startCoords": {
        "latitude": 39.759796,
        "longitude": -105.072366
      },
      "endCoords": {
        "latitude": 39.755152,
        "longitude": -105.075354
      },
      "distanceMeters": 9916.6,
      "durationMs": 1741076,
      "drivingDurationMs": 1422921,
      "idlingDurationMs": 318155,
      "fuelConsumedMl": 447,
      "fuelConsumedGallons": 0.118,
      "maxSpeedMph": 55.9,
      "averageSpeedMph": 12.7,
      "safetyEvents": []
    },
    {
      "id": "trip_40026912_20250303_008",
      "vehicleId": "40026912",
      "driverId": "20000008",
      "startMs": 1740996900000,
      "endMs": 1741000637670,
      "startAddress": "3976 Wesley Lock",
      "endAddress": "756 Raymond Canyon Suite 752",
      "startCoords": {
        "latitude": 39.722264,
        "longitude": -105.051475
      },
      "endCoords": {
        "latitude": 39.805974,
        "longitude": -104.935972
      },
      "distanceMeters": 24365.6,
      "durationMs": 3737671,
      "drivingDurationMs": 3059799,
      "idlingDurationMs": 677871,
      "fuelConsumedMl": 1102,
      "fuelConsumedGallons": 0.291,
      "maxSpeedMph": 43.2,
      "averageSpeedMph": 14.6,
      "safetyEvents": []
    },
    {
      "id": "trip_40026912_20250303_009",
      "vehicleId": "40026912",
      "driverId": "20000008",
      "startMs": 1740986640000,
      "endMs": 1740989168187,
      "startAddress": "66497 Justin Glens",
      "endAddress": "0532 Jonathan Key",
      "startCoords": {
        "latitude": 39.728152,
        "longitude": -105.027994
      },
      "endCoords": {
        "latitude": 39.761187,
        "longitude": -105.049653
      },
      "distanceMeters": 21706.9,
      "durationMs": 2528188,
      "drivingDurationMs": 2168726,
      "idlingDurationMs": 359462,
      "fuelConsumedMl": 980,
      "fuelConsumedGallons": 0.259,
      "maxSpeedMph": 63.7,
      "averageSpeedMph": 19.2,
      "safetyEvents": []
    },
    {
      "id": "trip_40026912_20250304_001",
      "vehicleId": "40026912",
      "driverId": "20000012",
      "startMs": 1741093680000,
      "endMs": 1741096830631,
      "startAddress": "494 Baldwin Neck Apt. 491",
      "endAddress": "345 Patricia Court",
      "startCoords": {
        "latitude": 39.693154,
        "longitude": -105.053936
      },
      "endCoords": {
        "latitude": 39.778898,
        "longitude": -104.930176
      },
      "distanceMeters": 22213.4,
      "durationMs": 3150631,
      "drivingDurationMs": 2698460,
      "idlingDurationMs": 452171,
      "fuelConsumedMl": 1003,
      "fuelConsumedGallons": 0.265,
      "maxSpeedMph": 37.1,
      "averageSpeedMph": 15.8,
      "safetyEvents": []
    },
    {
      "id": "trip_40026912_20250304_002",
      "vehicleId": "40026912",
      "driverId": "20000012",
      "startMs": 1741104720000,
      "endMs": 1741105687885,
      "startAddress": "8787 Amanda Port",
      "endAddress": "9521 Kevin Branch",
      "startCoords": {
        "latitude": 39.710826,
        "longitude": -104.958971
      },
      "endCoords": {
        "latitude": 39.77154,
        "longitude": -105.052365
      },
      "distanceMeters": 6586.0,
      "durationMs": 967885,
      "drivingDurationMs": 784213,
      "idlingDurationMs": 183672,
      "fuelConsumedMl": 299,
      "fuelConsumedGallons": 0.079,
      "maxSpeedMph": 64.9,
      "averageSpeedMph": 15.2,
      "safetyEvents": []
    },
    {
      "id": "trip_40026912_20250304_003",
      "vehicleId": "40026912",
      "driverId": "20000012",
      "startMs": 1741096200000,
      "endMs": 1741097683608,
      "startAddress": "285 Snyder Corners Suite 403",
      "endAddress": "81052 Dustin Ridge Suite 085",
      "startCoords": {
        "latitude": 39.770028,
        "longitude": -104.928915
      },
      "endCoords": {
        "latitude": 39.808564,
        "longitude": -105.078335
      },
      "distanceMeters": 12815.3,
      "durationMs": 1483608,
      "drivingDurationMs": 1271009,
      "idlingDurationMs": 212600,
      "fuelConsumedMl": 579,
      "fuelConsumedGallons": 0.153,
      "maxSpeedMph": 61.9,
      "averageSpeedMph": 19.3,
      "safetyEvents": []
    },
    {
      "id": "trip_40026912_20250304_004",
      "vehicleId": "40026912",
      "driverId": "20000012",
      "startMs": 1741090500000,
      "endMs": 1741092110854,
      "startAddress": "712 Lauren Parks Apt. 810",
      "endAddress": "550 Jackson Wells Suite 509",
      "startCoords": {
        "latitude": 39.758337,
        "longitude": -105.08663
      },
      "endCoords": {
        "latitude": 39.767967,
        "longitude": -104.941276
      },
      "distanceMeters": 9069.3,
      "durationMs": 1610855,
      "drivingDurationMs": 1326812,
      "idlingDurationMs": 284043,
      "fuelConsumedMl": 409,
      "fuelConsumedGallons": 0.108,
      "maxSpeedMph": 37.2,
      "averageSpeedMph": 12.6,
      "safetyEvents": []
    },
    {
      "id": "trip_40026912_20250304_005",
      "vehicleId": "40026912",
      "driverId": "20000012",
      "startMs": 1741093440000,
      "endMs": 1741097317799,
      "startAddress": "40223 Amy Plaza",
      "endAddress": "35712 Rodriguez Keys Suite 286",
      "startCoords": {
        "latitude": 39.803431,
        "longitude": -104.943176
      },
      "endCoords": {
        "latitude": 39.75151,
        "longitude": -105.049526
      },
      "distanceMeters": 23211.7,
      "durationMs": 3877799,
      "drivingDurationMs": 3672331,
      "idlingDurationMs": 205468,
      "fuelConsumedMl": 1049,
      "fuelConsumedGallons": 0.277,
      "maxSpeedMph": 37.6,
      "averageSpeedMph": 13.4,
      "safetyEvents": []
    },
    {
      "id": "trip_40026912_20250304_006",
      "vehicleId": "40026912",
      "driverId": "20000012",
      "startMs": 1741110600000,
      "endMs": 1741112767001,
      "startAddress": "41167 Ross Overpass Apt. 030",
      "endAddress": "2440 Melissa Path Apt. 876",
      "startCoords": {
        "latitude": 39.796315,
        "longitude": -105.019051
      },
      "endCoords": {
        "latitude": 39.811843,
        "longitude": -104.960583
      },
      "distanceMeters": 15566.6,
      "durationMs": 2167001,
      "drivingDurationMs": 1853701,
      "idlingDurationMs": 313300,
      "fuelConsumedMl": 704,
      "fuelConsumedGallons": 0.186,
      "maxSpeedMph": 28.8,
      "averageSpeedMph": 16.1,
      "safetyEvents": []
    },
    {
      "id": "trip_40026912_20250305_001",
      "vehicleId": "40026912",
      "driverId": "20000002",
      "startMs": 1741179180000,
      "endMs": 1741182624940,
      "startAddress": "1081 Carlos Walks Apt. 987",
      "endAddress": "53948 Michelle Meadows Suite 463",
      "startCoords": {
        "latitude": 39.730888,
        "longitude": -104.914733
      },
      "endCoords": {
        "latitude": 39.76286,
        "longitude": -104.981898
      },
      "distanceMeters": 18978.1,
      "durationMs": 3444940,
      "drivingDurationMs": 2897617,
      "idlingDurationMs": 547324,
      "fuelConsumedMl": 859,
      "fuelConsumedGallons": 0.227,
      "maxSpeedMph": 48.8,
      "averageSpeedMph": 12.3,
      "safetyEvents": []
    },
    {
      "id": "trip_40026912_20250305_002",
      "vehicleId": "40026912",
      "driverId": "20000002",
      "startMs": 1741185180000,
      "endMs": 1741187897631,
      "startAddress": "2082 Flores Curve Apt. 195",
      "endAddress": "316 Clark Divide Suite 344",
      "startCoords": {
        "latitude": 39.742803,
        "longitude": -104.928763
      },
      "endCoords": {
        "latitude": 39.776769,
        "longitude": -104.92878
      },
      "distanceMeters": 16857.3,
      "durationMs": 2717631,
      "drivingDurationMs": 2447493,
      "idlingDurationMs": 270139,
      "fuelConsumedMl": 761,
      "fuelConsumedGallons": 0.201,
      "maxSpeedMph": 28.5,
      "averageSpeedMph": 13.9,
      "safetyEvents": []
    },
    {
      "id": "trip_40026912_20250305_003",
      "vehicleId": "40026912",
      "driverId": "20000002",
      "startMs": 1741197420000,
      "endMs": 1741199834042,
      "startAddress": "735 Ryan Avenue",
      "endAddress": "4915 Lyons Islands",
      "startCoords": {
        "latitude": 39.751943,
        "longitude": -104.93828
      },
      "endCoords": {
        "latitude": 39.736741,
        "longitude": -104.966412
      },
      "distanceMeters": 18526.7,
      "durationMs": 2414043,
      "drivingDurationMs": 1955146,
      "idlingDurationMs": 458897,
      "fuelConsumedMl": 837,
      "fuelConsumedGallons": 0.221,
      "maxSpeedMph": 62.4,
      "averageSpeedMph": 17.2,
      "safetyEvents": []
    },
    {
      "id": "trip_40026912_20250305_004",
      "vehicleId": "40026912",
      "driverId": "20000002",
      "startMs": 1741191120000,
      "endMs": 1741193446230,
      "startAddress": "074 Matthew Oval",
      "endAddress": "28395 Hernandez Mews",
      "startCoords": {
        "latitude": 39.713369,
        "longitude": -105.058017
      },
      "endCoords": {
        "latitude": 39.707769,
        "longitude": -105.077107
      },
      "distanceMeters": 18213.5,
      "durationMs": 2326231,
      "drivingDurationMs": 2126807,
      "idlingDurationMs": 199424,
      "fuelConsumedMl": 825,
      "fuelConsumedGallons": 0.218,
      "maxSpeedMph": 37.8,
      "averageSpeedMph": 17.5,
      "safetyEvents": []
    },
    {
      "id": "trip_40026912_20250305_005",
      "vehicleId": "40026912",
      "driverId": "20000002",
      "startMs": 1741156620000,
      "endMs": 1741159235726,
      "startAddress": "2551 Parker Manors",
      "endAddress": "321 Green Port",
      "startCoords": {
        "latitude": 39.750509,
        "longitude": -105.010696
      },
      "endCoords": {
        "latitude": 39.749495,
        "longitude": -104.994751
      },
      "distanceMeters": 20850.6,
      "durationMs": 2615726,
      "drivingDurationMs": 2154524,
      "idlingDurationMs": 461202,
      "fuelConsumedMl": 943,
      "fuelConsumedGallons": 0.249,
      "maxSpeedMph": 46.9,
      "averageSpeedMph": 17.8,
      "safetyEvents": []
    },
    {
      "id": "trip_40026912_20250305_006",
      "vehicleId": "40026912",
      "driverId": null,
      "startMs": 1741175040000,
      "endMs": 1741176630655,
      "startAddress": "395 Gabrielle Bridge Apt. 890",
      "endAddress": "5554 Williamson Court Suite 020",
      "startCoords": {
        "latitude": 39.7736,
        "longitude": -105.059959
      },
      "endCoords": {
        "latitude": 39.705922,
        "longitude": -105.067446
      },
      "distanceMeters": 12411.9,
      "durationMs": 1590655,
      "drivingDurationMs": 1365361,
      "idlingDurationMs": 225294,
      "fuelConsumedMl": 560,
      "fuelConsumedGallons": 0.148,
      "maxSpeedMph": 28.7,
      "averageSpeedMph": 17.5,
      "safetyEvents": []
    },
    {
      "id": "trip_40026912_20250305_007",
      "vehicleId": "40026912",
      "driverId": "20000002",
      "startMs": 1741173120000,
      "endMs": 1741173999222,
      "startAddress": "74820 Michael Glens",
      "endAddress": "3670 Angela Throughway Apt. 952",
      "startCoords": {
        "latitude": 39.719617,
        "longitude": -105.005069
      },
      "endCoords": {
        "latitude": 39.701853,
        "longitude": -104.997778
      },
      "distanceMeters": 6585.1,
      "durationMs": 879223,
      "drivingDurationMs": 700927,
      "idlingDurationMs": 178296,
      "fuelConsumedMl": 299,
      "fuelConsumedGallons": 0.079,
      "maxSpeedMph": 55.4,
      "averageSpeedMph": 16.8,
      "safetyEvents": []
    },
    {
      "id": "trip_40026912_20250305_008",
      "vehicleId": "40026912",
      "driverId": "20000002",
      "startMs": 1741176780000,
      "endMs": 1741177951386,
      "startAddress": "30114 Acosta Forks",
      "endAddress": "055 Ramsey Crossing Apt. 719",
      "startCoords": {
        "latitude": 39.785459,
        "longitude": -104.915555
      },
      "endCoords": {
        "latitude": 39.689089,
        "longitude": -104.926111
      },
      "distanceMeters": 7808.1,
      "durationMs": 1171386,
      "drivingDurationMs": 947847,
      "idlingDurationMs": 223539,
      "fuelConsumedMl": 352,
      "fuelConsumedGallons": 0.093,
      "maxSpeedMph": 71.8,
      "averageSpeedMph": 14.9,
      "safetyEvents": [
        {
          "type": "speeding",
          "startMs": 1741176960000,
          "maxSpeedMph": 71.8
        }
      ]
    },
    {
      "id": "trip_40026912_20250305_009",
      "vehicleId": "40026912",
      "driverId": "20000002",
      "startMs": 1741169460000,
      "endMs": 1741171787492,
      "startAddress": "2655 Robert Cliff Suite 670",
      "endAddress": "6430 Cynthia Flats",
      "startCoords": {
        "latitude": 39.762676,
        "longitude": -104.94244
      },
      "endCoords": {
        "latitude": 39.701101,
        "longitude": -105.046316
      },
      "distanceMeters": 11781.6,
      "durationMs": 2327492,
      "drivingDurationMs": 1921590,
      "idlingDurationMs": 405903,
      "fuelConsumedMl": 534,
      "fuelConsumedGallons": 0.141,
      "maxSpeedMph": 36.6,
      "averageSpeedMph": 11.3,
      "safetyEvents": []
    },
    {
      "id": "trip_40026912_20250305_010",
      "vehicleId": "40026912",
      "driverId": "20000002",
      "startMs": 1741200000000,
      "endMs": 1741202339296,
      "startAddress": "619 Rios Views",
      "endAddress": "6203 Patricia Unions Suite 399",
      "startCoords": {
        "latitude": 39.688881,
        "longitude": -104.976278
      },
      "endCoords": {
        "latitude": 39.707875,
        "longitude": -105.039082
      },
      "distanceMeters": 20992.7,
      "durationMs": 2339297,
      "drivingDurationMs": 2046185,
      "idlingDurationMs": 293112,
      "fuelConsumedMl": 950,
      "fuelConsumedGallons": 0.251,
      "maxSpeedMph": 64.7,
      "averageSpeedMph": 20.1,
      "safetyEvents": []
    },
    {
      "id": "trip_40026912_20250305_011",
      "vehicleId": "40026912",
      "driverId": "20000002",
      "startMs": 1741191300000,
      "endMs": 1741191904482,
      "startAddress": "0579 Melvin Circles",
      "endAddress": "9969 Justin Circle",
      "startCoords": {
        "latitude": 39.760589,
        "longitude": -104.990766
      },
      "endCoords": {
        "latitude": 39.685819,
        "longitude": -104.928559
      },
      "distanceMeters": 4627.6,
      "durationMs": 604483,
      "drivingDurationMs": 450962,
      "idlingDurationMs": 153520,
      "fuelConsumedMl": 208,
      "fuelConsumedGallons": 0.055,
      "maxSpeedMph": 38.2,
      "averageSpeedMph": 17.1,
      "safetyEvents": []
    },
    {
      "id": "trip_40026912_20250306_001",
      "vehicleId": "40026912",
      "driverId": "20000003",
      "startMs": 1741251540000,
      "endMs": 1741254055740,
      "startAddress": "5013 Burke Divide Apt. 985",
      "endAddress": "158 Kevin Trace Apt. 284",
      "startCoords": {
        "latitude": 39.74099,
        "longitude": -104.931652
      },
      "endCoords": {
        "latitude": 39.747085,
        "longitude": -104.963816
      },
      "distanceMeters": 18162.2,
      "durationMs": 2515740,
      "drivingDurationMs": 2187615,
      "idlingDurationMs": 328126,
      "fuelConsumedMl": 821,
      "fuelConsumedGallons": 0.217,
      "maxSpeedMph": 52.7,
      "averageSpeedMph": 16.1,
      "safetyEvents": []
    },
    {
      "id": "trip_40026912_20250306_002",
      "vehicleId": "40026912",
      "driverId": "20000003",
      "startMs": 1741246740000,
      "endMs": 1741248518319,
      "startAddress": "19292 Bobby Square Suite 655",
      "endAddress": "659 Amy Roads Suite 927",
      "startCoords": {
        "latitude": 39.745714,
        "longitude": -104.965888
      },
      "endCoords": {
        "latitude": 39.754462,
        "longitude": -104.906826
      },
      "distanceMeters": 10652.7,
      "durationMs": 1778319,
      "drivingDurationMs": 1592156,
      "idlingDurationMs": 186164,
      "fuelConsumedMl": 481,
      "fuelConsumedGallons": 0.127,
      "maxSpeedMph": 43.3,
      "averageSpeedMph": 13.4,
      "safetyEvents": []
    },
    {
      "id": "trip_40026912_20250306_003",
      "vehicleId": "40026912",
      "driverId": "20000003",
      "startMs": 1741283640000,
      "endMs": 1741287053160,
      "startAddress": "150 Paul Forks Suite 522",
      "endAddress": "09111 Garcia Land",
      "startCoords": {
        "latitude": 39.780346,
        "longitude": -105.064637
      },
      "endCoords": {
        "latitude": 39.825564,
        "longitude": -104.953945
      },
      "distanceMeters": 20550.6,
      "durationMs": 3413161,
      "drivingDurationMs": 2996703,
      "idlingDurationMs": 416458,
      "fuelConsumedMl": 931,
      "fuelConsumedGallons": 0.246,
      "maxSpeedMph": 44.5,
      "averageSpeedMph": 13.5,
      "safetyEvents": []
    },
    {
      "id": "trip_40026912_20250306_004",
      "vehicleId": "40026912",
      "driverId": "20000003",
      "startMs": 1741282200000,
      "endMs": 1741285518494,
      "startAddress": "23290 Laura Dale Suite 234",
      "endAddress": "8013 Sellers Tunnel",
      "startCoords": {
        "latitude": 39.684974,
        "longitude": -105.004422
      },
      "endCoords": {
        "latitude": 39.695893,
        "longitude": -105.07145
      },
      "distanceMeters": 22749.3,
      "durationMs": 3318494,
      "drivingDurationMs": 2812203,
      "idlingDurationMs": 506291,
      "fuelConsumedMl": 1030,
      "fuelConsumedGallons": 0.272,
      "maxSpeedMph": 68.0,
      "averageSpeedMph": 15.3,
      "safetyEvents": [
        {
          "type": "speeding",
          "startMs": 1741283640000,
          "maxSpeedMph": 68.0
        }
      ]
    },
    {
      "id": "trip_40026912_20250306_005",
      "vehicleId": "40026912",
      "driverId": "20000003",
      "startMs": 1741266660000,
      "endMs": 1741268793182,
      "startAddress": "88031 Noah Centers",
      "endAddress": "2643 Thomas Overpass Apt. 372",
      "startCoords": {
        "latitude": 39.759663,
        "longitude": -104.973394
      },
      "endCoords": {
        "latitude": 39.775749,
        "longitude": -104.913925
      },
      "distanceMeters": 16816.0,
      "durationMs": 2133183,
      "drivingDurationMs": 1819395,
      "idlingDurationMs": 313788,
      "fuelConsumedMl": 761,
      "fuelConsumedGallons": 0.201,
      "maxSpeedMph": 70.3,
      "averageSpeedMph": 17.6,
      "safetyEvents": [
        {
          "type": "speeding",
          "startMs": 1741268640000,
          "maxSpeedMph": 70.3
        }
      ]
    },
    {
      "id": "trip_40026912_20250306_006",
      "vehicleId": "40026912",
      "driverId": "20000003",
      "startMs": 1741251360000,
      "endMs": 1741252598488,
      "startAddress": "378 Gray Crest Apt. 304",
      "endAddress": "952 Thompson Ridges Suite 720",
      "startCoords": {
        "latitude": 39.757792,
        "longitude": -105.079661
      },
      "endCoords": {
        "latitude": 39.750336,
        "longitude": -104.942853
      },
      "distanceMeters": 7931.0,
      "durationMs": 1238488,
      "drivingDurationMs": 997824,
      "idlingDurationMs": 240664,
      "fuelConsumedMl": 360,
      "fuelConsumedGallons": 0.095,
      "maxSpeedMph": 53.8,
      "averageSpeedMph": 14.3,
      "safetyEvents": []
    },
    {
      "id": "trip_40026912_20250306_007",
      "vehicleId": "40026912",
      "driverId": "20000003",
      "startMs": 1741286940000,
      "endMs": 1741287824881,
      "startAddress": "6022 Calderon Falls",
      "endAddress": "697 Emily Islands",
      "startCoords": {
        "latitude": 39.806294,
        "longitude": -105.007518
      },
      "endCoords": {
        "latitude": 39.777187,
        "longitude": -104.904177
      },
      "distanceMeters": 4536.8,
      "durationMs": 884882,
      "drivingDurationMs": 706773,
      "idlingDurationMs": 178109,
      "fuelConsumedMl": 204,
      "fuelConsumedGallons": 0.054,
      "maxSpeedMph": 62.2,
      "averageSpeedMph": 11.5,
      "safetyEvents": []
    },
    {
      "id": "trip_40026912_20250306_008",
      "vehicleId": "40026912",
      "driverId": "20000003",
      "startMs": 1741243080000,
      "endMs": 1741244222624,
      "startAddress": "644 Raymond Plaza",
      "endAddress": "4258 Rogers Spurs Suite 051",
      "startCoords": {
        "latitude": 39.72552,
        "longitude": -104.937553
      },
      "endCoords": {
        "latitude": 39.747944,
        "longitude": -105.061234
      },
      "distanceMeters": 6931.3,
      "durationMs": 1142625,
      "drivingDurationMs": 948005,
      "idlingDurationMs": 194619,
      "fuelConsumedMl": 314,
      "fuelConsumedGallons": 0.083,
      "maxSpeedMph": 64.0,
      "averageSpeedMph": 13.6,
      "safetyEvents": []
    },
    {
      "id": "trip_40026912_20250306_009",
      "vehicleId": "40026912",
      "driverId": "20000003",
      "startMs": 1741252380000,
      "endMs": 1741253791792,
      "startAddress": "56867 Bryant Groves Apt. 868",
      "endAddress": "541 Adams Expressway Suite 728",
      "startCoords": {
        "latitude": 39.799732,
        "longitude": -105.07189
      },
      "endCoords": {
        "latitude": 39.740779,
        "longitude": -105.075729
      },
      "distanceMeters": 10593.6,
      "durationMs": 1411793,
      "drivingDurationMs": 1175597,
      "idlingDurationMs": 236196,
      "fuelConsumedMl": 481,
      "fuelConsumedGallons": 0.127,
      "maxSpeedMph": 37.8,
      "averageSpeedMph": 16.8,
      "safetyEvents": []
    },
    {
      "id": "trip_40026912_20250306_010",
      "vehicleId": "40026912",
      "driverId": null,
      "startMs": 1741246680000,
      "endMs": 1741247146354,
      "startAddress": "7660 Daniels Fall",
      "endAddress": "68763 Hannah Streets",
      "startCoords": {
        "latitude": 39.702327,
        "longitude": -104.907949
      },
      "endCoords": {
        "latitude": 39.714772,
        "longitude": -104.971477
      },
      "distanceMeters": 2383.5,
      "durationMs": 466354,
      "drivingDurationMs": 299241,
      "idlingDurationMs": 167113,
      "fuelConsumedMl": 106,
      "fuelConsumedGallons": 0.028,
      "maxSpeedMph": 68.5,
      "averageSpeedMph": 11.4,
      "safetyEvents": [
        {
          "type": "speeding",
          "startMs": 1741246920000,
          "maxSpeedMph": 68.5
        }
      ]
    },
    {
      "id": "trip_40026912_20250306_011",
      "vehicleId": "40026912",
      "driverId": "20000003",
      "startMs": 1741252380000,
      "endMs": 1741255421662,
      "startAddress": "1929 Medina Groves Suite 754",
      "endAddress": "82159 Dunn Grove",
      "startCoords": {
        "latitude": 39.797988,
        "longitude": -105.008645
      },
      "endCoords": {
        "latitude": 39.790737,
        "longitude": -105.037495
      },
      "distanceMeters": 19391.8,
      "durationMs": 3041662,
      "drivingDurationMs": 2797614,
      "idlingDurationMs": 244048,
      "fuelConsumedMl": 878,
      "fuelConsumedGallons": 0.232,
      "maxSpeedMph": 70.9,
      "averageSpeedMph": 14.3,
      "safetyEvents": [
        {
          "type": "speeding",
          "startMs": 1741253760000,
          "maxSpeedMph": 70.9
        }
      ]
    },
    {
      "id": "trip_40026912_20250306_012",
      "vehicleId": "40026912",
      "driverId": "20000003",
      "startMs": 1741243080000,
      "endMs": 1741243472736,
      "startAddress": "822 Perez Fields",
      "endAddress": "6091 Brown Path Suite 189",
      "startCoords": {
        "latitude": 39.738682,
        "longitude": -105.03471
      },
      "endCoords": {
        "latitude": 39.788856,
        "longitude": -105.067165
      },
      "distanceMeters": 2683.7,
      "durationMs": 392736,
      "drivingDurationMs": 262095,
      "idlingDurationMs": 130641,
      "fuelConsumedMl": 121,
      "fuelConsumedGallons": 0.032,
      "maxSpeedMph": 55.2,
      "averageSpeedMph": 15.3,
      "safetyEvents": []
    },
    {
      "id": "trip_40026912_20250306_013",
      "vehicleId": "40026912",
      "driverId": null,
      "startMs": 1741284360000,
      "endMs": 1741285642569,
      "startAddress": "2903 Stewart Centers",
      "endAddress": "11828 Heidi Vista Suite 461",
      "startCoords": {
        "latitude": 39.819539,
        "longitude": -105.082699
      },
      "endCoords": {
        "latitude": 39.779401,
        "longitude": -104.917199
      },
      "distanceMeters": 9575.6,
      "durationMs": 1282570,
      "drivingDurationMs": 1032534,
      "idlingDurationMs": 250036,
      "fuelConsumedMl": 432,
      "fuelConsumedGallons": 0.114,
      "maxSpeedMph": 29.2,
      "averageSpeedMph": 16.7,
      "safetyEvents": []
    },
    {
      "id": "trip_40026912_20250306_014",
      "vehicleId": "40026912",
      "driverId": "20000003",
      "startMs": 1741282260000,
      "endMs": 1741283289189,
      "startAddress": "143 Elizabeth Junctions Suite 214",
      "endAddress": "0423 Susan Key Suite 461",
      "startCoords": {
        "latitude": 39.784913,
        "longitude": -105.046102
      },
      "endCoords": {
        "latitude": 39.809841,
        "longitude": -105.016194
      },
      "distanceMeters": 5405.1,
      "durationMs": 1029189,
      "drivingDurationMs": 847305,
      "idlingDurationMs": 181884,
      "fuelConsumedMl": 246,
      "fuelConsumedGallons": 0.065,
      "maxSpeedMph": 34.2,
      "averageSpeedMph": 11.7,
      "safetyEvents": []
    },
    {
      "id": "trip_40026912_20250307_001",
      "vehicleId": "40026912",
      "driverId": "20000010",
      "startMs": 1741347000000,
      "endMs": 1741347402085,
      "startAddress": "66347 William Center Apt. 829",
      "endAddress": "873 Greene Path",
      "startCoords": {
        "latitude": 39.766687,
        "longitude": -104.941373
      },
      "endCoords": {
        "latitude": 39.709176,
        "longitude": -105.028197
      },
      "distanceMeters": 2630.8,
      "durationMs": 402085,
      "drivingDurationMs": 258200,
      "idlingDurationMs": 143886,
      "fuelConsumedMl": 117,
      "fuelConsumedGallons": 0.031,
      "maxSpeedMph": 50.7,
      "averageSpeedMph": 14.6,
      "safetyEvents": []
    },
    {
      "id": "trip_40026912_20250307_002",
      "vehicleId": "40026912",
      "driverId": "20000010",
      "startMs": 1741369140000,
      "endMs": 1741373667073,
      "startAddress": "8090 Pope Ridges",
      "endAddress": "4622 Patterson Isle",
      "startCoords": {
        "latitude": 39.728083,
        "longitude": -105.066361
      },
      "endCoords": {
        "latitude": 39.710629,
        "longitude": -105.036468
      },
      "distanceMeters": 23718.5,
      "durationMs": 4527074,
      "drivingDurationMs": 3830318,
      "idlingDurationMs": 696756,
      "fuelConsumedMl": 1071,
      "fuelConsumedGallons": 0.283,
      "maxSpeedMph": 59.8,
      "averageSpeedMph": 11.7,
      "safetyEvents": []
    },
    {
      "id": "trip_40026912_20250307_003",
      "vehicleId": "40026912",
      "driverId": "20000010",
      "startMs": 1741355940000,
      "endMs": 1741357089458,
      "startAddress": "49590 Tammy Bridge",
      "endAddress": "969 Hall Viaduct Apt. 615",
      "startCoords": {
        "latitude": 39.767566,
        "longitude": -104.998952
      },
      "endCoords": {
        "latitude": 39.744404,
        "longitude": -105.076799
      },
      "distanceMeters": 9012.1,
      "durationMs": 1149458,
      "drivingDurationMs": 964503,
      "idlingDurationMs": 184955,
      "fuelConsumedMl": 409,
      "fuelConsumedGallons": 0.108,
      "maxSpeedMph": 32.9,
      "averageSpeedMph": 17.5,
      "safetyEvents": []
    },
    {
      "id": "trip_40026912_20250307_004",
      "vehicleId": "40026912",
      "driverId": "20000010",
      "startMs": 1741353600000,
      "endMs": 1741356848698,
      "startAddress": "479 Nancy Cove",
      "endAddress": "360 Matthew Well",
      "startCoords": {
        "latitude": 39.79564,
        "longitude": -105.068591
      },
      "endCoords": {
        "latitude": 39.734295,
        "longitude": -105.051166
      },
      "distanceMeters": 17136.6,
      "durationMs": 3248698,
      "drivingDurationMs": 2686228,
      "idlingDurationMs": 562470,
      "fuelConsumedMl": 776,
      "fuelConsumedGallons": 0.205,
      "maxSpeedMph": 55.5,
      "averageSpeedMph": 11.8,
      "safetyEvents": []
    },
    {
      "id": "trip_40026912_20250307_005",
      "vehicleId": "40026912",
      "driverId": "20000010",
      "startMs": 1741364940000,
      "endMs": 1741366948851,
      "startAddress": "08460 Martinez Trail",
      "endAddress": "16172 Rowland Shoals",
      "startCoords": {
        "latitude": 39.70426,
        "longitude": -105.086731
      },
      "endCoords": {
        "latitude": 39.813416,
        "longitude": -105.002603
      },
      "distanceMeters": 15798.0,
      "durationMs": 2008852,
      "drivingDurationMs": 1753795,
      "idlingDurationMs": 255057,
      "fuelConsumedMl": 715,
      "fuelConsumedGallons": 0.189,
      "maxSpeedMph": 64.5,
      "averageSpeedMph": 17.6,
      "safetyEvents": []
    },
    {
      "id": "trip_40026912_20250307_006",
      "vehicleId": "40026912",
      "driverId": "20000010",
      "startMs": 1741368660000,
      "endMs": 1741370813254,
      "startAddress": "57280 Kenneth Crescent",
      "endAddress": "2336 Rebecca Rapid Apt. 995",
      "startCoords": {
        "latitude": 39.808392,
        "longitude": -104.996176
      },
      "endCoords": {
        "latitude": 39.81038,
        "longitude": -105.058631
      },
      "distanceMeters": 11514.6,
      "durationMs": 2153254,
      "drivingDurationMs": 1796282,
      "idlingDurationMs": 356973,
      "fuelConsumedMl": 522,
      "fuelConsumedGallons": 0.138,
      "maxSpeedMph": 44.5,
      "averageSpeedMph": 12.0,
      "safetyEvents": []
    },
    {
      "id": "trip_40026912_20250307_007",
      "vehicleId": "40026912",
      "driverId": "20000010",
      "startMs": 1741368300000,
      "endMs": 1741371321428,
      "startAddress": "4252 Kylie Squares",
      "endAddress": "4632 Jackson Rapid Apt. 694",
      "startCoords": {
        "latitude": 39.765928,
        "longitude": -104.910691
      },
      "endCoords": {
        "latitude": 39.729334,
        "longitude": -105.044453
      },
      "distanceMeters": 23988.0,
      "durationMs": 3021428,
      "drivingDurationMs": 2666621,
      "idlingDurationMs": 354807,
      "fuelConsumedMl": 1086,
      "fuelConsumedGallons": 0.287,
      "maxSpeedMph": 29.7,
      "averageSpeedMph": 17.8,
      "safetyEvents": []
    },
    {
      "id": "trip_40026912_20250307_008",
      "vehicleId": "40026912",
      "driverId": "20000010",
      "startMs": 1741331820000,
      "endMs": 1741335722184,
      "startAddress": "516 Wood Ridges Suite 282",
      "endAddress": "93282 Ellis Park",
      "startCoords": {
        "latitude": 39.729269,
        "longitude": -105.071994
      },
      "endCoords": {
        "latitude": 39.695331,
        "longitude": -104.956964
      },
      "distanceMeters": 23918.4,
      "durationMs": 3902185,
      "drivingDurationMs": 3447623,
      "idlingDurationMs": 454562,
      "fuelConsumedMl": 1083,
      "fuelConsumedGallons": 0.286,
      "maxSpeedMph": 33.6,
      "averageSpeedMph": 13.7,
      "safetyEvents": []
    },
    {
      "id": "trip_40026912_20250307_009",
      "vehicleId": "40026912",
      "driverId": "20000010",
      "startMs": 1741361100000,
      "endMs": 1741362936339,
      "startAddress": "05358 Henry Courts",
      "endAddress": "84658 Lauren Run Suite 395",
      "startCoords": {
        "latitude": 39.760917,
        "longitude": -105.065402
      },
      "endCoords": {
        "latitude": 39.753538,
        "longitude": -105.029675
      },
      "distanceMeters": 13751.3,
      "durationMs": 1836339,
      "drivingDurationMs": 1482280,
      "idlingDurationMs": 354059,
      "fuelConsumedMl": 621,
      "fuelConsumedGallons": 0.164,
      "maxSpeedMph": 65.7,
      "averageSpeedMph": 16.8,
      "safetyEvents": [
        {
          "type": "speeding",
          "startMs": 1741361700000,
          "maxSpeedMph": 65.7
        }
      ]
    },
    {
      "id": "trip_40026912_20250307_010",
      "vehicleId": "40026912",
      "driverId": "20000010",
      "startMs": 1741341060000,
      "endMs": 1741341756289,
      "startAddress": "018 Laura Villages",
      "endAddress": "6264 Olsen Cove",
      "startCoords": {
        "latitude": 39.688051,
        "longitude": -105.02045
      },
      "endCoords": {
        "latitude": 39.740184,
        "longitude": -105.011215
      },
      "distanceMeters": 4002.2,
      "durationMs": 696290,
      "drivingDurationMs": 523775,
      "idlingDurationMs": 172515,
      "fuelConsumedMl": 182,
      "fuelConsumedGallons": 0.048,
      "maxSpeedMph": 33.2,
      "averageSpeedMph": 12.9,
      "safetyEvents": []
    },
    {
      "id": "trip_40026912_20250307_011",
      "vehicleId": "40026912",
      "driverId": "20000010",
      "startMs": 1741348800000,
      "endMs": 1741349242828,
      "startAddress": "750 David Lodge",
      "endAddress": "522 Jennifer Fords",
      "startCoords": {
        "latitude": 39.812114,
        "longitude": -105.057063
      },
      "endCoords": {
        "latitude": 39.820105,
        "longitude": -105.054627
      },
      "distanceMeters": 2282.4,
      "durationMs": 442828,
      "drivingDurationMs": 273591,
      "idlingDurationMs": 169237,
      "fuelConsumedMl": 102,
      "fuelConsumedGallons": 0.027,
      "maxSpeedMph": 42.3,
      "averageSpeedMph": 11.5,
      "safetyEvents": []
    },
    {
      "id": "trip_40026912_20250307_012",
      "vehicleId": "40026912",
      "driverId": "20000010",
      "startMs": 1741342440000,
      "endMs": 1741344291437,
      "startAddress": "152 Jacob Islands Apt. 855",
      "endAddress": "5800 Aaron Oval Apt. 591",
      "startCoords": {
        "latitude": 39.782717,
        "longitude": -105.04685
      },
      "endCoords": {
        "latitude": 39.700109,
        "longitude": -105.02732
      },
      "distanceMeters": 13566.8,
      "durationMs": 1851438,
      "drivingDurationMs": 1483270,
      "idlingDurationMs": 368168,
      "fuelConsumedMl": 613,
      "fuelConsumedGallons": 0.162,
      "maxSpeedMph": 57.2,
      "averageSpeedMph": 16.4,
      "safetyEvents": []
    },
    {
      "id": "trip_40026912_20250307_013",
      "vehicleId": "40026912",
      "driverId": "20000010",
      "startMs": 1741367280000,
      "endMs": 1741370513462,
      "startAddress": "2787 Williams Plains",
      "endAddress": "3852 Bowers Hollow Suite 637",
      "startCoords": {
        "latitude": 39.770027,
        "longitude": -105.07218
      },
      "endCoords": {
        "latitude": 39.723478,
        "longitude": -104.972633
      },
      "distanceMeters": 20089.5,
      "durationMs": 3233462,
      "drivingDurationMs": 2601220,
      "idlingDurationMs": 632242,
      "fuelConsumedMl": 908,
      "fuelConsumedGallons": 0.24,
      "maxSpeedMph": 58.9,
      "averageSpeedMph": 13.9,
      "safetyEvents": []
    },
    {
      "id": "trip_40026912_20250307_014",
      "vehicleId": "40026912",
      "driverId": "20000010",
      "startMs": 1741361340000,
      "endMs": 1741361776839,
      "startAddress": "0236 Troy Gateway Suite 502",
      "endAddress": "7139 Sean Squares Apt. 759",
      "startCoords": {
        "latitude": 39.767741,
        "longitude": -105.054665
      },
      "endCoords": {
        "latitude": 39.762195,
        "longitude": -105.020924
      },
      "distanceMeters": 2700.8,
      "durationMs": 436840,
      "drivingDurationMs": 332064,
      "idlingDurationMs": 104775,
      "fuelConsumedMl": 121,
      "fuelConsumedGallons": 0.032,
      "maxSpeedMph": 34.2,
      "averageSpeedMph": 13.8,
      "safetyEvents": []
    },
    {
      "id": "trip_40026912_20250307_015",
      "vehicleId": "40026912",
      "driverId": "20000010",
      "startMs": 1741343880000,
      "endMs": 1741345754723,
      "startAddress": "48628 Peterson Rapids Apt. 348",
      "endAddress": "983 Rice Passage Suite 153",
      "startCoords": {
        "latitude": 39.687515,
        "longitude": -104.990756
      },
      "endCoords": {
        "latitude": 39.733056,
        "longitude": -104.900845
      },
      "distanceMeters": 15493.1,
      "durationMs": 1874723,
      "drivingDurationMs": 1568525,
      "idlingDurationMs": 306199,
      "fuelConsumedMl": 700,
      "fuelConsumedGallons": 0.185,
      "maxSpeedMph": 54.1,
      "averageSpeedMph": 18.5,
      "safetyEvents": []
    },
    {
      "id": "trip_40026912_20250307_016",
      "vehicleId": "40026912",
      "driverId": "20000010",
      "startMs": 1741373400000,
      "endMs": 1741376253719,
      "startAddress": "89309 Gabriella Groves",
      "endAddress": "8209 Cruz Turnpike",
      "startCoords": {
        "latitude": 39.754436,
        "longitude": -104.994358
      },
      "endCoords": {
        "latitude": 39.818888,
        "longitude": -104.900023
      },
      "distanceMeters": 23115.2,
      "durationMs": 2853719,
      "drivingDurationMs": 2458794,
      "idlingDurationMs": 394925,
      "fuelConsumedMl": 1045,
      "fuelConsumedGallons": 0.276,
      "maxSpeedMph": 59.5,
      "averageSpeedMph": 18.1,
      "safetyEvents": []
    },
    {
      "id": "trip_40026912_20250307_017",
      "vehicleId": "40026912",
      "driverId": "20000010",
      "startMs": 1741337340000,
      "endMs": 1741337816281,
      "startAddress": "05122 Laura Estate",
      "endAddress": "251 Bernard Crescent Suite 036",
      "startCoords": {
        "latitude": 39.754734,
        "longitude": -105.011154
      },
      "endCoords": {
        "latitude": 39.688723,
        "longitude": -104.947354
      },
      "distanceMeters": 3181.8,
      "durationMs": 476282,
      "drivingDurationMs": 331688,
      "idlingDurationMs": 144594,
      "fuelConsumedMl": 144,
      "fuelConsumedGallons": 0.038,
      "maxSpeedMph": 39.2,
      "averageSpeedMph": 14.9,
      "safetyEvents": []
    },
    {
      "id": "trip_40026912_20250307_018",
      "vehicleId": "40026912",
      "driverId": "20000010",
      "startMs": 1741350900000,
      "endMs": 1741352255313,
      "startAddress": "062 White Valley",
      "endAddress": "3120 Vazquez Crossroad Suite 266",
      "startCoords": {
        "latitude": 39.787778,
        "longitude": -105.085282
      },
      "endCoords": {
        "latitude": 39.715586,
        "longitude": -104.973342
      },
      "distanceMeters": 11774.2,
      "durationMs": 1355314,
      "drivingDurationMs": 1174424,
      "idlingDurationMs": 180889,
      "fuelConsumedMl": 534,
      "fuelConsumedGallons": 0.141,
      "maxSpeedMph": 70.5,
      "averageSpeedMph": 19.4,
      "safetyEvents": [
        {
          "type": "speeding",
          "startMs": 1741351680000,
          "maxSpeedMph": 70.5
        }
      ]
    },
    {
      "id": "trip_40026912_20250308_001",
      "vehicleId": "40026912",
      "driverId": "20000014",
      "startMs": 1741444320000,
      "endMs": 1741445373510,
      "startAddress": "391 Sarah Station",
      "endAddress": "022 Franco Manor",
      "startCoords": {
        "latitude": 39.811086,
        "longitude": -105.033541
      },
      "endCoords": {
        "latitude": 39.737828,
        "longitude": -105.026628
      },
      "distanceMeters": 5535.5,
      "durationMs": 1053511,
      "drivingDurationMs": 848130,
      "idlingDurationMs": 205381,
      "fuelConsumedMl": 250,
      "fuelConsumedGallons": 0.066,
      "maxSpeedMph": 28.6,
      "averageSpeedMph": 11.8,
      "safetyEvents": []
    },
    {
      "id": "trip_40026912_20250308_002",
      "vehicleId": "40026912",
      "driverId": "20000014",
      "startMs": 1741442640000,
      "endMs": 1741442996205,
      "startAddress": "119 Amber Road Apt. 542",
      "endAddress": "6775 Tricia Viaduct Apt. 700",
      "startCoords": {
        "latitude": 39.705067,
        "longitude": -104.978396
      },
      "endCoords": {
        "latitude": 39.711006,
        "longitude": -105.048096
      },
      "distanceMeters": 2091.5,
      "durationMs": 356205,
      "drivingDurationMs": 263718,
      "idlingDurationMs": 92487,
      "fuelConsumedMl": 95,
      "fuelConsumedGallons": 0.025,
      "maxSpeedMph": 52.1,
      "averageSpeedMph": 13.1,
      "safetyEvents": []
    },
    {
      "id": "trip_40026912_20250308_003",
      "vehicleId": "40026912",
      "driverId": "20000014",
      "startMs": 1741439880000,
      "endMs": 1741442572052,
      "startAddress": "34680 Tyler Circles",
      "endAddress": "6557 Christopher Parks Apt. 456",
      "startCoords": {
        "latitude": 39.710623,
        "longitude": -105.063054
      },
      "endCoords": {
        "latitude": 39.689342,
        "longitude": -105.008931
      },
      "distanceMeters": 21050.8,
      "durationMs": 2692052,
      "drivingDurationMs": 2346787,
      "idlingDurationMs": 345265,
      "fuelConsumedMl": 954,
      "fuelConsumedGallons": 0.252,
      "maxSpeedMph": 66.8,
      "averageSpeedMph": 17.5,
      "safetyEvents": [
        {
          "type": "speeding",
          "startMs": 1741441080000,
          "maxSpeedMph": 66.8
        }
      ]
    },
    {
      "id": "trip_40026912_20250308_004",
      "vehicleId": "40026912",
      "driverId": "20000014",
      "startMs": 1741429380000,
      "endMs": 1741430972294,
      "startAddress": "96237 David Throughway Apt. 397",
      "endAddress": "192 Harris Trafficway",
      "startCoords": {
        "latitude": 39.827857,
        "longitude": -105.056475
      },
      "endCoords": {
        "latitude": 39.809377,
        "longitude": -104.952707
      },
      "distanceMeters": 12418.1,
      "durationMs": 1592294,
      "drivingDurationMs": 1370471,
      "idlingDurationMs": 221823,
      "fuelConsumedMl": 560,
      "fuelConsumedGallons": 0.148,
      "maxSpeedMph": 57.9,
      "averageSpeedMph": 17.4,
      "safetyEvents": []
    },
    {
      "id": "trip_40026912_20250308_005",
      "vehicleId": "40026912",
      "driverId": "20000014",
      "startMs": 1741439220000,
      "endMs": 1741443478819,
      "startAddress": "232 Lindsay Plains Suite 070",
      "endAddress": "43249 Anderson Drive",
      "startCoords": {
        "latitude": 39.741057,
        "longitude": -105.01642
      },
      "endCoords": {
        "latitude": 39.739275,
        "longitude": -105.080539
      },
      "distanceMeters": 23068.6,
      "durationMs": 4258819,
      "drivingDurationMs": 3704694,
      "idlingDurationMs": 554125,
      "fuelConsumedMl": 1045,
      "fuelConsumedGallons": 0.276,
      "maxSpeedMph": 55.7,
      "averageSpeedMph": 12.1,
      "safetyEvents": []
    },
    {
      "id": "trip_40026912_20250308_006",
      "vehicleId": "40026912",
      "driverId": "20000014",
      "startMs": 1741451820000,
      "endMs": 1741454473622,
      "startAddress": "32756 Woods Springs Apt. 169",
      "endAddress": "61846 Kari Crossroad Apt. 215",
      "startCoords": {
        "latitude": 39.720645,
        "longitude": -104.994749
      },
      "endCoords": {
        "latitude": 39.807747,
        "longitude": -105.010118
      },
      "distanceMeters": 23858.1,
      "durationMs": 2653622,
      "drivingDurationMs": 2374437,
      "idlingDurationMs": 279185,
      "fuelConsumedMl": 1079,
      "fuelConsumedGallons": 0.285,
      "maxSpeedMph": 54.0,
      "averageSpeedMph": 20.1,
      "safetyEvents": []
    },
    {
      "id": "trip_40026912_20250308_007",
      "vehicleId": "40026912",
      "driverId": "20000014",
      "startMs": 1741444320000,
      "endMs": 1741445711622,
      "startAddress": "34743 Hogan Ferry",
      "endAddress": "33639 Kristen Fork",
      "startCoords": {
        "latitude": 39.748506,
        "longitude": -104.959076
      },
      "endCoords": {
        "latitude": 39.732326,
        "longitude": -105.049424
      },
      "distanceMeters": 7553.1,
      "durationMs": 1391623,
      "drivingDurationMs": 1195725,
      "idlingDurationMs": 195897,
      "fuelConsumedMl": 341,
      "fuelConsumedGallons": 0.09,
      "maxSpeedMph": 63.7,
      "averageSpeedMph": 12.1,
      "safetyEvents": []
    },
    {
      "id": "trip_40026912_20250308_008",
      "vehicleId": "40026912",
      "driverId": "20000014",
      "startMs": 1741429920000,
      "endMs": 1741430813742,
      "startAddress": "231 Meza Way",
      "endAddress": "067 Lisa Flat Suite 699",
      "startCoords": {
        "latitude": 39.805502,
        "longitude": -104.967104
      },
      "endCoords": {
        "latitude": 39.767406,
        "longitude": -104.994147
      },
      "distanceMeters": 5174.6,
      "durationMs": 893743,
      "drivingDurationMs": 714740,
      "idlingDurationMs": 179003,
      "fuelConsumedMl": 235,
      "fuelConsumedGallons": 0.062,
      "maxSpeedMph": 45.6,
      "averageSpeedMph": 13.0,
      "safetyEvents": []
    },
    {
      "id": "trip_40026912_20250308_009",
      "vehicleId": "40026912",
      "driverId": "20000014",
      "startMs": 1741428420000,
      "endMs": 1741430226083,
      "startAddress": "1154 Moore Corner Apt. 251",
      "endAddress": "447 Barbara Street",
      "startCoords": {
        "latitude": 39.826415,
        "longitude": -104.973754
      },
      "endCoords": {
        "latitude": 39.729361,
        "longitude": -105.000513
      },
      "distanceMeters": 14852.4,
      "durationMs": 1806083,
      "drivingDurationMs": 1585542,
      "idlingDurationMs": 220541,
      "fuelConsumedMl": 670,
      "fuelConsumedGallons": 0.177,
      "maxSpeedMph": 55.6,
      "averageSpeedMph": 18.4,
      "safetyEvents": []
    },
    {
      "id": "trip_40026912_20250308_010",
      "vehicleId": "40026912",
      "driverId": "20000014",
      "startMs": 1741448820000,
      "endMs": 1741451602588,
      "startAddress": "17628 Justin Freeway",
      "endAddress": "877 Parker Parks Apt. 942",
      "startCoords": {
        "latitude": 39.820504,
        "longitude": -104.972684
      },
      "endCoords": {
        "latitude": 39.805736,
        "longitude": -105.063969
      },
      "distanceMeters": 21869.3,
      "durationMs": 2782589,
      "drivingDurationMs": 2558731,
      "idlingDurationMs": 223857,
      "fuelConsumedMl": 988,
      "fuelConsumedGallons": 0.261,
      "maxSpeedMph": 67.4,
      "averageSpeedMph": 17.6,
      "safetyEvents": [
        {
          "type": "speeding",
          "startMs": 1741451400000,
          "maxSpeedMph": 67.4
        }
      ]
    },
    {
      "id": "trip_40026912_20250308_011",
      "vehicleId": "40026912",
      "driverId": "20000014",
      "startMs": 1741415940000,
      "endMs": 1741418614678,
      "startAddress": "60394 Kyle Mews",
      "endAddress": "72231 Rodriguez Rest Suite 752",
      "startCoords": {
        "latitude": 39.719356,
        "longitude": -105.045405
      },
      "endCoords": {
        "latitude": 39.753703,
        "longitude": -104.927815
      },
      "distanceMeters": 18809.9,
      "durationMs": 2674678,
      "drivingDurationMs": 2458643,
      "idlingDurationMs": 216035,
      "fuelConsumedMl": 852,
      "fuelConsumedGallons": 0.225,
      "maxSpeedMph": 64.5,
      "averageSpeedMph": 15.7,
      "safetyEvents": []
    },
    {
      "id": "trip_40026912_20250310_001",
      "vehicleId": "40026912",
      "driverId": "20000007",
      "startMs": 1741596600000,
      "endMs": 1741599538738,
      "startAddress": "711 Mandy Summit",
      "endAddress": "6337 Joel Springs Suite 851",
      "startCoords": {
        "latitude": 39.761482,
        "longitude": -104.939657
      },
      "endCoords": {
        "latitude": 39.694309,
        "longitude": -104.953999
      },
      "distanceMeters": 20515.5,
      "durationMs": 2938739,
      "drivingDurationMs": 2584420,
      "idlingDurationMs": 354319,
      "fuelConsumedMl": 927,
      "fuelConsumedGallons": 0.245,
      "maxSpeedMph": 64.6,
      "averageSpeedMph": 15.6,
      "safetyEvents": []
    },
    {
      "id": "trip_40026912_20250310_002",
      "vehicleId": "40026912",
      "driverId": "20000007",
      "startMs": 1741611120000,
      "endMs": 1741612837039,
      "startAddress": "423 Jamie Village Apt. 459",
      "endAddress": "260 James Flats",
      "startCoords": {
        "latitude": 39.724767,
        "longitude": -104.958712
      },
      "endCoords": {
        "latitude": 39.740453,
        "longitude": -105.071839
      },
      "distanceMeters": 11622.0,
      "durationMs": 1717039,
      "drivingDurationMs": 1437819,
      "idlingDurationMs": 279220,
      "fuelConsumedMl": 526,
      "fuelConsumedGallons": 0.139,
      "maxSpeedMph": 69.6,
      "averageSpeedMph": 15.1,
      "safetyEvents": [
        {
          "type": "speeding",
          "startMs": 1741612560000,
          "maxSpeedMph": 69.6
        }
      ]
    },
    {
      "id": "trip_40026912_20250310_003",
      "vehicleId": "40026912",
      "driverId": "20000007",
      "startMs": 1741605780000,
      "endMs": 1741608852452,
      "startAddress": "12993 Elizabeth Port",
      "endAddress": "5119 White Flats",
      "startCoords": {
        "latitude": 39.71111,
        "longitude": -105.047664
      },
      "endCoords": {
        "latitude": 39.768454,
        "longitude": -104.980672
      },
      "distanceMeters": 16969.9,
      "durationMs": 3072452,
      "drivingDurationMs": 2549811,
      "idlingDurationMs": 522641,
      "fuelConsumedMl": 768,
      "fuelConsumedGallons": 0.203,
      "maxSpeedMph": 40.6,
      "averageSpeedMph": 12.4,
      "safetyEvents": []
    },
    {
      "id": "trip_40026912_20250310_004",
      "vehicleId": "40026912",
      "driverId": "20000007",
      "startMs": 1741608960000,
      "endMs": 1741611445301,
      "startAddress": "3628 Dickson Knoll Suite 748",
      "endAddress": "46750 Freeman Field",
      "startCoords": {
        "latitude": 39.716494,
        "longitude": -104.938303
      },
      "endCoords": {
        "latitude": 39.756628,
        "longitude": -105.02327
      },
      "distanceMeters": 16001.0,
      "durationMs": 2485302,
      "drivingDurationMs": 2205504,
      "idlingDurationMs": 279798,
      "fuelConsumedMl": 723,
      "fuelConsumedGallons": 0.191,
      "maxSpeedMph": 40.4,
      "averageSpeedMph": 14.4,
      "safetyEvents": []
    },
    {
      "id": "trip_40026912_20250310_005",
      "vehicleId": "40026912",
      "driverId": "20000007",
      "startMs": 1741601280000,
      "endMs": 1741602016684,
      "startAddress": "60924 Rebecca Hollow",
      "endAddress": "686 Hall Locks",
      "startCoords": {
        "latitude": 39.761365,
        "longitude": -105.011325
      },
      "endCoords": {
        "latitude": 39.807116,
        "longitude": -104.9217
      },
      "distanceMeters": 3904.0,
      "durationMs": 736684,
      "drivingDurationMs": 583377,
      "idlingDurationMs": 153307,
      "fuelConsumedMl": 178,
      "fuelConsumedGallons": 0.047,
      "maxSpeedMph": 61.4,
      "averageSpeedMph": 11.9,
      "safetyEvents": []
    },
    {
      "id": "trip_40026912_20250310_006",
      "vehicleId": "40026912",
      "driverId": "20000007",
      "startMs": 1741604220000,
      "endMs": 1741606377798,
      "startAddress": "907 Raymond Roads",
      "endAddress": "0310 Santana Trace",
      "startCoords": {
        "latitude": 39.693851,
        "longitude": -104.965899
      },
      "endCoords": {
        "latitude": 39.772435,
        "longitude": -104.992769
      },
      "distanceMeters": 18549.5,
      "durationMs": 2157799,
      "drivingDurationMs": 1829391,
      "idlingDurationMs": 328408,
      "fuelConsumedMl": 840,
      "fuelConsumedGallons": 0.222,
      "maxSpeedMph": 34.7,
      "averageSpeedMph": 19.2,
      "safetyEvents": []
    },
    {
      "id": "trip_40026912_20250310_007",
      "vehicleId": "40026912",
      "driverId": "20000007",
      "startMs": 1741614600000,
      "endMs": 1741617523467,
      "startAddress": "21046 Cannon Prairie",
      "endAddress": "650 Gregory Cliff",
      "startCoords": {
        "latitude": 39.717624,
        "longitude": -104.956288
      },
      "endCoords": {
        "latitude": 39.790733,
        "longitude": -104.907998
      },
      "distanceMeters": 18323.6,
      "durationMs": 2923468,
      "drivingDurationMs": 2420839,
      "idlingDurationMs": 502629,
      "fuelConsumedMl": 829,
      "fuelConsumedGallons": 0.219,
      "maxSpeedMph": 48.7,
      "averageSpeedMph": 14.0,
      "safetyEvents": []
    },
    {
      "id": "trip_40026912_20250310_008",
      "vehicleId": "40026912",
      "driverId": "20000007",
      "startMs": 1741628220000,
      "endMs": 1741630972405,
      "startAddress": "7996 Adams Hollow",
      "endAddress": "109 Courtney Square",
      "startCoords": {
        "latitude": 39.785046,
        "longitude": -104.936212
      },
      "endCoords": {
        "latitude": 39.826957,
        "longitude": -105.040423
      },
      "distanceMeters": 15870.6,
      "durationMs": 2752405,
      "drivingDurationMs": 2520286,
      "idlingDurationMs": 232119,
      "fuelConsumedMl": 719,
      "fuelConsumedGallons": 0.19,
      "maxSpeedMph": 66.8,
      "averageSpeedMph": 12.9,
      "safetyEvents": [
        {
          "type": "speeding",
          "startMs": 1741628820000,
          "maxSpeedMph": 66.8
        }
      ]
    },
    {
      "id": "trip_40026912_20250310_009",
      "vehicleId": "40026912",
      "driverId": "20000007",
      "startMs": 1741588560000,
      "endMs": 1741590919186,
      "startAddress": "88217 Walker Terrace",
      "endAddress": "3800 Michael Drive Suite 029",
      "startCoords": {
        "latitude": 39.773286,
        "longitude": -104.988398
      },
      "endCoords": {
        "latitude": 39.72762,
        "longitude": -104.993357
      },
      "distanceMeters": 16386.5,
      "durationMs": 2359186,
      "drivingDurationMs": 1971162,
      "idlingDurationMs": 388024,
      "fuelConsumedMl": 742,
      "fuelConsumedGallons": 0.196,
      "maxSpeedMph": 56.2,
      "averageSpeedMph": 15.5,
      "safetyEvents": []
    },
    {
      "id": "trip_40026912_20250310_010",
      "vehicleId": "40026912",
      "driverId": "20000007",
      "startMs": 1741619100000,
      "endMs": 1741622097828,
      "startAddress": "4142 Shelley Overpass Apt. 790",
      "endAddress": "4092 Kathleen Divide",
      "startCoords": {
        "latitude": 39.701106,
        "longitude": -105.031889
      },
      "endCoords": {
        "latitude": 39.732432,
        "longitude": -105.052318
      },
      "distanceMeters": 17520.5,
      "durationMs": 2997828,
      "drivingDurationMs": 2399691,
      "idlingDurationMs": 598137,
      "fuelConsumedMl": 791,
      "fuelConsumedGallons": 0.209,
      "maxSpeedMph": 30.3,
      "averageSpeedMph": 13.1,
      "safetyEvents": []
    },
    {
      "id": "trip_40026912_20250310_011",
      "vehicleId": "40026912",
      "driverId": "20000007",
      "startMs": 1741631400000,
      "endMs": 1741632422586,
      "startAddress": "7567 Cantu Gateway Apt. 823",
      "endAddress": "98706 Sanchez Street Apt. 941",
      "startCoords": {
        "latitude": 39.706041,
        "longitude": -105.029828
      },
      "endCoords": {
        "latitude": 39.817456,
        "longitude": -104.916264
      },
      "distanceMeters": 7555.4,
      "durationMs": 1022587,
      "drivingDurationMs": 839776,
      "idlingDurationMs": 182811,
      "fuelConsumedMl": 341,
      "fuelConsumedGallons": 0.09,
      "maxSpeedMph": 65.2,
      "averageSpeedMph": 16.5,
      "safetyEvents": [
        {
          "type": "speeding",
          "startMs": 1741631520000,
          "maxSpeedMph": 65.2
        }
      ]
    },
    {
      "id": "trip_40026912_20250310_012",
      "vehicleId": "40026912",
      "driverId": "20000007",
      "startMs": 1741589040000,
      "endMs": 1741589746456,
      "startAddress": "6974 Pratt Prairie Apt. 190",
      "endAddress": "5474 Ferguson Club Apt. 110",
      "startCoords": {
        "latitude": 39.822054,
        "longitude": -105.081314
      },
      "endCoords": {
        "latitude": 39.722631,
        "longitude": -104.983769
      },
      "distanceMeters": 4449.4,
      "durationMs": 706457,
      "drivingDurationMs": 534556,
      "idlingDurationMs": 171901,
      "fuelConsumedMl": 201,
      "fuelConsumedGallons": 0.053,
      "maxSpeedMph": 66.1,
      "averageSpeedMph": 14.1,
      "safetyEvents": [
        {
          "type": "speeding",
          "startMs": 1741589520000,
          "maxSpeedMph": 66.1
        }
      ]
    },
    {
      "id": "trip_40026912_20250310_013",
      "vehicleId": "40026912",
      "driverId": "20000007",
      "startMs": 1741614480000,
      "endMs": 1741615639241,
      "startAddress": "73287 Jackson Islands",
      "endAddress": "622 Theresa Pine Apt. 003",
      "startCoords": {
        "latitude": 39.730602,
        "longitude": -105.063888
      },
      "endCoords": {
        "latitude": 39.760124,
        "longitude": -105.028467
      },
      "distanceMeters": 8049.5,
      "durationMs": 1159241,
      "drivingDurationMs": 935728,
      "idlingDurationMs": 223514,
      "fuelConsumedMl": 363,
      "fuelConsumedGallons": 0.096,
      "maxSpeedMph": 44.5,
      "averageSpeedMph": 15.5,
      "safetyEvents": []
    },
    {
      "id": "trip_40026912_20250310_014",
      "vehicleId": "40026912",
      "driverId": "20000007",
      "startMs": 1741631100000,
      "endMs": 1741632617797,
      "startAddress": "16610 Nichols Unions",
      "endAddress": "074 Meredith Terrace Suite 156",
      "startCoords": {
        "latitude": 39.747154,
        "longitude": -104.902607
      },
      "endCoords": {
        "latitude": 39.754776,
        "longitude": -105.006466
      },
      "distanceMeters": 8544.2,
      "durationMs": 1517798,
      "drivingDurationMs": 1229847,
      "idlingDurationMs": 287951,
      "fuelConsumedMl": 386,
      "fuelConsumedGallons": 0.102,
      "maxSpeedMph": 72.0,
      "averageSpeedMph": 12.6,
      "safetyEvents": [
        {
          "type": "speeding",
          "startMs": 1741631580000,
          "maxSpeedMph": 72.0
        }
      ]
    },
    {
      "id": "trip_40026912_20250310_015",
      "vehicleId": "40026912",
      "driverId": "20000007",
      "startMs": 1741627320000,
      "endMs": 1741629180590,
      "startAddress": "5273 Alan Mission Suite 636",
      "endAddress": "596 Franco Knoll Suite 402",
      "startCoords": {
        "latitude": 39.736395,
        "longitude": -105.07581
      },
      "endCoords": {
        "latitude": 39.744488,
        "longitude": -105.04144
      },
      "distanceMeters": 11391.7,
      "durationMs": 1860591,
      "drivingDurationMs": 1535310,
      "idlingDurationMs": 325281,
      "fuelConsumedMl": 515,
      "fuelConsumedGallons": 0.136,
      "maxSpeedMph": 45.9,
      "averageSpeedMph": 13.7,
      "safetyEvents": []
    },
    {
      "id": "trip_40026912_20250310_016",
      "vehicleId": "40026912",
      "driverId": "20000007",
      "startMs": 1741611360000,
      "endMs": 1741611852906,
      "startAddress": "7306 Evans Turnpike",
      "endAddress": "2767 Charles Ways Suite 022",
      "startCoords": {
        "latitude": 39.752506,
        "longitude": -104.963541
      },
      "endCoords": {
        "latitude": 39.729249,
        "longitude": -105.04734
      },
      "distanceMeters": 2768.5,
      "durationMs": 492906,
      "drivingDurationMs": 362687,
      "idlingDurationMs": 130219,
      "fuelConsumedMl": 125,
      "fuelConsumedGallons": 0.033,
      "maxSpeedMph": 53.4,
      "averageSpeedMph": 12.6,
      "safetyEvents": []
    },
    {
      "id": "trip_40026912_20250311_001",
      "vehicleId": "40026912",
      "driverId": "20000009",
      "startMs": 1741707060000,
      "endMs": 1741708104503,
      "startAddress": "015 Jamie Path Suite 814",
      "endAddress": "05449 Robinson Meadows",
      "startCoords": {
        "latitude": 39.708084,
        "longitude": -105.02823
      },
      "endCoords": {
        "latitude": 39.727886,
        "longitude": -104.938241
      },
      "distanceMeters": 5291.5,
      "durationMs": 1044503,
      "drivingDurationMs": 848950,
      "idlingDurationMs": 195553,
      "fuelConsumedMl": 238,
      "fuelConsumedGallons": 0.063,
      "maxSpeedMph": 42.2,
      "averageSpeedMph": 11.3,
      "safetyEvents": []
    },
    {
      "id": "trip_40026912_20250311_002",
      "vehicleId": "40026912",
      "driverId": "20000009",
      "startMs": 1741699620000,
      "endMs": 1741700005967,
      "startAddress": "74843 Moore Extension",
      "endAddress": "61813 Stevens Bypass",
      "startCoords": {
        "latitude": 39.776677,
        "longitude": -105.05363
      },
      "endCoords": {
        "latitude": 39.813814,
        "longitude": -105.042661
      },
      "distanceMeters": 2294.3,
      "durationMs": 385968,
      "drivingDurationMs": 301376,
      "idlingDurationMs": 84592,
      "fuelConsumedMl": 102,
      "fuelConsumedGallons": 0.027,
      "maxSpeedMph": 52.6,
      "averageSpeedMph": 13.3,
      "safetyEvents": []
    },
    {
      "id": "trip_40026912_20250311_003",
      "vehicleId": "40026912",
      "driverId": "20000009",
      "startMs": 1741690800000,
      "endMs": 1741691386015,
      "startAddress": "524 Johnson Oval Suite 885",
      "endAddress": "64346 Megan Junctions Suite 126",
      "startCoords": {
        "latitude": 39.721739,
        "longitude": -104.983979
      },
      "endCoords": {
        "latitude": 39.776255,
        "longitude": -105.081766
      },
      "distanceMeters": 3062.7,
      "durationMs": 586016,
      "drivingDurationMs": 417273,
      "idlingDurationMs": 168743,
      "fuelConsumedMl": 140,
      "fuelConsumedGallons": 0.037,
      "maxSpeedMph": 67.8,
      "averageSpeedMph": 11.7,
      "safetyEvents": [
        {
          "type": "speeding",
          "startMs": 1741690920000,
          "maxSpeedMph": 67.8
        }
      ]
    },
    {
      "id": "trip_40026912_20250311_004",
      "vehicleId": "40026912",
      "driverId": "20000009",
      "startMs": 1741706340000,
      "endMs": 1741708419966,
      "startAddress": "604 Amanda Via Apt. 514",
      "endAddress": "47259 Ryan Row Apt. 182",
      "startCoords": {
        "latitude": 39.821285,
        "longitude": -104.99726
      },
      "endCoords": {
        "latitude": 39.743295,
        "longitude": -105.037573
      },
      "distanceMeters": 15435.7,
      "durationMs": 2079967,
      "drivingDurationMs": 1809785,
      "idlingDurationMs": 270182,
      "fuelConsumedMl": 697,
      "fuelConsumedGallons": 0.184,
      "maxSpeedMph": 31.0,
      "averageSpeedMph": 16.6,
      "safetyEvents": []
    },
    {
      "id": "trip_40026912_20250311_005",
      "vehicleId": "40026912",
      "driverId": "20000009",
      "startMs": 1741689000000,
      "endMs": 1741690804361,
      "startAddress": "23004 Collins Squares Apt. 277",
      "endAddress": "4468 Buck Valley",
      "startCoords": {
        "latitude": 39.753902,
        "longitude": -104.973855
      },
      "endCoords": {
        "latitude": 39.699821,
        "longitude": -104.909026
      },
      "distanceMeters": 13032.3,
      "durationMs": 1804361,
      "drivingDurationMs": 1560464,
      "idlingDurationMs": 243897,
      "fuelConsumedMl": 591,
      "fuelConsumedGallons": 0.156,
      "maxSpeedMph": 42.5,
      "averageSpeedMph": 16.2,
      "safetyEvents": []
    },
    {
      "id": "trip_40026912_20250311_006",
      "vehicleId": "40026912",
      "driverId": "20000009",
      "startMs": 1741693740000,
      "endMs": 1741696073023,
      "startAddress": "299 David Prairie Suite 694",
      "endAddress": "3779 Tom Court Suite 745",
      "startCoords": {
        "latitude": 39.806795,
        "longitude": -104.944285
      },
      "endCoords": {
        "latitude": 39.734299,
        "longitude": -105.003561
      },
      "distanceMeters": 12704.8,
      "durationMs": 2333023,
      "drivingDurationMs": 2044494,
      "idlingDurationMs": 288529,
      "fuelConsumedMl": 575,
      "fuelConsumedGallons": 0.152,
      "maxSpeedMph": 59.7,
      "averageSpeedMph": 12.2,
      "safetyEvents": []
    },
    {
      "id": "trip_40026912_20250311_007",
      "vehicleId": "40026912",
      "driverId": "20000009",
      "startMs": 1741711800000,
      "endMs": 1741712799113,
      "startAddress": "298 Victoria Squares",
      "endAddress": "86279 Ramos Mount",
      "startCoords": {
        "latitude": 39.720358,
        "longitude": -104.971292
      },
      "endCoords": {
        "latitude": 39.746453,
        "longitude": -104.969937
      },
      "distanceMeters": 7119.1,
      "durationMs": 999113,
      "drivingDurationMs": 802454,
      "idlingDurationMs": 196659,
      "fuelConsumedMl": 322,
      "fuelConsumedGallons": 0.085,
      "maxSpeedMph": 40.0,
      "averageSpeedMph": 15.9,
      "safetyEvents": []
    },
    {
      "id": "trip_40026912_20250311_008",
      "vehicleId": "40026912",
      "driverId": "20000009",
      "startMs": 1741682280000,
      "endMs": 1741684108031,
      "startAddress": "6718 Simmons Squares",
      "endAddress": "293 Jeffrey Trail Apt. 283",
      "startCoords": {
        "latitude": 39.723748,
        "longitude": -104.993915
      },
      "endCoords": {
        "latitude": 39.687219,
        "longitude": -104.957671
      },
      "distanceMeters": 14245.7,
      "durationMs": 1828031,
      "drivingDurationMs": 1537579,
      "idlingDurationMs": 290452,
      "fuelConsumedMl": 644,
      "fuelConsumedGallons": 0.17,
      "maxSpeedMph": 28.8,
      "averageSpeedMph": 17.4,
      "safetyEvents": []
    },
    {
      "id": "trip_40026912_20250311_009",
      "vehicleId": "40026912",
      "driverId": "20000009",
      "startMs": 1741676280000,
      "endMs": 1741679315028,
      "startAddress": "6460 Kevin Neck Suite 415",
      "endAddress": "489 Brittany Rest Suite 849",
      "startCoords": {
        "latitude": 39.743653,
        "longitude": -105.056877
      },
      "endCoords": {
        "latitude": 39.704256,
        "longitude": -105.055261
      },
      "distanceMeters": 17252.4,
      "durationMs": 3035028,
      "drivingDurationMs": 2535596,
      "idlingDurationMs": 499432,
      "fuelConsumedMl": 780,
      "fuelConsumedGallons": 0.206,
      "maxSpeedMph": 58.1,
      "averageSpeedMph": 12.7,
      "safetyEvents": []
    },
    {
      "id": "trip_40026912_20250311_010",
      "vehicleId": "40026912",
      "driverId": "20000009",
      "startMs": 1741676700000,
      "endMs": 1741677312629,
      "startAddress": "17845 Carlos Tunnel",
      "endAddress": "45177 Stewart Divide",
      "startCoords": {
        "latitude": 39.777654,
        "longitude": -105.08754
      },
      "endCoords": {
        "latitude": 39.74372,
        "longitude": -105.087338
      },
      "distanceMeters": 3353.6,
      "durationMs": 612629,
      "drivingDurationMs": 480486,
      "idlingDurationMs": 132143,
      "fuelConsumedMl": 151,
      "fuelConsumedGallons": 0.04,
      "maxSpeedMph": 41.3,
      "averageSpeedMph": 12.2,
      "safetyEvents": []
    },
    {
      "id": "trip_40026912_20250311_011",
      "vehicleId": "40026912",
      "driverId": null,
      "startMs": 1741693440000,
      "endMs": 1741695151275,
      "startAddress": "36884 Danielle Well Suite 799",
      "endAddress": "52167 Hopkins Roads Apt. 300",
      "startCoords": {
        "latitude": 39.788964,
        "longitude": -104.99586
      },
      "endCoords": {
        "latitude": 39.754193,
        "longitude": -104.919695
      },
      "distanceMeters": 12302.4,
      "durationMs": 1711275,
      "drivingDurationMs": 1414790,
      "idlingDurationMs": 296485,
      "fuelConsumedMl": 556,
      "fuelConsumedGallons": 0.147,
      "maxSpeedMph": 62.5,
      "averageSpeedMph": 16.1,
      "safetyEvents": []
    },
    {
      "id": "trip_40026912_20250312_001",
      "vehicleId": "40026912",
      "driverId": "20000002",
      "startMs": 1741769100000,
      "endMs": 1741772531639,
      "startAddress": "52005 Jason Common Suite 164",
      "endAddress": "30573 Steven Union Apt. 650",
      "startCoords": {
        "latitude": 39.809716,
        "longitude": -104.949701
      },
      "endCoords": {
        "latitude": 39.789237,
        "longitude": -104.994052
      },
      "distanceMeters": 19091.7,
      "durationMs": 3431640,
      "drivingDurationMs": 2890439,
      "idlingDurationMs": 541200,
      "fuelConsumedMl": 863,
      "fuelConsumedGallons": 0.228,
      "maxSpeedMph": 36.7,
      "averageSpeedMph": 12.4,
      "safetyEvents": []
    },
    {
      "id": "trip_40026912_20250312_002",
      "vehicleId": "40026912",
      "driverId": "20000002",
      "startMs": 1741764720000,
      "endMs": 1741768545305,
      "startAddress": "25136 Stevenson Cove Suite 655",
      "endAddress": "822 Sarah Greens",
      "startCoords": {
        "latitude": 39.75586,
        "longitude": -105.066949
      },
      "endCoords": {
        "latitude": 39.724946,
        "longitude": -105.056851
      },
      "distanceMeters": 22095.3,
      "durationMs": 3825305,
      "drivingDurationMs": 3130021,
      "idlingDurationMs": 695284,
      "fuelConsumedMl": 999,
      "fuelConsumedGallons": 0.264,
      "maxSpeedMph": 52.2,
      "averageSpeedMph": 12.9,
      "safetyEvents": []
    },
    {
      "id": "trip_40026912_20250312_003",
      "vehicleId": "40026912",
      "driverId": "20000002",
      "startMs": 1741776120000,
      "endMs": 1741777265334,
      "startAddress": "09782 Cody Hills",
      "endAddress": "659 Christopher Villages",
      "startCoords": {
        "latitude": 39.701024,
        "longitude": -105.061214
      },
      "endCoords": {
        "latitude": 39.824911,
        "longitude": -105.087531
      },
      "distanceMeters": 6273.7,
      "durationMs": 1145335,
      "drivingDurationMs": 943682,
      "idlingDurationMs": 201653,
      "fuelConsumedMl": 284,
      "fuelConsumedGallons": 0.075,
      "maxSpeedMph": 52.7,
      "averageSpeedMph": 12.3,
      "safetyEvents": []
    },
    {
      "id": "trip_40026912_20250312_004",
      "vehicleId": "40026912",
      "driverId": null,
      "startMs": 1741779420000,
      "endMs": 1741781832526,
      "startAddress": "919 John Island Apt. 263",
      "endAddress": "0297 Perry Neck Apt. 393",
      "startCoords": {
        "latitude": 39.74267,
        "longitude": -105.017087
      },
      "endCoords": {
        "latitude": 39.703113,
        "longitude": -104.948883
      },
      "distanceMeters": 17019.5,
      "durationMs": 2412526,
      "drivingDurationMs": 1980946,
      "idlingDurationMs": 431580,
      "fuelConsumedMl": 768,
      "fuelConsumedGallons": 0.203,
      "maxSpeedMph": 46.1,
      "averageSpeedMph": 15.8,
      "safetyEvents": []
    },
    {
      "id": "trip_40026912_20250312_005",
      "vehicleId": "40026912",
      "driverId": "20000002",
      "startMs": 1741776420000,
      "endMs": 1741780035182,
      "startAddress": "2837 Philip Throughway",
      "endAddress": "918 Fisher Run",
      "startCoords": {
        "latitude": 39.703606,
        "longitude": -104.91075
      },
      "endCoords": {
        "latitude": 39.685461,
        "longitude": -104.991454
      },
      "distanceMeters": 19578.4,
      "durationMs": 3615182,
      "drivingDurationMs": 2970682,
      "idlingDurationMs": 644500,
      "fuelConsumedMl": 886,
      "fuelConsumedGallons": 0.234,
      "maxSpeedMph": 55.2,
      "averageSpeedMph": 12.1,
      "safetyEvents": []
    },
    {
      "id": "trip_40026912_20250312_006",
      "vehicleId": "40026912",
      "driverId": "20000002",
      "startMs": 1741781820000,
      "endMs": 1741784395398,
      "startAddress": "24462 Corey Field",
      "endAddress": "430 Amy Field",
      "startCoords": {
        "latitude": 39.765984,
        "longitude": -105.0593
      },
      "endCoords": {
        "latitude": 39.728836,
        "longitude": -104.954823
      },
      "distanceMeters": 20062.7,
      "durationMs": 2575399,
      "drivingDurationMs": 2347021,
      "idlingDurationMs": 228377,
      "fuelConsumedMl": 908,
      "fuelConsumedGallons": 0.24,
      "maxSpeedMph": 64.7,
      "averageSpeedMph": 17.4,
      "safetyEvents": []
    },
    {
      "id": "trip_40026912_20250312_007",
      "vehicleId": "40026912",
      "driverId": "20000002",
      "startMs": 1741802340000,
      "endMs": 1741806014672,
      "startAddress": "5103 Jeremy Unions Suite 819",
      "endAddress": "54166 Melissa Tunnel Suite 928",
      "startCoords": {
        "latitude": 39.761311,
        "longitude": -105.02178
      },
      "endCoords": {
        "latitude": 39.71081,
        "longitude": -104.950853
      },
      "distanceMeters": 24998.4,
      "durationMs": 3674673,
      "drivingDurationMs": 3328304,
      "idlingDurationMs": 346369,
      "fuelConsumedMl": 1132,
      "fuelConsumedGallons": 0.299,
      "maxSpeedMph": 55.1,
      "averageSpeedMph": 15.2,
      "safetyEvents": []
    },
    {
      "id": "trip_40026912_20250312_008",
      "vehicleId": "40026912",
      "driverId": "20000002",
      "startMs": 1741760760000,
      "endMs": 1741762624776,
      "startAddress": "35151 Hall Point",
      "endAddress": "7764 Jessica Land",
      "startCoords": {
        "latitude": 39.791899,
        "longitude": -105.066949
      },
      "endCoords": {
        "latitude": 39.815588,
        "longitude": -104.95567
      },
      "distanceMeters": 14672.5,
      "durationMs": 1864777,
      "drivingDurationMs": 1527347,
      "idlingDurationMs": 337430,
      "fuelConsumedMl": 662,
      "fuelConsumedGallons": 0.175,
      "maxSpeedMph": 44.5,
      "averageSpeedMph": 17.6,
      "safetyEvents": []
    },
    {
      "id": "trip_40026912_20250312_009",
      "vehicleId": "40026912",
      "driverId": "20000002",
      "startMs": 1741778760000,
      "endMs": 1741779171406,
      "startAddress": "245 Shannon Pass",
      "endAddress": "939 Tracie Square",
      "startCoords": {
        "latitude": 39.743302,
        "longitude": -104.949768
      },
      "endCoords": {
        "latitude": 39.694273,
        "longitude": -104.941556
      },
      "distanceMeters": 2405.2,
      "durationMs": 411407,
      "drivingDurationMs": 309956,
      "idlingDurationMs": 101451,
      "fuelConsumedMl": 110,
      "fuelConsumedGallons": 0.029,
      "maxSpeedMph": 62.7,
      "averageSpeedMph": 13.1,
      "safetyEvents": []
    },
    {
      "id": "trip_40026912_20250312_010",
      "vehicleId": "40026912",
      "driverId": "20000002",
      "startMs": 1741776600000,
      "endMs": 1741778628594,
      "startAddress": "227 Robert Ports Suite 479",
      "endAddress": "3900 Barry Estates",
      "startCoords": {
        "latitude": 39.750014,
        "longitude": -104.936082
      },
      "endCoords": {
        "latitude": 39.695771,
        "longitude": -105.035682
      },
      "distanceMeters": 18183.7,
      "durationMs": 2028594,
      "drivingDurationMs": 1789295,
      "idlingDurationMs": 239299,
      "fuelConsumedMl": 821,
      "fuelConsumedGallons": 0.217,
      "maxSpeedMph": 41.5,
      "averageSpeedMph": 20.1,
      "safetyEvents": []
    },
    {
      "id": "trip_40026912_20250313_001",
      "vehicleId": "40026912",
      "driverId": "20000001",
      "startMs": 1741857000000,
      "endMs": 1741858654269,
      "startAddress": "4913 Montes Corners Suite 732",
      "endAddress": "62185 John Route",
      "startCoords": {
        "latitude": 39.75507,
        "longitude": -104.965243
      },
      "endCoords": {
        "latitude": 39.800167,
        "longitude": -104.98899
      },
      "distanceMeters": 12282.3,
      "durationMs": 1654269,
      "drivingDurationMs": 1433642,
      "idlingDurationMs": 220627,
      "fuelConsumedMl": 556,
      "fuelConsumedGallons": 0.147,
      "maxSpeedMph": 48.5,
      "averageSpeedMph": 16.6,
      "safetyEvents": []
    },
    {
      "id": "trip_40026912_20250313_002",
      "vehicleId": "40026912",
      "driverId": "20000001",
      "startMs": 1741865160000,
      "endMs": 1741866067828,
      "startAddress": "997 Craig Circle Suite 029",
      "endAddress": "16457 Kristen Tunnel Suite 176",
      "startCoords": {
        "latitude": 39.71417,
        "longitude": -105.075124
      },
      "endCoords": {
        "latitude": 39.710769,
        "longitude": -105.058407
      },
      "distanceMeters": 5198.7,
      "durationMs": 907828,
      "drivingDurationMs": 727703,
      "idlingDurationMs": 180125,
      "fuelConsumedMl": 235,
      "fuelConsumedGallons": 0.062,
      "maxSpeedMph": 54.0,
      "averageSpeedMph": 12.8,
      "safetyEvents": []
    },
    {
      "id": "trip_40026912_20250313_003",
      "vehicleId": "40026912",
      "driverId": "20000001",
      "startMs": 1741885320000,
      "endMs": 1741885675053,
      "startAddress": "2445 Davenport Mountains",
      "endAddress": "79240 Danielle Islands",
      "startCoords": {
        "latitude": 39.811796,
        "longitude": -105.00109
      },
      "endCoords": {
        "latitude": 39.77489,
        "longitude": -104.914586
      },
      "distanceMeters": 2136.3,
      "durationMs": 355054,
      "drivingDurationMs": 236791,
      "idlingDurationMs": 118262,
      "fuelConsumedMl": 98,
      "fuelConsumedGallons": 0.026,
      "maxSpeedMph": 71.3,
      "averageSpeedMph": 13.5,
      "safetyEvents": [
        {
          "type": "speeding",
          "startMs": 1741885500000,
          "maxSpeedMph": 71.3
        }
      ]
    },
    {
      "id": "trip_40026912_20250313_004",
      "vehicleId": "40026912",
      "driverId": "20000001",
      "startMs": 1741872180000,
      "endMs": 1741874816094,
      "startAddress": "601 Amanda Forks Suite 081",
      "endAddress": "73714 Hailey Circle",
      "startCoords": {
        "latitude": 39.780931,
        "longitude": -104.935627
      },
      "endCoords": {
        "latitude": 39.787416,
        "longitude": -104.949154
      },
      "distanceMeters": 19157.6,
      "durationMs": 2636094,
      "drivingDurationMs": 2349356,
      "idlingDurationMs": 286738,
      "fuelConsumedMl": 867,
      "fuelConsumedGallons": 0.229,
      "maxSpeedMph": 31.3,
      "averageSpeedMph": 16.3,
      "safetyEvents": []
    },
    {
      "id": "trip_40026912_20250313_005",
      "vehicleId": "40026912",
      "driverId": "20000001",
      "startMs": 1741851180000,
      "endMs": 1741851692506,
      "startAddress": "5202 Burgess Springs",
      "endAddress": "147 Brad Plaza",
      "startCoords": {
        "latitude": 39.729721,
        "longitude": -105.082968
      },
      "endCoords": {
        "latitude": 39.811425,
        "longitude": -104.929184
      },
      "distanceMeters": 2397.2,
      "durationMs": 512507,
      "drivingDurationMs": 345423,
      "idlingDurationMs": 167084,
      "fuelConsumedMl": 110,
      "fuelConsumedGallons": 0.029,
      "maxSpeedMph": 40.0,
      "averageSpeedMph": 10.5,
      "safetyEvents": []
    },
    {
      "id": "trip_40026912_20250313_006",
      "vehicleId": "40026912",
      "driverId": "20000001",
      "startMs": 1741856880000,
      "endMs": 1741859240036,
      "startAddress": "7298 Hansen Avenue Apt. 784",
      "endAddress": "753 Sexton Parkways Suite 074",
      "startCoords": {
        "latitude": 39.735213,
        "longitude": -105.024808
      },
      "endCoords": {
        "latitude": 39.704734,
        "longitude": -105.013482
      },
      "distanceMeters": 20316.3,
      "durationMs": 2360037,
      "drivingDurationMs": 2028349,
      "idlingDurationMs": 331687,
      "fuelConsumedMl": 920,
      "fuelConsumedGallons": 0.243,
      "maxSpeedMph": 67.4,
      "averageSpeedMph": 19.3,
      "safetyEvents": [
        {
          "type": "speeding",
          "startMs": 1741857720000,
          "maxSpeedMph": 67.4
        }
      ]
    },
    {
      "id": "trip_40026912_20250313_007",
      "vehicleId": "40026912",
      "driverId": "20000001",
      "startMs": 1741874040000,
      "endMs": 1741876895187,
      "startAddress": "727 Rhodes Points",
      "endAddress": "33421 Lopez River Suite 122",
      "startCoords": {
        "latitude": 39.817702,
        "longitude": -104.951519
      },
      "endCoords": {
        "latitude": 39.72081,
        "longitude": -104.910754
      },
      "distanceMeters": 18462.9,
      "durationMs": 2855188,
      "drivingDurationMs": 2311195,
      "idlingDurationMs": 543993,
      "fuelConsumedMl": 837,
      "fuelConsumedGallons": 0.221,
      "maxSpeedMph": 70.3,
      "averageSpeedMph": 14.5,
      "safetyEvents": [
        {
          "type": "speeding",
          "startMs": 1741875780000,
          "maxSpeedMph": 70.3
        }
      ]
    },
    {
      "id": "trip_40026912_20250313_008",
      "vehicleId": "40026912",
      "driverId": "20000001",
      "startMs": 1741880760000,
      "endMs": 1741882123192,
      "startAddress": "8369 Soto Ford Suite 565",
      "endAddress": "944 Ponce Well Apt. 335",
      "startCoords": {
        "latitude": 39.710422,
        "longitude": -105.002698
      },
      "endCoords": {
        "latitude": 39.72171,
        "longitude": -104.969677
      },
      "distanceMeters": 8603.4,
      "durationMs": 1363192,
      "drivingDurationMs": 1125099,
      "idlingDurationMs": 238094,
      "fuelConsumedMl": 390,
      "fuelConsumedGallons": 0.103,
      "maxSpeedMph": 61.2,
      "averageSpeedMph": 14.1,
      "safetyEvents": []
    },
    {
      "id": "trip_40026912_20250314_001",
      "vehicleId": "40026912",
      "driverId": "20000010",
      "startMs": 1741972320000,
      "endMs": 1741976535061,
      "startAddress": "31129 Macias Islands",
      "endAddress": "25241 Brady Garden Apt. 417",
      "startCoords": {
        "latitude": 39.77783,
        "longitude": -104.949566
      },
      "endCoords": {
        "latitude": 39.68403,
        "longitude": -105.072943
      },
      "distanceMeters": 24499.6,
      "durationMs": 4215062,
      "drivingDurationMs": 3792067,
      "idlingDurationMs": 422995,
      "fuelConsumedMl": 1109,
      "fuelConsumedGallons": 0.293,
      "maxSpeedMph": 34.0,
      "averageSpeedMph": 13.0,
      "safetyEvents": []
    },
    {
      "id": "trip_40026912_20250314_002",
      "vehicleId": "40026912",
      "driverId": "20000010",
      "startMs": 1741934220000,
      "endMs": 1741935596001,
      "startAddress": "189 Palmer Keys Suite 041",
      "endAddress": "05867 Alvin Fork Apt. 970",
      "startCoords": {
        "latitude": 39.695192,
        "longitude": -105.065222
      },
      "endCoords": {
        "latitude": 39.781522,
        "longitude": -105.014363
      },
      "distanceMeters": 9910.9,
      "durationMs": 1376001,
      "drivingDurationMs": 1114249,
      "idlingDurationMs": 261752,
      "fuelConsumedMl": 447,
      "fuelConsumedGallons": 0.118,
      "maxSpeedMph": 50.0,
      "averageSpeedMph": 16.1,
      "safetyEvents": []
    },
    {
      "id": "trip_40026912_20250314_003",
      "vehicleId": "40026912",
      "driverId": "20000010",
      "startMs": 1741949280000,
      "endMs": 1741952710659,
      "startAddress": "2245 Christopher Court",
      "endAddress": "1914 Raymond Glens",
      "startCoords": {
        "latitude": 39.810209,
        "longitude": -104.913798
      },
      "endCoords": {
        "latitude": 39.689426,
        "longitude": -104.951865
      },
      "distanceMeters": 24626.3,
      "durationMs": 3430659,
      "drivingDurationMs": 2806433,
      "idlingDurationMs": 624227,
      "fuelConsumedMl": 1113,
      "fuelConsumedGallons": 0.294,
      "maxSpeedMph": 36.9,
      "averageSpeedMph": 16.1,
      "safetyEvents": []
    },
    {
      "id": "trip_40026912_20250314_004",
      "vehicleId": "40026912",
      "driverId": "20000010",
      "startMs": 1741948320000,
      "endMs": 1741949281974,
      "startAddress": "72941 Mindy Glens Suite 623",
      "endAddress": "6885 Hicks Springs Apt. 337",
      "startCoords": {
        "latitude": 39.746044,
        "longitude": -105.035768
      },
      "endCoords": {
        "latitude": 39.730046,
        "longitude": -105.086369
      },
      "distanceMeters": 6149.3,
      "durationMs": 961975,
      "drivingDurationMs": 772000,
      "idlingDurationMs": 189974,
      "fuelConsumedMl": 276,
      "fuelConsumedGallons": 0.073,
      "maxSpeedMph": 57.0,
      "averageSpeedMph": 14.3,
      "safetyEvents": []
    },
    {
      "id": "trip_40026912_20250314_005",
      "vehicleId": "40026912",
      "driverId": "20000010",
      "startMs": 1741933740000,
      "endMs": 1741935882222,
      "startAddress": "912 Jessica Expressway",
      "endAddress": "3466 Teresa Squares",
      "startCoords": {
        "latitude": 39.757624,
        "longitude": -105.040981
      },
      "endCoords": {
        "latitude": 39.772541,
        "longitude": -104.979436
      },
      "distanceMeters": 17783.2,
      "durationMs": 2142222,
      "drivingDurationMs": 1845988,
      "idlingDurationMs": 296234,
      "fuelConsumedMl": 803,
      "fuelConsumedGallons": 0.212,
      "maxSpeedMph": 55.2,
      "averageSpeedMph": 18.6,
      "safetyEvents": []
    },
    {
      "id": "trip_40026912_20250314_006",
      "vehicleId": "40026912",
      "driverId": "20000010",
      "startMs": 1741938720000,
      "endMs": 1741939917315,
      "startAddress": "882 Clark Mews",
      "endAddress": "18373 Welch Rapid Apt. 030",
      "startCoords": {
        "latitude": 39.802192,
        "longitude": -104.914622
      },
      "endCoords": {
        "latitude": 39.736081,
        "longitude": -104.926086
      },
      "distanceMeters": 8262.3,
      "durationMs": 1197316,
      "drivingDurationMs": 974806,
      "idlingDurationMs": 222510,
      "fuelConsumedMl": 375,
      "fuelConsumedGallons": 0.099,
      "maxSpeedMph": 65.4,
      "averageSpeedMph": 15.4,
      "safetyEvents": [
        {
          "type": "speeding",
          "startMs": 1741939320000,
          "maxSpeedMph": 65.4
        }
      ]
    },
    {
      "id": "trip_40026912_20250314_007",
      "vehicleId": "40026912",
      "driverId": "20000010",
      "startMs": 1741946880000,
      "endMs": 1741950221920,
      "startAddress": "4203 Bentley Pass",
      "endAddress": "30046 Thompson Fort",
      "startCoords": {
        "latitude": 39.815258,
        "longitude": -104.987482
      },
      "endCoords": {
        "latitude": 39.768649,
        "longitude": -104.979855
      },
      "distanceMeters": 22695.7,
      "durationMs": 3341920,
      "drivingDurationMs": 2679743,
      "idlingDurationMs": 662178,
      "fuelConsumedMl": 1026,
      "fuelConsumedGallons": 0.271,
      "maxSpeedMph": 33.3,
      "averageSpeedMph": 15.2,
      "safetyEvents": []
    },
    {
      "id": "trip_40026912_20250314_008",
      "vehicleId": "40026912",
      "driverId": null,
      "startMs": 1741972860000,
      "endMs": 1741973873148,
      "startAddress": "33027 Martin Locks",
      "endAddress": "23448 Walton Burgs",
      "startCoords": {
        "latitude": 39.805635,
        "longitude": -104.967697
      },
      "endCoords": {
        "latitude": 39.694468,
        "longitude": -105.006491
      },
      "distanceMeters": 6960.2,
      "durationMs": 1013148,
      "drivingDurationMs": 818996,
      "idlingDurationMs": 194153,
      "fuelConsumedMl": 314,
      "fuelConsumedGallons": 0.083,
      "maxSpeedMph": 32.8,
      "averageSpeedMph": 15.4,
      "safetyEvents": []
    },
    {
      "id": "trip_40026912_20250314_009",
      "vehicleId": "40026912",
      "driverId": "20000010",
      "startMs": 1741941600000,
      "endMs": 1741943444850,
      "startAddress": "3019 Theresa Station",
      "endAddress": "18172 Kathryn Tunnel Suite 472",
      "startCoords": {
        "latitude": 39.69812,
        "longitude": -104.932093
      },
      "endCoords": {
        "latitude": 39.684204,
        "longitude": -105.087709
      },
      "distanceMeters": 16153.9,
      "durationMs": 1844850,
      "drivingDurationMs": 1554384,
      "idlingDurationMs": 290467,
      "fuelConsumedMl": 731,
      "fuelConsumedGallons": 0.193,
      "maxSpeedMph": 38.3,
      "averageSpeedMph": 19.6,
      "safetyEvents": []
    },
    {
      "id": "trip_40026912_20250314_010",
      "vehicleId": "40026912",
      "driverId": "20000010",
      "startMs": 1741966440000,
      "endMs": 1741969050502,
      "startAddress": "694 Olsen Brooks Apt. 783",
      "endAddress": "13131 Ryan Camp",
      "startCoords": {
        "latitude": 39.764334,
        "longitude": -105.010395
      },
      "endCoords": {
        "latitude": 39.779043,
        "longitude": -104.953223
      },
      "distanceMeters": 16306.8,
      "durationMs": 2610502,
      "drivingDurationMs": 2167406,
      "idlingDurationMs": 443096,
      "fuelConsumedMl": 738,
      "fuelConsumedGallons": 0.195,
      "maxSpeedMph": 69.2,
      "averageSpeedMph": 14.0,
      "safetyEvents": [
        {
          "type": "speeding",
          "startMs": 1741968840000,
          "maxSpeedMph": 69.2
        }
      ]
    },
    {
      "id": "trip_40026912_20250314_011",
      "vehicleId": "40026912",
      "driverId": "20000010",
      "startMs": 1741975920000,
      "endMs": 1741979033108,
      "startAddress": "79730 William Prairie Suite 343",
      "endAddress": "693 Ryan Cape",
      "startCoords": {
        "latitude": 39.763848,
        "longitude": -104.928615
      },
      "endCoords": {
        "latitude": 39.791845,
        "longitude": -104.981352
      },
      "distanceMeters": 19632.0,
      "durationMs": 3113109,
      "drivingDurationMs": 2885467,
      "idlingDurationMs": 227641,
      "fuelConsumedMl": 890,
      "fuelConsumedGallons": 0.235,
      "maxSpeedMph": 55.6,
      "averageSpeedMph": 14.1,
      "safetyEvents": []
    },