{
  "vehicleId": "48408041",
  "vehicleName": "DEN-MOTO-02",
  "month": "2025_03",
  "pagination": {
    "endCursor": "trip_48408041_20250331_008",
    "hasNextPage": false
  },
  "trips": [
    {
      "id": "trip_48408041_20250301_001",
      "vehicleId": "48408041",
      "driverId": "20000018",
      "startMs": 1740813480000,
      "endMs": 1740815918051,
      "startAddress": "80089 Richardson Lodge Apt. 941",
      "endAddress": "92661 Matthew Well",
      "startCoords": {
        "latitude": 39.702663,
        "longitude": -105.03573
      },
      "endCoords": {
        "latitude": 39.719053,
        "longitude": -104.964082
      },
      "distanceMeters": 19921.1,
      "durationMs": 2438052,
      "drivingDurationMs": 2045638,
      "idlingDurationMs": 392414,
      "fuelConsumedMl": 901,
      "fuelConsumedGallons": 0.238,
      "maxSpeedMph": 66.6,
      "averageSpeedMph": 18.3,
      "safetyEvents": [
        {
          "type": "speeding",
          "startMs": 1740815760000,
          "maxSpeedMph": 66.6
        }
      ]
    },
    {
      "id": "trip_48408041_20250301_002",
      "vehicleId": "48408041",
      "driverId": "20000018",
      "startMs": 1740830640000,
      "endMs": 1740833408393,
      "startAddress": "5919 Julia Lakes",
      "endAddress": "47547 Brandon Mall",
      "startCoords": {
        "latitude": 39.795668,
        "longitude": -105.035482
      },
      "endCoords": {
        "latitude": 39.713761,
        "longitude": -104.90729
      },
      "distanceMeters": 16477.6,
      "durationMs": 2768394,
      "drivingDurationMs": 2391294,
      "idlingDurationMs": 377099,
      "fuelConsumedMl": 746,
      "fuelConsumedGallons": 0.197,
      "maxSpeedMph": 71.9,
      "averageSpeedMph": 13.3,
      "safetyEvents": [
        {
          "type": "speeding",
          "startMs": 1740833220000,
          "maxSpeedMph": 71.9
        }
      ]
    },
    {
      "id": "trip_48408041_20250301_003",
      "vehicleId": "48408041",
      "driverId": "20000018",
      "startMs": 1740809880000,
      "endMs": 1740813908185,
      "startAddress": "436 Howard Highway Apt. 667",
      "endAddress": "25318 West Falls",
      "startCoords": {
        "latitude": 39.827713,
        "longitude": -104.980324
      },
      "endCoords": {
        "latitude": 39.785964,
        "longitude": -105.013196
      },
      "distanceMeters": 22629.3,
      "durationMs": 4028185,
      "drivingDurationMs": 3337331,
      "idlingDurationMs": 690854,
      "fuelConsumedMl": 1022,
      "fuelConsumedGallons": 0.27,
      "maxSpeedMph": 31.4,
      "averageSpeedMph": 12.6,
      "safetyEvents": []
    },
    {
      "id": "trip_48408041_20250301_004",
      "vehicleId": "48408041",
      "driverId": "20000018",
      "startMs": 1740815760000,
      "endMs": 1740816578868,
      "startAddress": "00413 Turner Mountain Suite 227",
      "endAddress": "396 Smith Knoll Suite 855",
      "startCoords": {
        "latitude": 39.719665,
        "longitude": -104.996077
      },
      "endCoords": {
        "latitude": 39.703829,
        "longitude": -104.944014
      },
      "distanceMeters": 5996.1,
      "durationMs": 818869,
      "drivingDurationMs": 648559,
      "idlingDurationMs": 170310,
      "fuelConsumedMl": 273,
      "fuelConsumedGallons": 0.072,
      "maxSpeedMph": 62.9,
      "averageSpeedMph": 16.4,
      "safetyEvents": []
    },
    {
      "id": "trip_48408041_20250301_005",
      "vehicleId": "48408041",
      "driverId": "20000018",
      "startMs": 1740837540000,
      "endMs": 1740838215415,
      "startAddress": "493 Michael Spurs Apt. 344",
      "endAddress": "77637 Johnson Cliffs Suite 998",
      "startCoords": {
        "latitude": 39.717754,
        "longitude": -104.914313
      },
      "endCoords": {
        "latitude": 39.7449,
        "longitude": -104.927369
      },
      "distanceMeters": 3460.8,
      "durationMs": 675415,
      "drivingDurationMs": 517137,
      "idlingDurationMs": 158279,
      "fuelConsumedMl": 155,
      "fuelConsumedGallons": 0.041,
      "maxSpeedMph": 55.0,
      "averageSpeedMph": 11.5,
      "safetyEvents": []
    },
    {
      "id": "trip_48408041_20250301_006",
      "vehicleId": "48408041",
      "driverId": "20000018",
      "startMs": 1740841140000,
      "endMs": 1740845000029,
      "startAddress": "04728 Smith Avenue Apt. 086",
      "endAddress": "3560 Crystal Squares",
      "startCoords": {
        "latitude": 39.785986,
        "longitude": -105.043924
      },
      "endCoords": {
        "latitude": 39.739053,
        "longitude": -105.027446
      },
      "distanceMeters": 23458.4,
      "durationMs": 3860030,
      "drivingDurationMs": 3229467,
      "idlingDurationMs": 630562,
      "fuelConsumedMl": 1060,
      "fuelConsumedGallons": 0.28,
      "maxSpeedMph": 65.7,
      "averageSpeedMph": 13.6,
      "safetyEvents": [
        {
          "type": "speeding",
          "startMs": 1740841740000,
          "maxSpeedMph": 65.7
        }
      ]
    },
    {
      "id": "trip_48408041_20250301_007",
      "vehicleId": "48408041",
      "driverId": "20000018",
      "startMs": 1740809460000,
      "endMs": 1740811389487,
      "startAddress": "0525 Danielle Falls Apt. 697",
      "endAddress": "269 Weber Squares Apt. 608",
      "startCoords": {
        "latitude": 39.808992,
        "longitude": -105.068819
      },
      "endCoords": {
        "latitude": 39.781791,
        "longitude": -104.957609
      },
      "distanceMeters": 15397.6,
      "durationMs": 1929487,
      "drivingDurationMs": 1640985,
      "idlingDurationMs": 288503,
      "fuelConsumedMl": 697,
      "fuelConsumedGallons": 0.184,
      "maxSpeedMph": 35.5,
      "averageSpeedMph": 17.9,
      "safetyEvents": []
    },
    {
      "id": "trip_48408041_20250301_008",
      "vehicleId": "48408041",
      "driverId": "20000018",
      "startMs": 1740852900000,
      "endMs": 1740855606566,
      "startAddress": "481 Graham Path",
      "endAddress": "66884 Linda Gateway",
      "startCoords": {
        "latitude": 39.786527,
        "longitude": -104.905126
      },
      "endCoords": {
        "latitude": 39.702023,
        "longitude": -104.967872
      },
      "distanceMeters": 22604.0,
      "durationMs": 2706566,
      "drivingDurationMs": 2259409,
      "idlingDurationMs": 447157,
      "fuelConsumedMl": 1022,
      "fuelConsumedGallons": 0.27,
      "maxSpeedMph": 29.4,
      "averageSpeedMph": 18.7,
      "safetyEvents": []
    },
    {
      "id": "trip_48408041_20250301_009",
      "vehicleId": "48408041",
      "driverId": "20000018",
      "startMs": 1740841620000,
      "endMs": 1740844696549,
      "startAddress": "0595 Gonzales Forks",
      "endAddress": "0394 West Extension",
      "startCoords": {
        "latitude": 39.747301,
        "longitude": -104.92841
      },
      "endCoords": {
        "latitude": 39.800833,
        "longitude": -105.02636
      },
      "distanceMeters": 22881.1,
      "durationMs": 3076550,
      "drivingDurationMs": 2744291,
      "idlingDurationMs": 332259,
      "fuelConsumedMl": 1033,
      "fuelConsumedGallons": 0.273,
      "maxSpeedMph": 55.9,
      "averageSpeedMph": 16.6,
      "safetyEvents": []
    },
    {
      "id": "trip_48408041_20250301_010",
      "vehicleId": "48408041",
      "driverId": "20000018",
      "startMs": 1740845640000,
      "endMs": 1740847582654,
      "startAddress": "23922 Owens Greens Suite 198",
      "endAddress": "715 Lee Stream Suite 900",
      "startCoords": {
        "latitude": 39.740138,
        "longitude": -105.036353
      },
      "endCoords": {
        "latitude": 39.7783,
        "longitude": -104.953504
      },
      "distanceMeters": 12826.7,
      "durationMs": 1942655,
      "drivingDurationMs": 1571611,
      "idlingDurationMs": 371043,
      "fuelConsumedMl": 579,
      "fuelConsumedGallons": 0.153,
      "maxSpeedMph": 36.7,
      "averageSpeedMph": 14.8,
      "safetyEvents": []
    },
    {
      "id": "trip_48408041_20250301_011",
      "vehicleId": "48408041",
      "driverId": "20000018",
      "startMs": 1740824340000,
      "endMs": 1740826478348,
      "startAddress": "3974 Scott Inlet",
      "endAddress": "035 Tate Keys",
      "startCoords": {
        "latitude": 39.684501,
        "longitude": -104.94338
      },
      "endCoords": {
        "latitude": 39.816548,
        "longitude": -104.92125
      },
      "distanceMeters": 17622.1,
      "durationMs": 2138348,
      "drivingDurationMs": 1765000,
      "idlingDurationMs": 373348,
      "fuelConsumedMl": 799,
      "fuelConsumedGallons": 0.211,
      "maxSpeedMph": 59.3,
      "averageSpeedMph": 18.4,
      "safetyEvents": []
    },
    {
      "id": "trip_48408041_20250301_012",
      "vehicleId": "48408041",
      "driverId": null,
      "startMs": 1740814800000,
      "endMs": 1740815507581,
      "startAddress": "9992 Cindy Landing Apt. 732",
      "endAddress": "5233 Victoria Fork Suite 755",
      "startCoords": {
        "latitude": 39.699004,
        "longitude": -105.045088
      },
      "endCoords": {
        "latitude": 39.806602,
        "longitude": -104.96961
      },
      "distanceMeters": 5306.8,
      "durationMs": 707582,
      "drivingDurationMs": 563810,
      "idlingDurationMs": 143772,
      "fuelConsumedMl": 238,
      "fuelConsumedGallons": 0.063,
      "maxSpeedMph": 52.3,
      "averageSpeedMph": 16.8,
      "safetyEvents": []
    },
    {
      "id": "trip_48408041_20250303_001",
      "vehicleId": "48408041",
      "driverId": "20000021",
      "startMs": 1741013940000,
      "endMs": 1741016953468,
      "startAddress": "1398 Mccall Mission",
      "endAddress": "7465 Williams Islands",
      "startCoords": {
        "latitude": 39.769171,
        "longitude": -104.934252
      },
      "endCoords": {
        "latitude": 39.808078,
        "longitude": -104.909141
      },
      "distanceMeters": 17477.4,
      "durationMs": 3013469,
      "drivingDurationMs": 2663998,
      "idlingDurationMs": 349471,
      "fuelConsumedMl": 791,
      "fuelConsumedGallons": 0.209,
      "maxSpeedMph": 41.2,
      "averageSpeedMph": 13.0,
      "safetyEvents": []
    },
    {
      "id": "trip_48408041_20250303_002",
      "vehicleId": "48408041",
      "driverId": "20000021",
      "startMs": 1741025040000,
      "endMs": 1741026758338,
      "startAddress": "74117 Cody Roads",
      "endAddress": "70772 Barnes Lake Apt. 828",
      "startCoords": {
        "latitude": 39.729548,
        "longitude": -105.060965
      },
      "endCoords": {
        "latitude": 39.75879,
        "longitude": -104.992726
      },
      "distanceMeters": 13280.1,
      "durationMs": 1718338,
      "drivingDurationMs": 1477958,
      "idlingDurationMs": 240380,
      "fuelConsumedMl": 602,
      "fuelConsumedGallons": 0.159,
      "maxSpeedMph": 40.1,
      "averageSpeedMph": 17.3,
      "safetyEvents": []
    },
    {
      "id": "trip_48408041_20250303_003",
      "vehicleId": "48408041",
      "driverId": "20000021",
      "startMs": 1740988320000,
      "endMs": 1740989944925,
      "startAddress": "49558 Angela Land",
      "endAddress": "67041 Adkins Dam",
      "startCoords": {
        "latitude": 39.759824,
        "longitude": -104.909478
      },
      "endCoords": {
        "latitude": 39.731491,
        "longitude": -105.046419
      },
      "distanceMeters": 10100.9,
      "durationMs": 1624926,
      "drivingDurationMs": 1398370,
      "idlingDurationMs": 226556,
      "fuelConsumedMl": 458,
      "fuelConsumedGallons": 0.121,
      "maxSpeedMph": 31.1,
      "averageSpeedMph": 13.9,
      "safetyEvents": []
    },
    {
      "id": "trip_48408041_20250303_004",
      "vehicleId": "48408041",
      "driverId": "20000021",
      "startMs": 1740999240000,
      "endMs": 1741000931134,
      "startAddress": "291 Cook Knolls",
      "endAddress": "31721 Thompson Grove",
      "startCoords": {
        "latitude": 39.720577,
        "longitude": -104.916493
      },
      "endCoords": {
        "latitude": 39.806494,
        "longitude": -105.031114
      },
      "distanceMeters": 14032.1,
      "durationMs": 1691134,
      "drivingDurationMs": 1418423,
      "idlingDurationMs": 272711,
      "fuelConsumedMl": 636,
      "fuelConsumedGallons": 0.168,
      "maxSpeedMph": 34.2,
      "averageSpeedMph": 18.6,
      "safetyEvents": []
    },
    {
      "id": "trip_48408041_20250303_005",
      "vehicleId": "48408041",
      "driverId": "20000021",
      "startMs": 1741026480000,
      "endMs": 1741026979576,
      "startAddress": "121 Williams Station Suite 500",
      "endAddress": "15712 James Well",
      "startCoords": {
        "latitude": 39.769316,
        "longitude": -104.985687
      },
      "endCoords": {
        "latitude": 39.743822,
        "longitude": -104.928028
      },
      "distanceMeters": 2345.0,
      "durationMs": 499576,
      "drivingDurationMs": 361170,
      "idlingDurationMs": 138406,
      "fuelConsumedMl": 106,
      "fuelConsumedGallons": 0.028,
      "maxSpeedMph": 31.6,
      "averageSpeedMph": 10.5,
      "safetyEvents": []
    },
    {
      "id": "trip_48408041_20250303_006",
      "vehicleId": "48408041",
      "driverId": "20000021",
      "startMs": 1741012020000,
      "endMs": 1741012842614,
      "startAddress": "472 Judith Canyon Apt. 691",
      "endAddress": "4428 Adam Island Suite 294",
      "startCoords": {
        "latitude": 39.774594,
        "longitude": -104.946795
      },
      "endCoords": {
        "latitude": 39.736218,
        "longitude": -104.94071
      },
      "distanceMeters": 3979.7,
      "durationMs": 822614,
      "drivingDurationMs": 649426,
      "idlingDurationMs": 173188,
      "fuelConsumedMl": 182,
      "fuelConsumedGallons": 0.048,
      "maxSpeedMph": 52.9,
      "averageSpeedMph": 10.8,
      "safetyEvents": []
    },
    {
      "id": "trip_48408041_20250303_007",
      "vehicleId": "48408041",
      "driverId": "20000021",
      "startMs": 1741024080000,
      "endMs": 1741027029923,
      "startAddress": "02538 Jesse Dam",
      "endAddress": "06598 Edward Path Apt. 517",
      "startCoords": {
        "latitude": 39.7126,
        "longitude": -105.0189
      },
      "endCoords": {
        "latitude": 39.798939,
        "longitude": -104.90055
      },
      "distanceMeters": 21375.0,
      "durationMs": 2949924,
      "drivingDurationMs": 2435600,
      "idlingDurationMs": 514324,
      "fuelConsumedMl": 965,
      "fuelConsumedGallons": 0.255,
      "maxSpeedMph": 70.0,
      "averageSpeedMph": 16.2,
      "safetyEvents": [
        {
          "type": "speeding",
          "startMs": 1741024680000,
          "maxSpeedMph": 70.0
        }
      ]
    },
    {
      "id": "trip_48408041_20250303_008",
      "vehicleId": "48408041",
      "driverId": "20000021",
      "startMs": 1741002660000,
      "endMs": 1741004110880,
      "startAddress": "336 Carpenter Forges",
      "endAddress": "9487 Harmon Key Suite 554",
      "startCoords": {
        "latitude": 39.792032,
        "longitude": -104.945725
      },
      "endCoords": {
        "latitude": 39.772955,
        "longitude": -104.935451
      },
      "distanceMeters": 10623.9,
      "durationMs": 1450880,
      "drivingDurationMs": 1218461,
      "idlingDurationMs": 232419,
      "fuelConsumedMl": 481,
      "fuelConsumedGallons": 0.127,
      "maxSpeedMph": 45.7,
      "averageSpeedMph": 16.4,
      "safetyEvents": []
    },
    {
      "id": "trip_48408041_20250303_009",
      "vehicleId": "48408041",
      "driverId": "20000021",
      "startMs": 1741008720000,
      "endMs": 1741011112905,
      "startAddress": "2856 Anne Mountain",
      "endAddress": "6375 Nicholas Ridges",
      "startCoords": {
        "latitude": 39.737824,
        "longitude": -105.008729
      },
      "endCoords": {
        "latitude": 39.702767,
        "longitude": -105.081006
      },
      "distanceMeters": 17477.7,
      "durationMs": 2392906,
      "drivingDurationMs": 1977464,
      "idlingDurationMs": 415442,
      "fuelConsumedMl": 791,
      "fuelConsumedGallons": 0.209,
      "maxSpeedMph": 36.9,
      "averageSpeedMph": 16.3,
      "safetyEvents": []
    },
    {
      "id": "trip_48408041_20250303_010",
      "vehicleId": "48408041",
      "driverId": "20000021",
      "startMs": 1740990300000,
      "endMs": 1740994771925,
      "startAddress": "408 James Row Apt. 524",
      "endAddress": "2160 Odom Plaza",
      "startCoords": {
        "latitude": 39.71507,
        "longitude": -105.073155
      },
      "endCoords": {
        "latitude": 39.730184,
        "longitude": -104.92346
      },
      "distanceMeters": 24489.8,
      "durationMs": 4471925,
      "drivingDurationMs": 3912018,
      "idlingDurationMs": 559908,
      "fuelConsumedMl": 1109,
      "fuelConsumedGallons": 0.293,
      "maxSpeedMph": 70.6,
      "averageSpeedMph": 12.3,
      "safetyEvents": [
        {
          "type": "speeding",
          "startMs": 1740991560000,
          "maxSpeedMph": 70.6
        }
      ]
    },
    {
      "id": "trip_48408041_20250303_011",
      "vehicleId": "48408041",
      "driverId": null,
      "startMs": 1740993540000,
      "endMs": 1740994555324,
      "startAddress": "03374 Jean Trail Apt. 422",
      "endAddress": "47532 John Extension Apt. 913",
      "startCoords": {
        "latitude": 39.763941,
        "longitude": -104.991035
      },
      "endCoords": {
        "latitude": 39.70821,
        "longitude": -104.925278
      },
      "distanceMeters": 8323.0,
      "durationMs": 1015324,
      "drivingDurationMs": 814487,
      "idlingDurationMs": 200837,
      "fuelConsumedMl": 375,
      "fuelConsumedGallons": 0.099,
      "maxSpeedMph": 46.9,
      "averageSpeedMph": 18.3,
      "safetyEvents": []
    },
    {
      "id": "trip_48408041_20250304_001",
      "vehicleId": "48408041",
      "driverId": "20000003",
      "startMs": 1741084500000,
      "endMs": 1741085222292,
      "startAddress": "558 Kyle Manors Suite 843",
      "endAddress": "384 Olson Ports Suite 811",
      "startCoords": {
        "latitude": 39.698539,
        "longitude": -104.942367
      },
      "endCoords": {
        "latitude": 39.757851,
        "longitude": -105.054439
      },
      "distanceMeters": 3611.8,
      "durationMs": 722293,
      "drivingDurationMs": 574619,
      "idlingDurationMs": 147674,
      "fuelConsumedMl": 163,
      "fuelConsumedGallons": 0.043,
      "maxSpeedMph": 53.8,
      "averageSpeedMph": 11.2,
      "safetyEvents": []
    },
    {
      "id": "trip_48408041_20250304_002",
      "vehicleId": "48408041",
      "driverId": "20000003",
      "startMs": 1741102320000,
      "endMs": 1741102817955,
      "startAddress": "5206 Samuel Dale",
      "endAddress": "673 Veronica Locks",
      "startCoords": {
        "latitude": 39.70652,
        "longitude": -104.96459
      },
      "endCoords": {
        "latitude": 39.825092,
        "longitude": -104.899644
      },
      "distanceMeters": 2704.8,
      "durationMs": 497955,
      "drivingDurationMs": 370326,
      "idlingDurationMs": 127629,
      "fuelConsumedMl": 121,
      "fuelConsumedGallons": 0.032,
      "maxSpeedMph": 71.2,
      "averageSpeedMph": 12.2,
      "safetyEvents": [
        {
          "type": "speeding",
          "startMs": 1741102680000,
          "maxSpeedMph": 71.2
        }
      ]
    },
    {
      "id": "trip_48408041_20250304_003",
      "vehicleId": "48408041",
      "driverId": "20000003",
      "startMs": 1741108020000,
      "endMs": 1741110497355,
      "startAddress": "8307 Ryan Square Suite 441",
      "endAddress": "297 Grant Creek",
      "startCoords": {
        "latitude": 39.782217,
        "longitude": -104.928531
      },
      "endCoords": {
        "latitude": 39.723809,
        "longitude": -104.98288
      },
      "distanceMeters": 14925.9,
      "durationMs": 2477355,
      "drivingDurationMs": 2157484,
      "idlingDurationMs": 319871,
      "fuelConsumedMl": 674,
      "fuelConsumedGallons": 0.178,
      "maxSpeedMph": 68.4,
      "averageSpeedMph": 13.5,
      "safetyEvents": [
        {
          "type": "speeding",
          "startMs": 1741109040000,
          "maxSpeedMph": 68.4
        }
      ]
    },
    {
      "id": "trip_48408041_20250304_004",
      "vehicleId": "48408041",
      "driverId": "20000003",
      "startMs": 1741083540000,
      "endMs": 1741086155993,
      "startAddress": "49027 White Knoll",
      "endAddress": "829 Romero Terrace",
      "startCoords": {
        "latitude": 39.806087,
        "longitude": -104.91689
      },
      "endCoords": {
        "latitude": 39.765814,
        "longitude": -105.013662
      },
      "distanceMeters": 22406.4,
      "durationMs": 2615994,
      "drivingDurationMs": 2407462,
      "idlingDurationMs": 208532,
      "fuelConsumedMl": 1014,
      "fuelConsumedGallons": 0.268,
      "maxSpeedMph": 68.8,
      "averageSpeedMph": 19.2,
      "safetyEvents": [
        {
          "type": "speeding",
          "startMs": 1741084980000,
          "maxSpeedMph": 68.8
        }
      ]
    },
    {
      "id": "trip_48408041_20250304_005",
      "vehicleId": "48408041",
      "driverId": "20000003",
      "startMs": 1741080900000,
      "endMs": 1741083823252,
      "startAddress": "630 Katie Keys",
      "endAddress": "517 Williams Springs",
      "startCoords": {
        "latitude": 39.699184,
        "longitude": -104.990344
      },
      "endCoords": {
        "latitude": 39.764239,
        "longitude": -104.942414
      },
      "distanceMeters": 24692.6,
      "durationMs": 2923253,
      "drivingDurationMs": 2342338,
      "idlingDurationMs": 580915,
      "fuelConsumedMl": 1117,
      "fuelConsumedGallons": 0.295,
      "maxSpeedMph": 33.0,
      "averageSpeedMph": 18.9,
      "safetyEvents": []
    },
    {
      "id": "trip_48408041_20250304_006",
      "vehicleId": "48408041",
      "driverId": "20000003",
      "startMs": 1741112820000,
      "endMs": 1741113292917,
      "startAddress": "078 Estrada Greens",
      "endAddress": "83965 Contreras Vista",
      "startCoords": {
        "latitude": 39.742685,
        "longitude": -104.910718
      },
      "endCoords": {
        "latitude": 39.775521,
        "longitude": -105.052653
      },
      "distanceMeters": 2269.9,
      "durationMs": 472918,
      "drivingDurationMs": 323287,
      "idlingDurationMs": 149631,
      "fuelConsumedMl": 102,
      "fuelConsumedGallons": 0.027,
      "maxSpeedMph": 68.4,
      "averageSpeedMph": 10.7,
      "safetyEvents": [
        {
          "type": "speeding",
          "startMs": 1741112940000,
          "maxSpeedMph": 68.4
        }
      ]
    },
    {
      "id": "trip_48408041_20250304_007",
      "vehicleId": "48408041",
      "driverId": "20000003",
      "startMs": 1741080060000,
      "endMs": 1741080512295,
      "startAddress": "98937 Benson Turnpike Suite 662",
      "endAddress": "6451 Lee Locks",
      "startCoords": {
        "latitude": 39.761455,
        "longitude": -105.081995
      },
      "endCoords": {
        "latitude": 39.783006,
        "longitude": -105.054429
      },
      "distanceMeters": 3297.6,
      "durationMs": 452295,
      "drivingDurationMs": 316665,
      "idlingDurationMs": 135631,
      "fuelConsumedMl": 148,
      "fuelConsumedGallons": 0.039,
      "maxSpeedMph": 66.1,
      "averageSpeedMph": 16.3,
      "safetyEvents": [
        {
          "type": "speeding",
          "startMs": 1741080360000,
          "maxSpeedMph": 66.1
        }
      ]
    },
    {
      "id": "trip_48408041_20250304_008",
      "vehicleId": "48408041",
      "driverId": "20000003",
      "startMs": 1741075620000,
      "endMs": 1741076994378,
      "startAddress": "19602 Courtney Turnpike Suite 727",
      "endAddress": "1146 Robert View Apt. 023",
      "startCoords": {
        "latitude": 39.729709,
        "longitude": -105.082065
      },
      "endCoords": {
        "latitude": 39.786277,
        "longitude": -105.082229
      },
      "distanceMeters": 10398.4,
      "durationMs": 1374378,
      "drivingDurationMs": 1108729,
      "idlingDurationMs": 265650,
      "fuelConsumedMl": 469,
      "fuelConsumedGallons": 0.124,
      "maxSpeedMph": 58.7,
      "averageSpeedMph": 16.9,
      "safetyEvents": []
    },
    {
      "id": "trip_48408041_20250304_009",
      "vehicleId": "48408041",
      "driverId": "20000003",
      "startMs": 1741083060000,
      "endMs": 1741083988188,
      "startAddress": "284 Griffith Ford Apt. 733",
      "endAddress": "611 Wilson Bypass Apt. 663",
      "startCoords": {
        "latitude": 39.814838,
        "longitude": -104.999036
      },
      "endCoords": {
        "latitude": 39.780921,
        "longitude": -104.912903
      },
      "distanceMeters": 6945.1,
      "durationMs": 928189,
      "drivingDurationMs": 748075,
      "idlingDurationMs": 180114,
      "fuelConsumedMl": 314,
      "fuelConsumedGallons": 0.083,
      "maxSpeedMph": 56.7,
      "averageSpeedMph": 16.7,
      "safetyEvents": []
    },
    {
      "id": "trip_48408041_20250304_010",
      "vehicleId": "48408041",
      "driverId": "20000003",
      "startMs": 1741107960000,
      "endMs": 1741108347488,
      "startAddress": "671 Howell Valleys Suite 909",
      "endAddress": "6241 Raymond Squares Apt. 035",
      "startCoords": {
        "latitude": 39.824381,
        "longitude": -104.950888
      },
      "endCoords": {
        "latitude": 39.810078,
        "longitude": -104.922657
      },
      "distanceMeters": 2298.6,
      "durationMs": 387488,
      "drivingDurationMs": 238889,
      "idlingDurationMs": 148599,
      "fuelConsumedMl": 102,
      "fuelConsumedGallons": 0.027,
      "maxSpeedMph": 59.8,
      "averageSpeedMph": 13.3,
      "safetyEvents": []
    },
    {
      "id": "trip_48408041_20250304_011",
      "vehicleId": "48408041",
      "driverId": "20000003",
      "startMs": 1741105140000,
      "endMs": 1741108605605,
      "startAddress": "71384 Susan River Suite 448",
      "endAddress": "17572 Cindy Court",
      "startCoords": {
        "latitude": 39.761331,
        "longitude": -104.973079
      },
      "endCoords": {
        "latitude": 39.805759,
        "longitude": -105.008285
      },
      "distanceMeters": 23904.0,
      "durationMs": 3465605,
      "drivingDurationMs": 3051728,
      "idlingDurationMs": 413877,
      "fuelConsumedMl": 1083,
      "fuelConsumedGallons": 0.286,
      "maxSpeedMph": 37.0,
      "averageSpeedMph": 15.4,
      "safetyEvents": []
    },
    {
      "id": "trip_48408041_20250304_012",
      "vehicleId": "48408041",
      "driverId": "20000003",
      "startMs": 1741078260000,
      "endMs": 1741078927040,
      "startAddress": "255 Harris Prairie",
      "endAddress": "62381 Young Fords",
      "startCoords": {
        "latitude": 39.704169,
        "longitude": -105.031221
      },
      "endCoords": {
        "latitude": 39.726634,
        "longitude": -104.910887
      },
      "distanceMeters": 4907.4,
      "durationMs": 667041,
      "drivingDurationMs": 505511,
      "idlingDurationMs": 161530,
      "fuelConsumedMl": 223,
      "fuelConsumedGallons": 0.059,
      "maxSpeedMph": 39.1,
      "averageSpeedMph": 16.5,
      "safetyEvents": []
    },
    {
      "id": "trip_48408041_20250304_013",
      "vehicleId": "48408041",
      "driverId": "20000003",
      "startMs": 1741071360000,
      "endMs": 1741073018693,
      "startAddress": "78927 Hall Spurs",
      "endAddress": "30189 Richard Trafficway Suite 216",
      "startCoords": {
        "latitude": 39.719036,
        "longitude": -105.064342
      },
      "endCoords": {
        "latitude": 39.789877,
        "longitude": -105.007504
      },
      "distanceMeters": 13592.9,
      "durationMs": 1658693,
      "drivingDurationMs": 1410088,
      "idlingDurationMs": 248605,
      "fuelConsumedMl": 613,
      "fuelConsumedGallons": 0.162,
      "maxSpeedMph": 46.4,
      "averageSpeedMph": 18.3,
      "safetyEvents": []
    },
    {
      "id": "trip_48408041_20250304_014",
      "vehicleId": "48408041",
      "driverId": "20000003",
      "startMs": 1741068360000,
      "endMs": 1741070175593,
      "startAddress": "5906 Griffin Tunnel",
      "endAddress": "861 Donald Villages",
      "startCoords": {
        "latitude": 39.697448,
        "longitude": -104.936174
      },
      "endCoords": {
        "latitude": 39.757998,
        "longitude": -105.004129
      },
      "distanceMeters": 11007.9,
      "durationMs": 1815594,
      "drivingDurationMs": 1476789,
      "idlingDurationMs": 338804,
      "fuelConsumedMl": 500,
      "fuelConsumedGallons": 0.132,
      "maxSpeedMph": 29.0,
      "averageSpeedMph": 13.6,
      "safetyEvents": []
    },
    {
      "id": "trip_48408041_20250305_001",
      "vehicleId": "48408041",
      "driverId": "20000001",
      "startMs": 1741164720000,
      "endMs": 1741165343410,
      "startAddress": "1192 Marcus Inlet Apt. 373",
      "endAddress": "8374 Ashley Plain",
      "startCoords": {
        "latitude": 39.786027,
        "longitude": -105.023117
      },
      "endCoords": {
        "latitude": 39.735038,
        "longitude": -104.941988
      },
      "distanceMeters": 3174.7,
      "durationMs": 623411,
      "drivingDurationMs": 485561,
      "idlingDurationMs": 137850,
      "fuelConsumedMl": 144,
      "fuelConsumedGallons": 0.038,
      "maxSpeedMph": 43.9,
      "averageSpeedMph": 11.4,
      "safetyEvents": []
    },
    {
      "id": "trip_48408041_20250305_002",
      "vehicleId": "48408041",
      "driverId": "20000001",
      "startMs": 1741195980000,
      "endMs": 1741198617361,
      "startAddress": "7608 Karina Gateway Suite 599",
      "endAddress": "248 Yolanda Keys Suite 199",
      "startCoords": {
        "latitude": 39.804222,
        "longitude": -104.914372
      },
      "endCoords": {
        "latitude": 39.739589,
        "longitude": -104.967046
      },
      "distanceMeters": 22090.8,
      "durationMs": 2637361,
      "drivingDurationMs": 2147775,
      "idlingDurationMs": 489587,
      "fuelConsumedMl": 999,
      "fuelConsumedGallons": 0.264,
      "maxSpeedMph": 28.7,
      "averageSpeedMph": 18.7,
      "safetyEvents": []
    },
    {
      "id": "trip_48408041_20250305_003",
      "vehicleId": "48408041",
      "driverId": "20000001",
      "startMs": 1741199100000,
      "endMs": 1741200805799,
      "startAddress": "813 David Lock",
      "endAddress": "816 Daniel Keys",
      "startCoords": {
        "latitude": 39.695605,
        "longitude": -104.941585
      },
      "endCoords": {
        "latitude": 39.77199,
        "longitude": -104.901306
      },
      "distanceMeters": 12236.2,
      "durationMs": 1705799,
      "drivingDurationMs": 1458819,
      "idlingDurationMs": 246980,
      "fuelConsumedMl": 553,
      "fuelConsumedGallons": 0.146,
      "maxSpeedMph": 71.7,
      "averageSpeedMph": 16.0,
      "safetyEvents": [
        {
          "type": "speeding",
          "startMs": 1741200480000,
          "maxSpeedMph": 71.7
        }
      ]
    },
    {
      "id": "trip_48408041_20250305_004",
      "vehicleId": "48408041",
      "driverId": null,
      "startMs": 1741160580000,
      "endMs": 1741164075891,
      "startAddress": "152 Vanessa Fall",
      "endAddress": "461 Guzman Orchard",
      "startCoords": {
        "latitude": 39.729478,
        "longitude": -105.052043
      },
      "endCoords": {
        "latitude": 39.804058,
        "longitude": -104.97645
      },
      "distanceMeters": 19782.6,
      "durationMs": 3495892,
      "drivingDurationMs": 2882417,
      "idlingDurationMs": 613475,
      "fuelConsumedMl": 893,
      "fuelConsumedGallons": 0.236,
      "maxSpeedMph": 54.4,
      "averageSpeedMph": 12.7,
      "safetyEvents": []
    },
    {
      "id": "trip_48408041_20250305_005",
      "vehicleId": "48408041",
      "driverId": "20000001",
      "startMs": 1741178880000,
      "endMs": 1741181937753,
      "startAddress": "2220 Lee Valleys",
      "endAddress": "169 Robbins Wall Apt. 027",
      "startCoords": {
        "latitude": 39.821056,
        "longitude": -105.087316
      },
      "endCoords": {
        "latitude": 39.699912,
        "longitude": -105.007999
      },
      "distanceMeters": 21908.2,
      "durationMs": 3057754,
      "drivingDurationMs": 2662035,
      "idlingDurationMs": 395718,
      "fuelConsumedMl": 992,
      "fuelConsumedGallons": 0.262,
      "maxSpeedMph": 51.7,
      "averageSpeedMph": 16.0,
      "safetyEvents": []
    },
    {
      "id": "trip_48408041_20250305_006",
      "vehicleId": "48408041",
      "driverId": null,
      "startMs": 1741154760000,
      "endMs": 1741156763888,
      "startAddress": "9512 Richard Prairie Apt. 760",
      "endAddress": "9131 Nathan Junction",
      "startCoords": {
        "latitude": 39.69873,
        "longitude": -105.0009
      },
      "endCoords": {
        "latitude": 39.812337,
        "longitude": -104.924978
      },
      "distanceMeters": 10641.6,
      "durationMs": 2003888,
      "drivingDurationMs": 1605865,
      "idlingDurationMs": 398024,
      "fuelConsumedMl": 481,
      "fuelConsumedGallons": 0.127,
      "maxSpeedMph": 44.3,
      "averageSpeedMph": 11.9,
      "safetyEvents": []
    },
    {
      "id": "trip_48408041_20250305_007",
      "vehicleId": "48408041",
      "driverId": "20000001",
      "startMs": 1741176240000,
      "endMs": 1741176827595,
      "startAddress": "137 Lisa Locks",
      "endAddress": "72316 Garcia Mews",
      "startCoords": {
        "latitude": 39.73271,
        "longitude": -105.02434
      },
      "endCoords": {
        "latitude": 39.692477,
        "longitude": -105.011384
      },
      "distanceMeters": 2907.0,
      "durationMs": 587595,
      "drivingDurationMs": 411049,
      "idlingDurationMs": 176546,
      "fuelConsumedMl": 132,
      "fuelConsumedGallons": 0.035,
      "maxSpeedMph": 39.1,
      "averageSpeedMph": 11.1,
      "safetyEvents": []
    },
    {
      "id": "trip_48408041_20250305_008",
      "vehicleId": "48408041",
      "driverId": "20000001",
      "startMs": 1741159380000,
      "endMs": 1741159749065,
      "startAddress": "98562 Banks Wells Suite 775",
      "endAddress": "03507 Chad Burgs Apt. 736",
      "startCoords": {
        "latitude": 39.810186,
        "longitude": -105.038362
      },
      "endCoords": {
        "latitude": 39.717315,
        "longitude": -104.942096
      },
      "distanceMeters": 2105.2,
      "durationMs": 369065,
      "drivingDurationMs": 230694,
      "idlingDurationMs": 138372,
      "fuelConsumedMl": 95,
      "fuelConsumedGallons": 0.025,
      "maxSpeedMph": 50.4,
      "averageSpeedMph": 12.8,
      "safetyEvents": []
    },
    {
      "id": "trip_48408041_20250305_009",
      "vehicleId": "48408041",
      "driverId": "20000001",
      "startMs": 1741161000000,
      "endMs": 1741165207182,
      "startAddress": "5068 Ortiz Stream Apt. 028",
      "endAddress": "8317 Shannon Trail",
      "startCoords": {
        "latitude": 39.699488,
        "longitude": -105.067284
      },
      "endCoords": {
        "latitude": 39.73995,
        "longitude": -105.021736
      },
      "distanceMeters": 24606.6,
      "durationMs": 4207182,
      "drivingDurationMs": 4023904,
      "idlingDurationMs": 183278,
      "fuelConsumedMl": 1113,
      "fuelConsumedGallons": 0.294,
      "maxSpeedMph": 37.4,
      "averageSpeedMph": 13.1,
      "safetyEvents": []
    },
    {
      "id": "trip_48408041_20250305_010",
      "vehicleId": "48408041",
      "driverId": "20000001",
      "startMs": 1741178700000,
      "endMs": 1741181250273,
      "startAddress": "538 George Bypass",
      "endAddress": "6358 Jennifer Wall Apt. 449",
      "startCoords": {
        "latitude": 39.754718,
        "longitude": -104.935752
      },
      "endCoords": {
        "latitude": 39.768008,
        "longitude": -104.989467
      },
      "distanceMeters": 18089.8,
      "durationMs": 2550274,
      "drivingDurationMs": 2239179,
      "idlingDurationMs": 311095,
      "fuelConsumedMl": 818,
      "fuelConsumedGallons": 0.216,
      "maxSpeedMph": 54.8,
      "averageSpeedMph": 15.9,
      "safetyEvents": []
    },
    {
      "id": "trip_48408041_20250305_011",
      "vehicleId": "48408041",
      "driverId": "20000001",
      "startMs": 1741175760000,
      "endMs": 1741178478715,
      "startAddress": "21203 Lorraine Roads Suite 518",
      "endAddress": "3683 David Gateway Apt. 577",
      "startCoords": {
        "latitude": 39.791409,
        "longitude": -104.945413
      },
      "endCoords": {
        "latitude": 39.803364,
        "longitude": -105.058331
      },
      "distanceMeters": 22794.8,
      "durationMs": 2718715,
      "drivingDurationMs": 2175297,
      "idlingDurationMs": 543418,
      "fuelConsumedMl": 1030,
      "fuelConsumedGallons": 0.272,
      "maxSpeedMph": 53.1,
      "averageSpeedMph": 18.8,
      "safetyEvents": []
    },
    {
      "id": "trip_48408041_20250305_012",
      "vehicleId": "48408041",
      "driverId": "20000001",
      "startMs": 1741163280000,
      "endMs": 1741163834165,
      "startAddress": "7240 Smith Plains Apt. 663",
      "endAddress": "402 Diana Station",
      "startCoords": {
        "latitude": 39.68404,
        "longitude": -104.956708
      },
      "endCoords": {
        "latitude": 39.712019,
        "longitude": -105.086962
      },
      "distanceMeters": 3174.9,
      "durationMs": 554166,
      "drivingDurationMs": 430769,
      "idlingDurationMs": 123396,
      "fuelConsumedMl": 144,
      "fuelConsumedGallons": 0.038,
      "maxSpeedMph": 41.9,
      "averageSpeedMph": 12.8,
      "safetyEvents": []
    },
    {
      "id": "trip_48408041_20250305_013",
      "vehicleId": "48408041",
      "driverId": "20000001",
      "startMs": 1741190760000,
      "endMs": 1741192625640,
      "startAddress": "340 Kelly Villages",
      "endAddress": "6649 Chavez Rapids",
      "startCoords": {
        "latitude": 39.795592,
        "longitude": -104.927354
      },
      "endCoords": {
        "latitude": 39.712709,
        "longitude": -105.060658
      },
      "distanceMeters": 14877.8,
      "durationMs": 1865641,
      "drivingDurationMs": 1539708,
      "idlingDurationMs": 325932,
      "fuelConsumedMl": 674,
      "fuelConsumedGallons": 0.178,
      "maxSpeedMph": 37.4,
      "averageSpeedMph": 17.8,
      "safetyEvents": []
    },
    {
      "id": "trip_48408041_20250305_014",
      "vehicleId": "48408041",
      "driverId": "20000001",
      "startMs": 1741185240000,
      "endMs": 1741187035376,
      "startAddress": "183 Reyes Via",
      "endAddress": "73836 Shari Glens Apt. 216",
      "startCoords": {
        "latitude": 39.809987,
        "longitude": -105.043101
      },
      "endCoords": {
        "latitude": 39.785639,
        "longitude": -104.970668
      },
      "distanceMeters": 11112.1,
      "durationMs": 1795376,
      "drivingDurationMs": 1567993,
      "idlingDurationMs": 227383,
      "fuelConsumedMl": 503,
      "fuelConsumedGallons": 0.133,
      "maxSpeedMph": 59.1,
      "averageSpeedMph": 13.8,
      "safetyEvents": []
    },
    {
      "id": "trip_48408041_20250306_001",
      "vehicleId": "48408041",
      "driverId": "20000018",
      "startMs": 1741256640000,
      "endMs": 1741257070775,
      "startAddress": "1879 Gregory Rest",
      "endAddress": "030 Kimberly Route",
      "startCoords": {
        "latitude": 39.767773,
        "longitude": -104.910802
      },
      "endCoords": {
        "latitude": 39.763917,
        "longitude": -105.034243
      },
      "distanceMeters": 2568.0,
      "durationMs": 430775,
      "drivingDurationMs": 280449,
      "idlingDurationMs": 150326,
      "fuelConsumedMl": 117,
      "fuelConsumedGallons": 0.031,
      "maxSpeedMph": 59.8,
      "averageSpeedMph": 13.3,
      "safetyEvents": []
    },
    {
      "id": "trip_48408041_20250306_002",
      "vehicleId": "48408041",
      "driverId": "20000018",
      "startMs": 1741270440000,
      "endMs": 1741273254842,
      "startAddress": "75519 Patel Greens",
      "endAddress": "0657 Daniel Extension Suite 396",
      "startCoords": {
        "latitude": 39.780114,
        "longitude": -105.027838
      },
      "endCoords": {
        "latitude": 39.721487,
        "longitude": -105.023504
      },
      "distanceMeters": 18809.1,
      "durationMs": 2814842,
      "drivingDurationMs": 2449478,
      "idlingDurationMs": 365365,
      "fuelConsumedMl": 852,
      "fuelConsumedGallons": 0.225,
      "maxSpeedMph": 28.7,
      "averageSpeedMph": 14.9,
      "safetyEvents": []
    },
    {
      "id": "trip_48408041_20250306_003",
      "vehicleId": "48408041",
      "driverId": "20000018",
      "startMs": 1741249440000,
      "endMs": 1741249862352,
      "startAddress": "1628 Chelsea Ferry",
      "endAddress": "5613 Brianna Pine Apt. 635",
      "startCoords": {
        "latitude": 39.731694,
        "longitude": -104.976125
      },
      "endCoords": {
        "latitude": 39.683829,
        "longitude": -104.926729
      },
      "distanceMeters": 2873.5,
      "durationMs": 422352,
      "drivingDurationMs": 291534,
      "idlingDurationMs": 130818,
      "fuelConsumedMl": 129,
      "fuelConsumedGallons": 0.034,
      "maxSpeedMph": 29.0,
      "averageSpeedMph": 15.2,
      "safetyEvents": []
    },
    {
      "id": "trip_48408041_20250306_004",
      "vehicleId": "48408041",
      "driverId": "20000018",
      "startMs": 1741270680000,
      "endMs": 1741271748163,
      "startAddress": "867 Esparza Cove",
      "endAddress": "50852 Melissa Drive Apt. 404",
      "startCoords": {
        "latitude": 39.773969,
        "longitude": -104.91422
      },
      "endCoords": {
        "latitude": 39.696261,
        "longitude": -105.044186
      },
      "distanceMeters": 6370.6,
      "durationMs": 1068164,
      "drivingDurationMs": 859397,
      "idlingDurationMs": 208767,
      "fuelConsumedMl": 288,
      "fuelConsumedGallons": 0.076,
      "maxSpeedMph": 54.6,
      "averageSpeedMph": 13.3,
      "safetyEvents": []
    },
    {
      "id": "trip_48408041_20250306_005",
      "vehicleId": "48408041",
      "driverId": "20000018",
      "startMs": 1741277700000,
      "endMs": 1741278736959,
      "startAddress": "3592 Nelson Row",
      "endAddress": "0019 Andrew Cliff Suite 534",
      "startCoords": {
        "latitude": 39.73677,
        "longitude": -104.988276
      },
      "endCoords": {
        "latitude": 39.737516,
        "longitude": -104.981582
      },
      "distanceMeters": 6388.2,
      "durationMs": 1036959,
      "drivingDurationMs": 849005,
      "idlingDurationMs": 187954,
      "fuelConsumedMl": 288,
      "fuelConsumedGallons": 0.076,
      "maxSpeedMph": 61.5,
      "averageSpeedMph": 13.8,
      "safetyEvents": []
    },
    {
      "id": "trip_48408041_20250306_006",
      "vehicleId": "48408041",
      "driverId": "20000018",
      "startMs": 1741272060000,
      "endMs": 1741274779757,
      "startAddress": "751 Richard Path Suite 217",
      "endAddress": "6269 Jeffrey Square",
      "startCoords": {
        "latitude": 39.690834,
        "longitude": -104.969443
      },
      "endCoords": {
        "latitude": 39.695444,
        "longitude": -105.048593
      },
      "distanceMeters": 19827.9,
      "durationMs": 2719758,
      "drivingDurationMs": 2342521,
      "idlingDurationMs": 377237,
      "fuelConsumedMl": 897,
      "fuelConsumedGallons": 0.237,
      "maxSpeedMph": 40.0,
      "averageSpeedMph": 16.3,
      "safetyEvents": []
    },
    {
      "id": "trip_48408041_20250306_007",
      "vehicleId": "48408041",
      "driverId": "20000018",
      "startMs": 1741271880000,
      "endMs": 1741275644350,
      "startAddress": "74420 Hernandez Passage",
      "endAddress": "2323 April Spurs",
      "startCoords": {
        "latitude": 39.801011,
        "longitude": -104.909477
      },
      "endCoords": {
        "latitude": 39.762001,
        "longitude": -104.933528
      },
      "distanceMeters": 23761.4,
      "durationMs": 3764350,
      "drivingDurationMs": 3192507,
      "idlingDurationMs": 571843,
      "fuelConsumedMl": 1075,
      "fuelConsumedGallons": 0.284,
      "maxSpeedMph": 48.2,
      "averageSpeedMph": 14.1,
      "safetyEvents": []
    },
    {
      "id": "trip_48408041_20250306_008",
      "vehicleId": "48408041",
      "driverId": "20000018",
      "startMs": 1741259820000,
      "endMs": 1741262385966,
      "startAddress": "44298 Madison Gateway Apt. 962",
      "endAddress": "5451 Melissa Ridges",
      "startCoords": {
        "latitude": 39.826975,
        "longitude": -105.009797
      },
      "endCoords": {
        "latitude": 39.793281,
        "longitude": -105.003854
      },
      "distanceMeters": 20573.9,
      "durationMs": 2565966,
      "drivingDurationMs": 2280724,
      "idlingDurationMs": 285242,
      "fuelConsumedMl": 931,
      "fuelConsumedGallons": 0.246,
      "maxSpeedMph": 49.2,
      "averageSpeedMph": 17.9,
      "safetyEvents": []
    },
    {
      "id": "trip_48408041_20250306_009",
      "vehicleId": "48408041",
      "driverId": "20000018",
      "startMs": 1741286760000,
      "endMs": 1741290012654,
      "startAddress": "93364 Mcintyre Bridge Suite 843",
      "endAddress": "87315 Mcdonald Cliff Suite 542",
      "startCoords": {
        "latitude": 39.788926,
        "longitude": -105.008435
      },
      "endCoords": {
        "latitude": 39.773339,
        "longitude": -104.980038
      },
      "distanceMeters": 19318.4,
      "durationMs": 3252654,
      "drivingDurationMs": 2662992,
      "idlingDurationMs": 589662,
      "fuelConsumedMl": 874,
      "fuelConsumedGallons": 0.231,
      "maxSpeedMph": 66.5,
      "averageSpeedMph": 13.3,
      "safetyEvents": [
        {
          "type": "speeding",
          "startMs": 1741287300000,
          "maxSpeedMph": 66.5
        }
      ]
    },
    {
      "id": "trip_48408041_20250306_010",
      "vehicleId": "48408041",
      "driverId": "20000018",
      "startMs": 1741255440000,
      "endMs": 1741255942929,
      "startAddress": "3727 Sandra Flats",
      "endAddress": "5247 Avila Drive Suite 123",
      "startCoords": {
        "latitude": 39.799564,
        "longitude": -105.065754
      },
      "endCoords": {
        "latitude": 39.785622,
        "longitude": -104.955802
      },
      "distanceMeters": 2748.1,
      "durationMs": 502929,
      "drivingDurationMs": 384741,
      "idlingDurationMs": 118188,
      "fuelConsumedMl": 125,
      "fuelConsumedGallons": 0.033,
      "maxSpeedMph": 44.9,
      "averageSpeedMph": 12.2,
      "safetyEvents": []
    },
    {
      "id": "trip_48408041_20250306_011",
      "vehicleId": "48408041",
      "driverId": "20000018",
      "startMs": 1741260480000,
      "endMs": 1741263788366,
      "startAddress": "976 Martinez Pass",
      "endAddress": "19855 Hubbard Corner Apt. 605",
      "startCoords": {
        "latitude": 39.726755,
        "longitude": -105.045994
      },
      "endCoords": {
        "latitude": 39.787688,
        "longitude": -104.992171
      },
      "distanceMeters": 20031.1,
      "durationMs": 3308366,
      "drivingDurationMs": 2852893,
      "idlingDurationMs": 455474,
      "fuelConsumedMl": 905,
      "fuelConsumedGallons": 0.239,
      "maxSpeedMph": 71.8,
      "averageSpeedMph": 13.5,
      "safetyEvents": [
        {
          "type": "speeding",
          "startMs": 1741261620000,
          "maxSpeedMph": 71.8
        }
      ]
    },
    {
      "id": "trip_48408041_20250306_012",
      "vehicleId": "48408041",
      "driverId": "20000018",
      "startMs": 1741266360000,
      "endMs": 1741268330585,
      "startAddress": "31889 Robert Forest",
      "endAddress": "4082 Johnson Ranch",
      "startCoords": {
        "latitude": 39.719113,
        "longitude": -104.925273
      },
      "endCoords": {
        "latitude": 39.767818,
        "longitude": -104.981075
      },
      "distanceMeters": 12258.4,
      "durationMs": 1970585,
      "drivingDurationMs": 1618980,
      "idlingDurationMs": 351605,
      "fuelConsumedMl": 553,
      "fuelConsumedGallons": 0.146,
      "maxSpeedMph": 65.3,
      "averageSpeedMph": 13.9,
      "safetyEvents": [
        {
          "type": "speeding",
          "startMs": 1741267440000,
          "maxSpeedMph": 65.3
        }
      ]
    },
    {
      "id": "trip_48408041_20250306_013",
      "vehicleId": "48408041",
      "driverId": "20000018",
      "startMs": 1741260480000,
      "endMs": 1741264319890,
      "startAddress": "1990 Nicole View",
      "endAddress": "311 Collins Streets",
      "startCoords": {
        "latitude": 39.722766,
        "longitude": -104.917867
      },
      "endCoords": {
        "latitude": 39.706018,
        "longitude": -104.993241
      },
      "distanceMeters": 23159.8,
      "durationMs": 3839890,
      "drivingDurationMs": 3436807,
      "idlingDurationMs": 403084,
      "fuelConsumedMl": 1049,
      "fuelConsumedGallons": 0.277,
      "maxSpeedMph": 49.8,
      "averageSpeedMph": 13.5,
      "safetyEvents": []
    },
    {
      "id": "trip_48408041_20250306_014",
      "vehicleId": "48408041",
      "driverId": "20000018",
      "startMs": 1741246380000,
      "endMs": 1741248686967,
      "startAddress": "7202 Ellis Falls Suite 745",
      "endAddress": "2712 Martinez Springs Suite 345",
      "startCoords": {
        "latitude": 39.715132,
        "longitude": -104.900649
      },
      "endCoords": {
        "latitude": 39.786511,
        "longitude": -104.938199
      },
      "distanceMeters": 16826.8,
      "durationMs": 2306967,
      "drivingDurationMs": 1845714,
      "idlingDurationMs": 461254,
      "fuelConsumedMl": 761,
      "fuelConsumedGallons": 0.201,
      "maxSpeedMph": 59.1,
      "averageSpeedMph": 16.3,
      "safetyEvents": []
    },
    {
      "id": "trip_48408041_20250306_015",
      "vehicleId": "48408041",
      "driverId": "20000018",
      "startMs": 1741250640000,
      "endMs": 1741253471160,
      "startAddress": "755 Jessica Plains",
      "endAddress": "55266 Mclaughlin Mission Suite 121",
      "startCoords": {
        "latitude": 39.760365,
        "longitude": -104.914307
      },
      "endCoords": {
        "latitude": 39.716907,
        "longitude": -105.051739
      },
      "distanceMeters": 15810.9,
      "durationMs": 2831161,
      "drivingDurationMs": 2385160,
      "idlingDurationMs": 446001,
      "fuelConsumedMl": 715,
      "fuelConsumedGallons": 0.189,
      "maxSpeedMph": 58.5,
      "averageSpeedMph": 12.5,
      "safetyEvents": []
    },
    {
      "id": "trip_48408041_20250307_001",
      "vehicleId": "48408041",
      "driverId": "20000019",
      "startMs": 1741360380000,
      "endMs": 1741362758525,
      "startAddress": "9707 Molina Crescent Suite 512",
      "endAddress": "491 Jennifer Isle Apt. 768",
      "startCoords": {
        "latitude": 39.752154,
        "longitude": -104.981865
      },
      "endCoords": {
        "latitude": 39.684265,
        "longitude": -104.941629
      },
      "distanceMeters": 18385.7,
      "durationMs": 2378526,
      "drivingDurationMs": 2166038,
      "idlingDurationMs": 212487,
      "fuelConsumedMl": 833,
      "fuelConsumedGallons": 0.22,
      "maxSpeedMph": 53.1,
      "averageSpeedMph": 17.3,
      "safetyEvents": []
    },
    {
      "id": "trip_48408041_20250307_002",
      "vehicleId": "48408041",
      "driverId": "20000019",
      "startMs": 1741330860000,
      "endMs": 1741334099954,
      "startAddress": "40461 Buck Parkways Suite 715",
      "endAddress": "85964 Ashley Crescent Apt. 006",
      "startCoords": {
        "latitude": 39.741901,
        "longitude": -104.939378
      },
      "endCoords": {
        "latitude": 39.722371,
        "longitude": -105.041869
      },
      "distanceMeters": 20203.3,
      "durationMs": 3239954,
      "drivingDurationMs": 2703471,
      "idlingDurationMs": 536483,
      "fuelConsumedMl": 912,
      "fuelConsumedGallons": 0.241,
      "maxSpeedMph": 66.4,
      "averageSpeedMph": 13.9,
      "safetyEvents": [
        {
          "type": "speeding",
          "startMs": 1741331280000,
          "maxSpeedMph": 66.4
        }
      ]
    },
    {
      "id": "trip_48408041_20250307_003",
      "vehicleId": "48408041",
      "driverId": "20000019",
      "startMs": 1741370160000,
      "endMs": 1741372120891,
      "startAddress": "02887 Farrell Plaza Suite 791",
      "endAddress": "41536 Jenna Locks Apt. 926",
      "startCoords": {
        "latitude": 39.754276,
        "longitude": -104.942423
      },
      "endCoords": {
        "latitude": 39.813819,
        "longitude": -105.062354
      },
      "distanceMeters": 16004.2,
      "durationMs": 1960892,
      "drivingDurationMs": 1677684,
      "idlingDurationMs": 283208,
      "fuelConsumedMl": 723,
      "fuelConsumedGallons": 0.191,
      "maxSpeedMph": 38.7,
      "averageSpeedMph": 18.3,
      "safetyEvents": []
    },
    {
      "id": "trip_48408041_20250307_004",
      "vehicleId": "48408041",
      "driverId": "20000019",
      "startMs": 1741373880000,
      "endMs": 1741375415310,
      "startAddress": "77600 Bennett Brooks",
      "endAddress": "619 Kim Motorway",
      "startCoords": {
        "latitude": 39.762615,
        "longitude": -105.049164
      },
      "endCoords": {
        "latitude": 39.74272,
        "longitude": -105.037421
      },
      "distanceMeters": 13390.4,
      "durationMs": 1535311,
      "drivingDurationMs": 1277733,
      "idlingDurationMs": 257578,
      "fuelConsumedMl": 606,
      "fuelConsumedGallons": 0.16,
      "maxSpeedMph": 52.6,
      "averageSpeedMph": 19.5,
      "safetyEvents": []
    },
    {
      "id": "trip_48408041_20250307_005",
      "vehicleId": "48408041",
      "driverId": "20000019",
      "startMs": 1741371960000,
      "endMs": 1741373385028,
      "startAddress": "8910 Mark Junction",
      "endAddress": "8645 Kristin Extensions Suite 897",
      "startCoords": {
        "latitude": 39.721968,
        "longitude": -105.078121
      },
      "endCoords": {
        "latitude": 39.708054,
        "longitude": -104.97412
      },
      "distanceMeters": 11964.7,
      "durationMs": 1425028,
      "drivingDurationMs": 1170994,
      "idlingDurationMs": 254034,
      "fuelConsumedMl": 541,
      "fuelConsumedGallons": 0.143,
      "maxSpeedMph": 61.7,
      "averageSpeedMph": 18.8,
      "safetyEvents": []
    },
    {
      "id": "trip_48408041_20250307_006",
      "vehicleId": "48408041",
      "driverId": "20000019",
      "startMs": 1741361100000,
      "endMs": 1741363407982,
      "startAddress": "719 Cunningham Corner",
      "endAddress": "559 Mark Trail",
      "startCoords": {
        "latitude": 39.704768,
        "longitude": -105.02272
      },
      "endCoords": {
        "latitude": 39.71853,
        "longitude": -105.06628
      },
      "distanceMeters": 17262.8,
      "durationMs": 2307982,
      "drivingDurationMs": 1865597,
      "idlingDurationMs": 442385,
      "fuelConsumedMl": 780,
      "fuelConsumedGallons": 0.206,
      "maxSpeedMph": 35.6,
      "averageSpeedMph": 16.7,
      "safetyEvents": []
    },
    {
      "id": "trip_48408041_20250307_007",
      "vehicleId": "48408041",
      "driverId": "20000019",
      "startMs": 1741365840000,
      "endMs": 1741368971190,
      "startAddress": "46537 Stephanie Fords Suite 636",
      "endAddress": "322 Phillips Square Apt. 785",
      "startCoords": {
        "latitude": 39.742954,
        "longitude": -104.942367
      },
      "endCoords": {
        "latitude": 39.729912,
        "longitude": -105.021013
      },
      "distanceMeters": 22507.2,
      "durationMs": 3131191,
      "drivingDurationMs": 2588209,
      "idlingDurationMs": 542982,
      "fuelConsumedMl": 1018,
      "fuelConsumedGallons": 0.269,
      "maxSpeedMph": 41.8,
      "averageSpeedMph": 16.1,
      "safetyEvents": []
    },
    {
      "id": "trip_48408041_20250307_008",
      "vehicleId": "48408041",
      "driverId": "20000019",
      "startMs": 1741373760000,
      "endMs": 1741376915947,
      "startAddress": "63743 Li Lights",
      "endAddress": "4957 Garcia Crest Apt. 160",
      "startCoords": {
        "latitude": 39.72353,
        "longitude": -104.928253
      },
      "endCoords": {
        "latitude": 39.68823,
        "longitude": -104.99486
      },
      "distanceMeters": 23419.7,
      "durationMs": 3155948,
      "drivingDurationMs": 2967287,
      "idlingDurationMs": 188660,
      "fuelConsumedMl": 1060,
      "fuelConsumedGallons": 0.28,
      "maxSpeedMph": 47.7,
      "averageSpeedMph": 16.6,
      "safetyEvents": []
    },
    {
      "id": "trip_48408041_20250307_009",
      "vehicleId": "48408041",
      "driverId": "20000019",
      "startMs": 1741338960000,
      "endMs": 1741340363211,
      "startAddress": "955 Michael Gateway Apt. 413",
      "endAddress": "17241 Brown Meadows Apt. 634",
      "startCoords": {
        "latitude": 39.709611,
        "longitude": -104.945816
      },
      "endCoords": {
        "latitude": 39.799299,
        "longitude": -104.909994
      },
      "distanceMeters": 11810.9,
      "durationMs": 1403211,
      "drivingDurationMs": 1136135,
      "idlingDurationMs": 267076,
      "fuelConsumedMl": 534,
      "fuelConsumedGallons": 0.141,
      "maxSpeedMph": 70.4,
      "averageSpeedMph": 18.8,
      "safetyEvents": [
        {
          "type": "speeding",
          "startMs": 1741339200000,
          "maxSpeedMph": 70.4
        }
      ]
    },
    {
      "id": "trip_48408041_20250307_010",
      "vehicleId": "48408041",
      "driverId": "20000019",
      "startMs": 1741346640000,
      "endMs": 1741348081265,
      "startAddress": "36232 Cox Skyway",
      "endAddress": "64256 Amber Port",
      "startCoords": {
        "latitude": 39.746357,
        "longitude": -104.909481
      },
      "endCoords": {
        "latitude": 39.77406,
        "longitude": -105.062579
      },
      "distanceMeters": 10177.0,
      "durationMs": 1441266,
      "drivingDurationMs": 1248330,
      "idlingDurationMs": 192935,
      "fuelConsumedMl": 462,
      "fuelConsumedGallons": 0.122,
      "maxSpeedMph": 58.0,
      "averageSpeedMph": 15.8,
      "safetyEvents": []
    },
    {
      "id": "trip_48408041_20250307_011",
      "vehicleId": "48408041",
      "driverId": "20000019",
      "startMs": 1741335720000,
      "endMs": 1741339040450,
      "startAddress": "95913 Chen Estates Suite 613",
      "endAddress": "8756 Cohen Shore",
      "startCoords": {
        "latitude": 39.824236,
        "longitude": -104.906983
      },
      "endCoords": {
        "latitude": 39.778939,
        "longitude": -105.000977
      },
      "distanceMeters": 20724.6,
      "durationMs": 3320451,
      "drivingDurationMs": 2829401,
      "idlingDurationMs": 491049,
      "fuelConsumedMl": 939,
      "fuelConsumedGallons": 0.248,
      "maxSpeedMph": 68.6,
      "averageSpeedMph": 14.0,
      "safetyEvents": [
        {
          "type": "speeding",
          "startMs": 1741338420000,
          "maxSpeedMph": 68.6
        }
      ]
    },
    {
      "id": "trip_48408041_20250307_012",
      "vehicleId": "48408041",
      "driverId": "20000019",
      "startMs": 1741354740000,
      "endMs": 1741356437618,
      "startAddress": "7605 Williams Track",
      "endAddress": "381 Dennis Neck Suite 177",
      "startCoords": {
        "latitude": 39.723855,
        "longitude": -104.996321
      },
      "endCoords": {
        "latitude": 39.748012,
        "longitude": -104.972904
      },
      "distanceMeters": 13461.7,
      "durationMs": 1697619,
      "drivingDurationMs": 1393103,
      "idlingDurationMs": 304516,
      "fuelConsumedMl": 609,
      "fuelConsumedGallons": 0.161,
      "maxSpeedMph": 62.8,
      "averageSpeedMph": 17.7,
      "safetyEvents": []
    },
    {
      "id": "trip_48408041_20250307_013",
      "vehicleId": "48408041",
      "driverId": "20000019",
      "startMs": 1741369260000,
      "endMs": 1741370561514,
      "startAddress": "89821 Cooper Alley Suite 117",
      "endAddress": "649 Maria Land",
      "startCoords": {
        "latitude": 39.706651,
        "longitude": -104.995859
      },
      "endCoords": {
        "latitude": 39.70612,
        "longitude": -105.022573
      },
      "distanceMeters": 6670.0,
      "durationMs": 1301514,
      "drivingDurationMs": 1088616,
      "idlingDurationMs": 212899,
      "fuelConsumedMl": 303,
      "fuelConsumedGallons": 0.08,
      "maxSpeedMph": 59.3,
      "averageSpeedMph": 11.5,
      "safetyEvents": []
    },
    {
      "id": "trip_48408041_20250307_014",
      "vehicleId": "48408041",
      "driverId": "20000019",
      "startMs": 1741355520000,
      "endMs": 1741358484436,
      "startAddress": "002 William Creek Apt. 788",
      "endAddress": "130 Michael Lights",
      "startCoords": {
        "latitude": 39.741879,
        "longitude": -104.96834
      },
      "endCoords": {
        "latitude": 39.779545,
        "longitude": -104.925878
      },
      "distanceMeters": 20569.5,
      "durationMs": 2964437,
      "drivingDurationMs": 2685027,
      "idlingDurationMs": 279410,
      "fuelConsumedMl": 931,
      "fuelConsumedGallons": 0.246,
      "maxSpeedMph": 39.4,
      "averageSpeedMph": 15.5,
      "safetyEvents": []
    },
    {
      "id": "trip_48408041_20250307_015",
      "vehicleId": "48408041",
      "driverId": "20000019",
      "startMs": 1741352400000,
      "endMs": 1741354343159,
      "startAddress": "41947 Scott Parks",
      "endAddress": "2696 Kramer Groves",
      "startCoords": {
        "latitude": 39.685543,
        "longitude": -105.047061
      },
      "endCoords": {
        "latitude": 39.769867,
        "longitude": -105.008915
      },
      "distanceMeters": 12352.3,
      "durationMs": 1943160,
      "drivingDurationMs": 1610373,
      "idlingDurationMs": 332787,
      "fuelConsumedMl": 560,
      "fuelConsumedGallons": 0.148,
      "maxSpeedMph": 38.3,
      "averageSpeedMph": 14.2,
      "safetyEvents": []
    },
    {
      "id": "trip_48408041_20250307_016",
      "vehicleId": "48408041",
      "driverId": "20000019",
      "startMs": 1741331520000,
      "endMs": 1741334349148,
      "startAddress": "30843 Fred Vista",
      "endAddress": "7593 Michael Isle Suite 811",
      "startCoords": {
        "latitude": 39.792044,
        "longitude": -105.019788
      },
      "endCoords": {
        "latitude": 39.732897,
        "longitude": -104.900253
      },
      "distanceMeters": 23701.3,
      "durationMs": 2829148,
      "drivingDurationMs": 2265501,
      "idlingDurationMs": 563648,
      "fuelConsumedMl": 1071,
      "fuelConsumedGallons": 0.283,
      "maxSpeedMph": 33.8,
      "averageSpeedMph": 18.7,
      "safetyEvents": []
    },
    {
      "id": "trip_48408041_20250308_001",
      "vehicleId": "48408041",
      "driverId": "20000009",
      "startMs": 1741429200000,
      "endMs": 1741432202040,
      "startAddress": "41897 Jill Park Suite 242",
      "endAddress": "55925 Estrada Knoll",
      "startCoords": {
        "latitude": 39.725693,
        "longitude": -104.915285
      },
      "endCoords": {
        "latitude": 39.817239,
        "longitude": -104.92066
      },
      "distanceMeters": 20858.9,
      "durationMs": 3002040,
      "drivingDurationMs": 2722626,
      "idlingDurationMs": 279415,
      "fuelConsumedMl": 943,
      "fuelConsumedGallons": 0.249,
      "maxSpeedMph": 59.1,
      "averageSpeedMph": 15.5,
      "safetyEvents": []
    },
    {
      "id": "trip_48408041_20250308_002",
      "vehicleId": "48408041",
      "driverId": "20000009",
      "startMs": 1741452240000,
      "endMs": 1741455073059,
      "startAddress": "70597 Tran Grove Suite 200",
      "endAddress": "92469 Lopez Trail Apt. 036",
      "startCoords": {
        "latitude": 39.724244,
        "longitude": -104.994404
      },
      "endCoords": {
        "latitude": 39.712341,
        "longitude": -104.987089
      },
      "distanceMeters": 16632.1,
      "durationMs": 2833059,
      "drivingDurationMs": 2303406,
      "idlingDurationMs": 529653,
      "fuelConsumedMl": 753,
      "fuelConsumedGallons": 0.199,
      "maxSpeedMph": 51.6,
      "averageSpeedMph": 13.1,
      "safetyEvents": []
    },
    {
      "id": "trip_48408041_20250308_003",
      "vehicleId": "48408041",
      "driverId": null,
      "startMs": 1741423680000,
      "endMs": 1741425239821,
      "startAddress": "80842 Melissa Freeway",
      "endAddress": "891 Helen Flat",
      "startCoords": {
        "latitude": 39.730322,
        "longitude": -104.996721
      },
      "endCoords": {
        "latitude": 39.802582,
        "longitude": -104.912718
      },
      "distanceMeters": 8590.0,
      "durationMs": 1559821,
      "drivingDurationMs": 1250453,
      "idlingDurationMs": 309368,
      "fuelConsumedMl": 390,
      "fuelConsumedGallons": 0.103,
      "maxSpeedMph": 60.6,
      "averageSpeedMph": 12.3,
      "safetyEvents": []
    },
    {
      "id": "trip_48408041_20250308_004",
      "vehicleId": "48408041",
      "driverId": "20000009",
      "startMs": 1741445460000,
      "endMs": 1741446283501,
      "startAddress": "055 Holder Knoll",
      "endAddress": "6968 Larson Ferry Apt. 097",
      "startCoords": {
        "latitude": 39.749978,
        "longitude": -105.043333
      },
      "endCoords": {
        "latitude": 39.698841,
        "longitude": -104.979493
      },
      "distanceMeters": 4438.9,
      "durationMs": 823501,
      "drivingDurationMs": 646873,
      "idlingDurationMs": 176628,
      "fuelConsumedMl": 201,
      "fuelConsumedGallons": 0.053,
      "maxSpeedMph": 44.3,
      "averageSpeedMph": 12.1,
      "safetyEvents": []
    },
    {
      "id": "trip_48408041_20250308_005",
      "vehicleId": "48408041",
      "driverId": "20000009",
      "startMs": 1741435140000,
      "endMs": 1741437311438,
      "startAddress": "93515 Rollins Causeway Suite 314",
      "endAddress": "770 Mitchell Mountain Suite 023",
      "startCoords": {
        "latitude": 39.701543,
        "longitude": -104.936152
      },
      "endCoords": {
        "latitude": 39.722721,
        "longitude": -105.085491
      },
      "distanceMeters": 11590.7,
      "durationMs": 2171438,
      "drivingDurationMs": 1798597,
      "idlingDurationMs": 372841,
      "fuelConsumedMl": 526,
      "fuelConsumedGallons": 0.139,
      "maxSpeedMph": 59.8,
      "averageSpeedMph": 11.9,
      "safetyEvents": []
    },
    {
      "id": "trip_48408041_20250308_006",
      "vehicleId": "48408041",
      "driverId": "20000009",
      "startMs": 1741443720000,
      "endMs": 1741444603581,
      "startAddress": "991 Adam Landing",
      "endAddress": "0438 Megan Lock",
      "startCoords": {
        "latitude": 39.720683,
        "longitude": -104.917976
      },
      "endCoords": {
        "latitude": 39.76181,
        "longitude": -104.943177
      },
      "distanceMeters": 5722.4,
      "durationMs": 883581,
      "drivingDurationMs": 704689,
      "idlingDurationMs": 178892,
      "fuelConsumedMl": 257,
      "fuelConsumedGallons": 0.068,
      "maxSpeedMph": 60.2,
      "averageSpeedMph": 14.5,
      "safetyEvents": []
    },
    {
      "id": "trip_48408041_20250308_007",
      "vehicleId": "48408041",
      "driverId": "20000009",
      "startMs": 1741458240000,
      "endMs": 1741458768046,
      "startAddress": "923 Jacob Valley",
      "endAddress": "532 Elizabeth Extension",
      "startCoords": {
        "latitude": 39.756922,
        "longitude": -104.975908
      },
      "endCoords": {
        "latitude": 39.766981,
        "longitude": -105.031523
      },
      "distanceMeters": 2632.3,
      "durationMs": 528046,
      "drivingDurationMs": 352002,
      "idlingDurationMs": 176044,
      "fuelConsumedMl": 117,
      "fuelConsumedGallons": 0.031,
      "maxSpeedMph": 48.0,
      "averageSpeedMph": 11.2,
      "safetyEvents": []
    },
    {
      "id": "trip_48408041_20250308_008",
      "vehicleId": "48408041",
      "driverId": "20000009",
      "startMs": 1741451700000,
      "endMs": 1741453130852,
      "startAddress": "0361 Christine Drive",
      "endAddress": "34246 Joseph Squares Apt. 255",
      "startCoords": {
        "latitude": 39.752938,
        "longitude": -104.982424
      },
      "endCoords": {
        "latitude": 39.740712,
        "longitude": -104.926021
      },
      "distanceMeters": 11136.0,
      "durationMs": 1430852,
      "drivingDurationMs": 1193512,
      "idlingDurationMs": 237340,
      "fuelConsumedMl": 503,
      "fuelConsumedGallons": 0.133,
      "maxSpeedMph": 48.6,
      "averageSpeedMph": 17.4,
      "safetyEvents": []
    },
    {
      "id": "trip_48408041_20250308_009",
      "vehicleId": "48408041",
      "driverId": "20000009",
      "startMs": 1741426440000,
      "endMs": 1741427045659,
      "startAddress": "64632 Johnson Wall Suite 571",
      "endAddress": "9618 Duane Orchard",
      "startCoords": {
        "latitude": 39.753998,
        "longitude": -104.934902
      },
      "endCoords": {
        "latitude": 39.764922,
        "longitude": -105.003403
      },
      "distanceMeters": 3721.4,
      "durationMs": 605659,
      "drivingDurationMs": 469905,
      "idlingDurationMs": 135755,
      "fuelConsumedMl": 167,
      "fuelConsumedGallons": 0.044,
      "maxSpeedMph": 40.6,
      "averageSpeedMph": 13.7,
      "safetyEvents": []
    },
    {
      "id": "trip_48408041_20250308_010",
      "vehicleId": "48408041",
      "driverId": "20000009",
      "startMs": 1741418160000,
      "endMs": 1741420594678,
      "startAddress": "4138 Morris Ridges Apt. 723",
      "endAddress": "9329 Howard Skyway",
      "startCoords": {
        "latitude": 39.730335,
        "longitude": -105.035001
      },
      "endCoords": {
        "latitude": 39.702889,
        "longitude": -104.957351
      },
      "distanceMeters": 16886.8,
      "durationMs": 2434678,
      "drivingDurationMs": 2016029,
      "idlingDurationMs": 418649,
      "fuelConsumedMl": 765,
      "fuelConsumedGallons": 0.202,
      "maxSpeedMph": 61.0,
      "averageSpeedMph": 15.5,
      "safetyEvents": []
    },
    {
      "id": "trip_48408041_20250308_011",
      "vehicleId": "48408041",
      "driverId": "20000009",
      "startMs": 1741423200000,
      "endMs": 1741426046206,
      "startAddress": "510 Daniel Key Suite 560",
      "endAddress": "14645 William Hollow Apt. 472",
      "startCoords": {
        "latitude": 39.700937,
        "longitude": -104.971932
      },
      "endCoords": {
        "latitude": 39.728681,
        "longitude": -105.035225
      },
      "distanceMeters": 21196.8,
      "durationMs": 2846206,
      "drivingDurationMs": 2344824,
      "idlingDurationMs": 501382,
      "fuelConsumedMl": 958,
      "fuelConsumedGallons": 0.253,
      "maxSpeedMph": 58.3,
      "averageSpeedMph": 16.7,
      "safetyEvents": []
    },
    {
      "id": "trip_48408041_20250308_012",
      "vehicleId": "48408041",
      "driverId": "20000009",
      "startMs": 1741432260000,
      "endMs": 1741434885065,
      "startAddress": "06063 Richard Orchard",
      "endAddress": "0810 Brian Light Suite 511",
      "startCoords": {
        "latitude": 39.756968,
        "longitude": -104.917777
      },
      "endCoords": {
        "latitude": 39.82399,
        "longitude": -105.07514
      },
      "distanceMeters": 15839.5,
      "durationMs": 2625066,
      "drivingDurationMs": 2219619,
      "idlingDurationMs": 405447,
      "fuelConsumedMl": 715,
      "fuelConsumedGallons": 0.189,
      "maxSpeedMph": 61.8,
      "averageSpeedMph": 13.5,
      "safetyEvents": []
    },
    {
      "id": "trip_48408041_20250308_013",
      "vehicleId": "48408041",
      "driverId": "20000009",
      "startMs": 1741430880000,
      "endMs": 1741431572028,
      "startAddress": "398 Bruce Pass",
      "endAddress": "752 Delacruz Parks",
      "startCoords": {
        "latitude": 39.806145,
        "longitude": -105.01018
      },
      "endCoords": {
        "latitude": 39.810435,
        "longitude": -105.0204
      },
      "distanceMeters": 3733.4,
      "durationMs": 692028,
      "drivingDurationMs": 514979,
      "idlingDurationMs": 177049,
      "fuelConsumedMl": 170,
      "fuelConsumedGallons": 0.045,
      "maxSpeedMph": 56.1,
      "averageSpeedMph": 12.1,
      "safetyEvents": []
    },
    {
      "id": "trip_48408041_20250308_014",
      "vehicleId": "48408041",
      "driverId": "20000009",
      "startMs": 1741451160000,
      "endMs": 1741452978884,
      "startAddress": "06803 Miller Spur Apt. 929",
      "endAddress": "4639 Rowe Oval",
      "startCoords": {
        "latitude": 39.745893,
        "longitude": -104.990411
      },
      "endCoords": {
        "latitude": 39.731668,
        "longitude": -104.911195
      },
      "distanceMeters": 14626.1,
      "durationMs": 1818884,
      "drivingDurationMs": 1480055,
      "idlingDurationMs": 338829,
      "fuelConsumedMl": 662,
      "fuelConsumedGallons": 0.175,
      "maxSpeedMph": 44.2,
      "averageSpeedMph": 18.0,
      "safetyEvents": []
    },
    {
      "id": "trip_48408041_20250308_015",
      "vehicleId": "48408041",
      "driverId": "20000009",
      "startMs": 1741440180000,
      "endMs": 1741442185030,
      "startAddress": "0532 Maxwell Motorway",
      "endAddress": "945 Adam Radial Suite 466",
      "startCoords": {
        "latitude": 39.803521,
        "longitude": -105.063512
      },
      "endCoords": {
        "latitude": 39.692324,
        "longitude": -105.051143
      },
      "distanceMeters": 16147.6,
      "durationMs": 2005031,
      "drivingDurationMs": 1811292,
      "idlingDurationMs": 193739,
      "fuelConsumedMl": 731,
      "fuelConsumedGallons": 0.193,
      "maxSpeedMph": 37.2,
      "averageSpeedMph": 18.0,
      "safetyEvents": []
    },
    {
      "id": "trip_48408041_20250310_001",
      "vehicleId": "48408041",
      "driverId": "20000019",
      "startMs": 1741606020000,
      "endMs": 1741608910409,
      "startAddress": "13989 Gregory Crest",
      "endAddress": "748 Dominguez Station",
      "startCoords": {
        "latitude": 39.706174,
        "longitude": -105.010352
      },
      "endCoords": {
        "latitude": 39.754796,
        "longitude": -105.043357
      },
      "distanceMeters": 24667.9,
      "durationMs": 2890410,
      "drivingDurationMs": 2701009,
      "idlingDurationMs": 189401,
      "fuelConsumedMl": 1117,
      "fuelConsumedGallons": 0.295,
      "maxSpeedMph": 69.7,
      "averageSpeedMph": 19.1,
      "safetyEvents": [
        {
          "type": "speeding",
          "startMs": 1741608300000,
          "maxSpeedMph": 69.7
        }
      ]
    },
    {
      "id": "trip_48408041_20250310_002",
      "vehicleId": "48408041",
      "driverId": null,
      "startMs": 1741619640000,
      "endMs": 1741621484913,
      "startAddress": "0048 Tate Road",
      "endAddress": "92471 Antonio Street",
      "startCoords": {
        "latitude": 39.756207,
        "longitude": -105.048155
      },
      "endCoords": {
        "latitude": 39.752361,
        "longitude": -105.015572
      },
      "distanceMeters": 13237.6,
      "durationMs": 1844913,
      "drivingDurationMs": 1526635,
      "idlingDurationMs": 318278,
      "fuelConsumedMl": 598,
      "fuelConsumedGallons": 0.158,
      "maxSpeedMph": 35.3,
      "averageSpeedMph": 16.1,
      "safetyEvents": []
    },
    {
      "id": "trip_48408041_20250310_003",
      "vehicleId": "48408041",
      "driverId": "20000019",
      "startMs": 1741621980000,
      "endMs": 1741624521413,
      "startAddress": "56308 Irwin Avenue",
      "endAddress": "337 Margaret Terrace Suite 288",
      "startCoords": {
        "latitude": 39.743428,
        "longitude": -104.963939
      },
      "endCoords": {
        "latitude": 39.812763,
        "longitude": -104.97534
      },
      "distanceMeters": 16670.3,
      "durationMs": 2541414,
      "drivingDurationMs": 2170151,
      "idlingDurationMs": 371263,
      "fuelConsumedMl": 753,
      "fuelConsumedGallons": 0.199,
      "maxSpeedMph": 41.5,
      "averageSpeedMph": 14.7,
      "safetyEvents": []
    },
    {
      "id": "trip_48408041_20250310_004",
      "vehicleId": "48408041",
      "driverId": "20000019",
      "startMs": 1741596840000,
      "endMs": 1741598565693,
      "startAddress": "345 Lamb Meadow Apt. 883",
      "endAddress": "61390 Lauren View Apt. 927",
      "startCoords": {
        "latitude": 39.697413,
        "longitude": -105.08287
      },
      "endCoords": {
        "latitude": 39.693125,
        "longitude": -105.027215
      },
      "distanceMeters": 13669.7,
      "durationMs": 1725693,
      "drivingDurationMs": 1414284,
      "idlingDurationMs": 311410,
      "fuelConsumedMl": 617,
      "fuelConsumedGallons": 0.163,
      "maxSpeedMph": 46.0,
      "averageSpeedMph": 17.7,
      "safetyEvents": []
    },
    {
      "id": "trip_48408041_20250310_005",
      "vehicleId": "48408041",
      "driverId": null,
      "startMs": 1741591020000,
      "endMs": 1741593177589,
      "startAddress": "9470 Wells Garden Apt. 087",
      "endAddress": "52921 Dickson Shore",
      "startCoords": {
        "latitude": 39.712714,
        "longitude": -104.922396
      },
      "endCoords": {
        "latitude": 39.802356,
        "longitude": -105.036335
      },
      "distanceMeters": 17570.1,
      "durationMs": 2157590,
      "drivingDurationMs": 1728354,
      "idlingDurationMs": 429235,
      "fuelConsumedMl": 795,
      "fuelConsumedGallons": 0.21,
      "maxSpeedMph": 39.6,
      "averageSpeedMph": 18.2,
      "safetyEvents": []
    },
    {
      "id": "trip_48408041_20250310_006",
      "vehicleId": "48408041",
      "driverId": "20000019",
      "startMs": 1741601580000,
      "endMs": 1741602502874,
      "startAddress": "4576 Castillo River Apt. 591",
      "endAddress": "01274 Katherine Ferry",
      "startCoords": {
        "latitude": 39.688047,
        "longitude": -105.063668
      },
      "endCoords": {
        "latitude": 39.811457,
        "longitude": -104.99575
      },
      "distanceMeters": 7590.3,
      "durationMs": 922874,
      "drivingDurationMs": 740100,
      "idlingDurationMs": 182774,
      "fuelConsumedMl": 344,
      "fuelConsumedGallons": 0.091,
      "maxSpeedMph": 32.8,
      "averageSpeedMph": 18.4,
      "safetyEvents": []
    },
    {
      "id": "trip_48408041_20250310_007",
      "vehicleId": "48408041",
      "driverId": "20000019",
      "startMs": 1741618020000,
      "endMs": 1741620801362,
      "startAddress": "8884 Jeremy Coves Apt. 920",
      "endAddress": "39082 Adams Route Apt. 610",
      "startCoords": {
        "latitude": 39.77691,
        "longitude": -104.908479
      },
      "endCoords": {
        "latitude": 39.778363,
        "longitude": -104.965731
      },
      "distanceMeters": 17661.6,
      "durationMs": 2781362,
      "drivingDurationMs": 2588021,
      "idlingDurationMs": 193341,
      "fuelConsumedMl": 799,
      "fuelConsumedGallons": 0.211,
      "maxSpeedMph": 30.0,
      "averageSpeedMph": 14.2,
      "safetyEvents": []
    },
    {
      "id": "trip_48408041_20250310_008",
      "vehicleId": "48408041",
      "driverId": "20000019",
      "startMs": 1741587780000,
      "endMs": 1741588914882,
      "startAddress": "8608 Matthew Shores",
      "endAddress": "404 Hatfield Center Apt. 621",
      "startCoords": {
        "latitude": 39.73475,
        "longitude": -104.945478
      },
      "endCoords": {
        "latitude": 39.806704,
        "longitude": -105.036488
      },
      "distanceMeters": 7362.4,
      "durationMs": 1134882,
      "drivingDurationMs": 924726,
      "idlingDurationMs": 210156,
      "fuelConsumedMl": 333,
      "fuelConsumedGallons": 0.088,
      "maxSpeedMph": 31.1,
      "averageSpeedMph": 14.5,
      "safetyEvents": []
    },
    {
      "id": "trip_48408041_20250310_009",
      "vehicleId": "48408041",
      "driverId": "20000019",
      "startMs": 1741593780000,
      "endMs": 1741594293893,
      "startAddress": "4622 Aaron Summit",
      "endAddress": "516 Sonya Way Suite 599",
      "startCoords": {
        "latitude": 39.686185,
        "longitude": -105.041205
      },
      "endCoords": {
        "latitude": 39.761007,
        "longitude": -105.015477
      },
      "distanceMeters": 4103.5,
      "durationMs": 513894,
      "drivingDurationMs": 405233,
      "idlingDurationMs": 108661,
      "fuelConsumedMl": 185,
      "fuelConsumedGallons": 0.049,
      "maxSpeedMph": 51.4,
      "averageSpeedMph": 17.9,
      "safetyEvents": []
    },
    {
      "id": "trip_48408041_20250310_010",
      "vehicleId": "48408041",
      "driverId": "20000019",
      "startMs": 1741627260000,
      "endMs": 1741630683868,
      "startAddress": "170 Christina Highway",
      "endAddress": "127 Harris Plaza Suite 029",
      "startCoords": {
        "latitude": 39.754572,
        "longitude": -105.00956
      },
      "endCoords": {
        "latitude": 39.793455,
        "longitude": -104.98004
      },
      "distanceMeters": 21446.3,
      "durationMs": 3423869,
      "drivingDurationMs": 3139287,
      "idlingDurationMs": 284581,
      "fuelConsumedMl": 969,
      "fuelConsumedGallons": 0.256,
      "maxSpeedMph": 69.9,
      "averageSpeedMph": 14.0,
      "safetyEvents": [
        {
          "type": "speeding",
          "startMs": 1741627800000,
          "maxSpeedMph": 69.9
        }
      ]
    },
    {
      "id": "trip_48408041_20250310_011",
      "vehicleId": "48408041",
      "driverId": "20000019",
      "startMs": 1741607940000,
      "endMs": 1741610468862,
      "startAddress": "738 Linda Ridge Apt. 386",
      "endAddress": "5025 Williams Expressway Suite 487",
      "startCoords": {
        "latitude": 39.737068,
        "longitude": -105.046527
      },
      "endCoords": {
        "latitude": 39.794754,
        "longitude": -104.991816
      },
      "distanceMeters": 22213.8,
      "durationMs": 2528863,
      "drivingDurationMs": 2257111,
      "idlingDurationMs": 271752,
      "fuelConsumedMl": 1003,
      "fuelConsumedGallons": 0.265,
      "maxSpeedMph": 71.7,
      "averageSpeedMph": 19.6,
      "safetyEvents": [
        {
          "type": "speeding",
          "startMs": 1741610100000,
          "maxSpeedMph": 71.7
        }
      ]
    },
    {
      "id": "trip_48408041_20250310_012",
      "vehicleId": "48408041",
      "driverId": "20000019",
      "startMs": 1741628220000,
      "endMs": 1741628823103,
      "startAddress": "87683 Jodi Crest Suite 852",
      "endAddress": "3207 Dixon Fords Apt. 475",
      "startCoords": {
        "latitude": 39.790772,
        "longitude": -104.960498
      },
      "endCoords": {
        "latitude": 39.710285,
        "longitude": -104.986443
      },
      "distanceMeters": 4479.7,
      "durationMs": 603103,
      "drivingDurationMs": 464207,
      "idlingDurationMs": 138896,
      "fuelConsumedMl": 204,
      "fuelConsumedGallons": 0.054,
      "maxSpeedMph": 53.1,
      "averageSpeedMph": 16.6,
      "safetyEvents": []
    },
    {
      "id": "trip_48408041_20250310_013",
      "vehicleId": "48408041",
      "driverId": "20000019",
      "startMs": 1741629660000,
      "endMs": 1741630187204,
      "startAddress": "998 Joshua Neck Apt. 885",
      "endAddress": "1092 Lawrence Way",
      "startCoords": {
        "latitude": 39.74255,
        "longitude": -104.91601
      },
      "endCoords": {
        "latitude": 39.77521,
        "longitude": -105.040421
      },
      "distanceMeters": 2733.3,
      "durationMs": 527204,
      "drivingDurationMs": 417192,
      "idlingDurationMs": 110013,
      "fuelConsumedMl": 125,
      "fuelConsumedGallons": 0.033,
      "maxSpeedMph": 60.3,
      "averageSpeedMph": 11.6,
      "safetyEvents": []
    },
    {
      "id": "trip_48408041_20250310_014",
      "vehicleId": "48408041",
      "driverId": "20000019",
      "startMs": 1741600020000,
      "endMs": 1741602936979,
      "startAddress": "6689 Baldwin Trafficway",
      "endAddress": "43209 Christina Common Suite 148",
      "startCoords": {
        "latitude": 39.812455,
        "longitude": -104.934172
      },
      "endCoords": {
        "latitude": 39.825274,
        "longitude": -105.082436
      },
      "distanceMeters": 21497.7,
      "durationMs": 2916980,
      "drivingDurationMs": 2551368,
      "idlingDurationMs": 365612,
      "fuelConsumedMl": 973,
      "fuelConsumedGallons": 0.257,
      "maxSpeedMph": 70.7,
      "averageSpeedMph": 16.5,
      "safetyEvents": [
        {
          "type": "speeding",
          "startMs": 1741600800000,
          "maxSpeedMph": 70.7
        }
      ]
    },
    {
      "id": "trip_48408041_20250311_001",
      "vehicleId": "48408041",
      "driverId": "20000009",
      "startMs": 1741677360000,
      "endMs": 1741677815860,
      "startAddress": "92498 Alexandra Springs",
      "endAddress": "540 Torres Loop",
      "startCoords": {
        "latitude": 39.748792,
        "longitude": -105.040394
      },
      "endCoords": {
        "latitude": 39.793213,
        "longitude": -104.933665
      },
      "distanceMeters": 2900.1,
      "durationMs": 455861,
      "drivingDurationMs": 314729,
      "idlingDurationMs": 141132,
      "fuelConsumedMl": 132,
      "fuelConsumedGallons": 0.035,
      "maxSpeedMph": 71.3,
      "averageSpeedMph": 14.2,
      "safetyEvents": [
        {
          "type": "speeding",
          "startMs": 1741677600000,
          "maxSpeedMph": 71.3
        }
      ]
    },
    {
      "id": "trip_48408041_20250311_002",
      "vehicleId": "48408041",
      "driverId": "20000009",
      "startMs": 1741709940000,
      "endMs": 1741712482839,
      "startAddress": "72089 Donna Trail",
      "endAddress": "647 Charlene Ports Suite 657",
      "startCoords": {
        "latitude": 39.775542,
        "longitude": -104.908542
      },
      "endCoords": {
        "latitude": 39.81636,
        "longitude": -105.062604
      },
      "distanceMeters": 18057.3,
      "durationMs": 2542840,
      "drivingDurationMs": 2132015,
      "idlingDurationMs": 410825,
      "fuelConsumedMl": 818,
      "fuelConsumedGallons": 0.216,
      "maxSpeedMph": 34.5,
      "averageSpeedMph": 15.9,
      "safetyEvents": []
    },
    {
      "id": "trip_48408041_20250311_003",
      "vehicleId": "48408041",
      "driverId": "20000009",
      "startMs": 1741710540000,
      "endMs": 1741713399030,
      "startAddress": "44137 Jose Unions",
      "endAddress": "544 Cristina Camp Suite 629",
      "startCoords": {
        "latitude": 39.763872,
        "longitude": -104.937067
      },
      "endCoords": {
        "latitude": 39.730314,
        "longitude": -104.929202
      },
      "distanceMeters": 21212.3,
      "durationMs": 2859030,
      "drivingDurationMs": 2504338,
      "idlingDurationMs": 354692,
      "fuelConsumedMl": 958,
      "fuelConsumedGallons": 0.253,
      "maxSpeedMph": 65.9,
      "averageSpeedMph": 16.6,
      "safetyEvents": [
        {
          "type": "speeding",
          "startMs": 1741713240000,
          "maxSpeedMph": 65.9
        }
      ]
    },
    {
      "id": "trip_48408041_20250311_004",
      "vehicleId": "48408041",
      "driverId": "20000009",
      "startMs": 1741693440000,
      "endMs": 1741693937281,
      "startAddress": "242 Michael Junction",
      "endAddress": "315 Kristi Views",
      "startCoords": {
        "latitude": 39.798594,
        "longitude": -104.906504
      },
      "endCoords": {
        "latitude": 39.774487,
        "longitude": -105.015499
      },
      "distanceMeters": 3804.7,
      "durationMs": 497281,
      "drivingDurationMs": 367585,
      "idlingDurationMs": 129696,
      "fuelConsumedMl": 170,
      "fuelConsumedGallons": 0.045,
      "maxSpeedMph": 43.2,
      "averageSpeedMph": 17.1,
      "safetyEvents": []
    },
    {
      "id": "trip_48408041_20250311_005",
      "vehicleId": "48408041",
      "driverId": "20000009",
      "startMs": 1741714200000,
      "endMs": 1741716662689,
      "startAddress": "464 Charles Trail",
      "endAddress": "10176 Carrillo Inlet Apt. 108",
      "startCoords": {
        "latitude": 39.716838,
        "longitude": -104.984547
      },
      "endCoords": {
        "latitude": 39.807118,
        "longitude": -104.997615
      },
      "distanceMeters": 22665.1,
      "durationMs": 2462689,
      "drivingDurationMs": 2235233,
      "idlingDurationMs": 227457,
      "fuelConsumedMl": 1026,
      "fuelConsumedGallons": 0.271,
      "maxSpeedMph": 66.5,
      "averageSpeedMph": 20.6,
      "safetyEvents": [
        {
          "type": "speeding",
          "startMs": 1741714680000,
          "maxSpeedMph": 66.5
        }
      ]
    },
    {
      "id": "trip_48408041_20250311_006",
      "vehicleId": "48408041",
      "driverId": "20000009",
      "startMs": 1741692000000,
      "endMs": 1741693326314,
      "startAddress": "69687 Tara Cliffs",
      "endAddress": "3504 Cuevas Court Apt. 028",
      "startCoords": {
        "latitude": 39.790669,
        "longitude": -105.061843
      },
      "endCoords": {
        "latitude": 39.80624,
        "longitude": -104.991042
      },
      "distanceMeters": 6862.1,
      "durationMs": 1326314,
      "drivingDurationMs": 1119134,
      "idlingDurationMs": 207181,
      "fuelConsumedMl": 310,
      "fuelConsumedGallons": 0.082,
      "maxSpeedMph": 64.3,
      "averageSpeedMph": 11.6,
      "safetyEvents": []
    },
    {
      "id": "trip_48408041_20250311_007",
      "vehicleId": "48408041",
      "driverId": "20000009",
      "startMs": 1741717560000,
      "endMs": 1741720260193,
      "startAddress": "713 Ramirez Stream",
      "endAddress": "38927 Daniel Prairie",
      "startCoords": {
        "latitude": 39.749625,
        "longitude": -104.995473
      },
      "endCoords": {
        "latitude": 39.721201,
        "longitude": -105.067193
      },
      "distanceMeters": 21075.4,
      "durationMs": 2700194,
      "drivingDurationMs": 2277088,
      "idlingDurationMs": 423105,
      "fuelConsumedMl": 954,
      "fuelConsumedGallons": 0.252,
      "maxSpeedMph": 56.6,
      "averageSpeedMph": 17.5,
      "safetyEvents": []
    },
    {
      "id": "trip_48408041_20250312_001",
      "vehicleId": "48408041",
      "driverId": "20000009",
      "startMs": 1741769040000,
      "endMs": 1741771802655,
      "startAddress": "38443 Holden Locks",
      "endAddress": "118 Justin Village Apt. 188",
      "startCoords": {
        "latitude": 39.786175,
        "longitude": -104.972021
      },
      "endCoords": {
        "latitude": 39.757748,
        "longitude": -105.03725
      },
      "distanceMeters": 15984.9,
      "durationMs": 2762656,
      "drivingDurationMs": 2423442,
      "idlingDurationMs": 339213,
      "fuelConsumedMl": 723,
      "fuelConsumedGallons": 0.191,
      "maxSpeedMph": 70.6,
      "averageSpeedMph": 12.9,
      "safetyEvents": [
        {
          "type": "speeding",
          "startMs": 1741770720000,
          "maxSpeedMph": 70.6
        }
      ]
    },
    {
      "id": "trip_48408041_20250312_002",
      "vehicleId": "48408041",
      "driverId": "20000009",
      "startMs": 1741805340000,
      "endMs": 1741807023613,
      "startAddress": "4459 Tyler Drives",
      "endAddress": "7211 Victoria Ville Apt. 481",
      "startCoords": {
        "latitude": 39.719084,
        "longitude": -105.017339
      },
      "endCoords": {
        "latitude": 39.711673,
        "longitude": -105.049666
      },
      "distanceMeters": 9894.2,
      "durationMs": 1683614,
      "drivingDurationMs": 1452969,
      "idlingDurationMs": 230645,
      "fuelConsumedMl": 447,
      "fuelConsumedGallons": 0.118,
      "maxSpeedMph": 71.2,
      "averageSpeedMph": 13.1,
      "safetyEvents": [
        {
          "type": "speeding",
          "startMs": 1741806300000,
          "maxSpeedMph": 71.2
        }
      ]
    },
    {
      "id": "trip_48408041_20250312_003",
      "vehicleId": "48408041",
      "driverId": "20000009",
      "startMs": 1741768020000,
      "endMs": 1741771968382,
      "startAddress": "5758 Joseph Avenue Suite 258",
      "endAddress": "0534 Schmidt Ports Suite 935",
      "startCoords": {
        "latitude": 39.755361,
        "longitude": -104.947053
      },
      "endCoords": {
        "latitude": 39.69121,
        "longitude": -105.036536
      },
      "distanceMeters": 23274.4,
      "durationMs": 3948382,
      "drivingDurationMs": 3364252,
      "idlingDurationMs": 584130,
      "fuelConsumedMl": 1052,
      "fuelConsumedGallons": 0.278,
      "maxSpeedMph": 58.0,
      "averageSpeedMph": 13.2,
      "safetyEvents": []
    },
    {
      "id": "trip_48408041_20250312_004",
      "vehicleId": "48408041",
      "driverId": "20000009",
      "startMs": 1741769700000,
      "endMs": 1741770200961,
      "startAddress": "467 Ariel Flats Suite 661",
      "endAddress": "436 Roger Extensions",
      "startCoords": {
        "latitude": 39.802247,
        "longitude": -104.948768
      },
      "endCoords": {
        "latitude": 39.695149,
        "longitude": -105.051058
      },
      "distanceMeters": 3461.0,
      "durationMs": 500962,
      "drivingDurationMs": 393994,
      "idlingDurationMs": 106967,
      "fuelConsumedMl": 155,
      "fuelConsumedGallons": 0.041,
      "maxSpeedMph": 47.8,
      "averageSpeedMph": 15.5,
      "safetyEvents": []
    },
    {
      "id": "trip_48408041_20250312_005",
      "vehicleId": "48408041",
      "driverId": "20000009",
      "startMs": 1741774980000,
      "endMs": 1741776874443,
      "startAddress": "772 Holden Creek Apt. 985",
      "endAddress": "889 Miles Plaza Suite 800",
      "startCoords": {
        "latitude": 39.697882,
        "longitude": -104.922691
      },
      "endCoords": {
        "latitude": 39.71823,
        "longitude": -105.035604
      },
      "distanceMeters": 11496.6,
      "durationMs": 1894443,
      "drivingDurationMs": 1674273,
      "idlingDurationMs": 220170,
      "fuelConsumedMl": 519,
      "fuelConsumedGallons": 0.137,
      "maxSpeedMph": 32.2,
      "averageSpeedMph": 13.6,
      "safetyEvents": []
    },
    {
      "id": "trip_48408041_20250312_006",
      "vehicleId": "48408041",
      "driverId": "20000009",
      "startMs": 1741773180000,
      "endMs": 1741774931007,
      "startAddress": "54285 Wright Shoals",
      "endAddress": "982 Megan Cove Apt. 594",
      "startCoords": {
        "latitude": 39.807725,
        "longitude": -104.920011
      },
      "endCoords": {
        "latitude": 39.710082,
        "longitude": -104.967472
      },
      "distanceMeters": 13134.8,
      "durationMs": 1751007,
      "drivingDurationMs": 1404574,
      "idlingDurationMs": 346433,
      "fuelConsumedMl": 594,
      "fuelConsumedGallons": 0.157,
      "maxSpeedMph": 50.5,
      "averageSpeedMph": 16.8,
      "safetyEvents": []
    },
    {
      "id": "trip_48408041_20250312_007",
      "vehicleId": "48408041",
      "driverId": "20000009",
      "startMs": 1741803780000,
      "endMs": 1741806804659,
      "startAddress": "6850 Williams Gateway Apt. 864",
      "endAddress": "662 Duran Mountain Suite 020",
      "startCoords": {
        "latitude": 39.793055,
        "longitude": -105.05034
      },
      "endCoords": {
        "latitude": 39.689171,
        "longitude": -105.060519
      },
      "distanceMeters": 20324.3,
      "durationMs": 3024660,
      "drivingDurationMs": 2549350,
      "idlingDurationMs": 475310,
      "fuelConsumedMl": 920,
      "fuelConsumedGallons": 0.243,
      "maxSpeedMph": 30.8,
      "averageSpeedMph": 15.0,
      "safetyEvents": []
    },
    {
      "id": "trip_48408041_20250312_008",
      "vehicleId": "48408041",
      "driverId": "20000009",
      "startMs": 1741796100000,
      "endMs": 1741796508958,
      "startAddress": "136 Thompson Unions Suite 691",
      "endAddress": "76554 James Crest",
      "startCoords": {
        "latitude": 39.751938,
        "longitude": -105.029976
      },
      "endCoords": {
        "latitude": 39.750641,
        "longitude": -104.961701
      },
      "distanceMeters": 2420.6,
      "durationMs": 408959,
      "drivingDurationMs": 233551,
      "idlingDurationMs": 175408,
      "fuelConsumedMl": 110,
      "fuelConsumedGallons": 0.029,
      "maxSpeedMph": 65.3,
      "averageSpeedMph": 13.2,
      "safetyEvents": [
        {
          "type": "speeding",
          "startMs": 1741796220000,
          "maxSpeedMph": 65.3
        }
      ]
    },
    {
      "id": "trip_48408041_20250312_009",
      "vehicleId": "48408041",
      "driverId": "20000009",
      "startMs": 1741799820000,
      "endMs": 1741801080286,
      "startAddress": "320 Michelle Springs Suite 619",
      "endAddress": "45943 Williams Stream",
      "startCoords": {
        "latitude": 39.77068,
        "longitude": -105.078797
      },
      "endCoords": {
        "latitude": 39.696254,
        "longitude": -105.012283
      },
      "distanceMeters": 9297.2,
      "durationMs": 1260286,
      "drivingDurationMs": 1044352,
      "idlingDurationMs": 215934,
      "fuelConsumedMl": 420,
      "fuelConsumedGallons": 0.111,
      "maxSpeedMph": 31.4,
      "averageSpeedMph": 16.5,
      "safetyEvents": []
    },
    {
      "id": "trip_48408041_20250312_010",
      "vehicleId": "48408041",
      "driverId": "20000009",
      "startMs": 1741761720000,
      "endMs": 1741764509077,
      "startAddress": "99366 Jesse Overpass Suite 514",
      "endAddress": "5914 Smith Knolls Apt. 085",
      "startCoords": {
        "latitude": 39.783669,
        "longitude": -104.964388
      },
      "endCoords": {
        "latitude": 39.822428,
        "longitude": -105.013129
      },
      "distanceMeters": 18074.7,
      "durationMs": 2789077,
      "drivingDurationMs": 2488892,
      "idlingDurationMs": 300186,
      "fuelConsumedMl": 818,
      "fuelConsumedGallons": 0.216,
      "maxSpeedMph": 29.8,
      "averageSpeedMph": 14.5,
      "safetyEvents": []
    },
    {
      "id": "trip_48408041_20250312_011",
      "vehicleId": "48408041",
      "driverId": "20000009",
      "startMs": 1741766760000,
      "endMs": 1741767802450,
      "startAddress": "1766 Frazier Meadows Apt. 588",
      "endAddress": "3363 Trevino Drives",
      "startCoords": {
        "latitude": 39.712712,
        "longitude": -104.990594
      },
      "endCoords": {
        "latitude": 39.685476,
        "longitude": -104.988083
      },
      "distanceMeters": 5341.2,
      "durationMs": 1042451,
      "drivingDurationMs": 837125,
      "idlingDurationMs": 205326,
      "fuelConsumedMl": 242,
      "fuelConsumedGallons": 0.064,
      "maxSpeedMph": 37.6,
      "averageSpeedMph": 11.5,
      "safetyEvents": []
    },
    {
      "id": "trip_48408041_20250313_001",
      "vehicleId": "48408041",
      "driverId": "20000001",
      "startMs": 1741884120000,
      "endMs": 1741886808478,
      "startAddress": "2129 Sara Manor Apt. 801",
      "endAddress": "8900 King Ports",
      "startCoords": {
        "latitude": 39.754676,
        "longitude": -104.950602
      },
      "endCoords": {
        "latitude": 39.688252,
        "longitude": -104.98531
      },
      "distanceMeters": 13980.5,
      "durationMs": 2688479,
      "drivingDurationMs": 2154336,
      "idlingDurationMs": 534142,
      "fuelConsumedMl": 632,
      "fuelConsumedGallons": 0.167,
      "maxSpeedMph": 62.2,
      "averageSpeedMph": 11.6,
      "safetyEvents": []
    },