{
  "vehicleId": "43088084",
  "vehicleName": "SLC-VAN-05",
  "month": "2025_03",
  "pagination": {
    "endCursor": "trip_43088084_20250331_006",
    "hasNextPage": false
  },
  "trips": [
    {
      "id": "trip_43088084_20250301_001",
      "vehicleId": "43088084",
      "driverId": "20000038",
      "startMs": 1740835440000,
      "endMs": 1740838472642,
      "startAddress": "55664 Thomas Station Suite 129",
      "endAddress": "467 Jamie Prairie",
      "startCoords": {
        "latitude": 40.678767,
        "longitude": -111.914755
      },
      "endCoords": {
        "latitude": 40.766992,
        "longitude": -111.884568
      },
      "distanceMeters": 17072.1,
      "durationMs": 3032642,
      "drivingDurationMs": 2720816,
      "idlingDurationMs": 311826,
      "fuelConsumedMl": 2169,
      "fuelConsumedGallons": 0.573,
      "maxSpeedMph": 51.9,
      "averageSpeedMph": 12.6,
      "safetyEvents": []
    },
    {
      "id": "trip_43088084_20250301_002",
      "vehicleId": "43088084",
      "driverId": "20000038",
      "startMs": 1740823740000,
      "endMs": 1740831137479,
      "startAddress": "6111 Butler Coves Apt. 119",
      "endAddress": "0730 Harmon Lodge",
      "startCoords": {
        "latitude": 40.795563,
        "longitude": -111.871532
      },
      "endCoords": {
        "latitude": 40.761111,
        "longitude": -111.918274
      },
      "distanceMeters": 48438.5,
      "durationMs": 7397479,
      "drivingDurationMs": 6961539,
      "idlingDurationMs": 435941,
      "fuelConsumedMl": 6159,
      "fuelConsumedGallons": 1.627,
      "maxSpeedMph": 70.4,
      "averageSpeedMph": 14.6,
      "safetyEvents": [
        {
          "type": "speeding",
          "startMs": 1740825000000,
          "maxSpeedMph": 70.4
        }
      ]
    },
    {
      "id": "trip_43088084_20250301_003",
      "vehicleId": "43088084",
      "driverId": "20000038",
      "startMs": 1740818160000,
      "endMs": 1740821885334,
      "startAddress": "471 Herbert Walks Suite 695",
      "endAddress": "427 Young Key Suite 579",
      "startCoords": {
        "latitude": 40.715793,
        "longitude": -111.78524
      },
      "endCoords": {
        "latitude": 40.688715,
        "longitude": -111.814768
      },
      "distanceMeters": 26806.4,
      "durationMs": 3725335,
      "drivingDurationMs": 3176737,
      "idlingDurationMs": 548598,
      "fuelConsumedMl": 3407,
      "fuelConsumedGallons": 0.9,
      "maxSpeedMph": 40.3,
      "averageSpeedMph": 16.1,
      "safetyEvents": []
    },
    {
      "id": "trip_43088084_20250301_004",
      "vehicleId": "43088084",
      "driverId": "20000038",
      "startMs": 1740836040000,
      "endMs": 1740840336243,
      "startAddress": "70315 Martin Highway",
      "endAddress": "54940 Richard Groves",
      "startCoords": {
        "latitude": 40.656374,
        "longitude": -111.904984
      },
      "endCoords": {
        "latitude": 40.686643,
        "longitude": -111.859047
      },
      "distanceMeters": 33004.7,
      "durationMs": 4296243,
      "drivingDurationMs": 3948534,
      "idlingDurationMs": 347709,
      "fuelConsumedMl": 4198,
      "fuelConsumedGallons": 1.109,
      "maxSpeedMph": 36.7,
      "averageSpeedMph": 17.2,
      "safetyEvents": []
    },
    {
      "id": "trip_43088084_20250302_001",
      "vehicleId": "43088084",
      "driverId": "20000036",
      "startMs": 1740937560000,
      "endMs": 1740940539468,
      "startAddress": "2003 Catherine Centers Apt. 827",
      "endAddress": "7822 Brian Freeway",
      "startCoords": {
        "latitude": 40.75914,
        "longitude": -111.863201
      },
      "endCoords": {
        "latitude": 40.786921,
        "longitude": -111.926166
      },
      "distanceMeters": 17465.2,
      "durationMs": 2979468,
      "drivingDurationMs": 2576834,
      "idlingDurationMs": 402634,
      "fuelConsumedMl": 2222,
      "fuelConsumedGallons": 0.587,
      "maxSpeedMph": 60.8,
      "averageSpeedMph": 13.1,
      "safetyEvents": []
    },
    {
      "id": "trip_43088084_20250302_002",
      "vehicleId": "43088084",
      "driverId": "20000036",
      "startMs": 1740917820000,
      "endMs": 1740924666361,
      "startAddress": "165 Mendez Cove",
      "endAddress": "81417 Tara Center",
      "startCoords": {
        "latitude": 40.74886,
        "longitude": -111.868371
      },
      "endCoords": {
        "latitude": 40.754133,
        "longitude": -111.957576
      },
      "distanceMeters": 35664.8,
      "durationMs": 6846361,
      "drivingDurationMs": 5554263,
      "idlingDurationMs": 1292098,
      "fuelConsumedMl": 4535,
      "fuelConsumedGallons": 1.198,
      "maxSpeedMph": 40.9,
      "averageSpeedMph": 11.7,
      "safetyEvents": []
    },
    {
      "id": "trip_43088084_20250302_003",
      "vehicleId": "43088084",
      "driverId": null,
      "startMs": 1740906840000,
      "endMs": 1740914224889,
      "startAddress": "820 Lutz Circles",
      "endAddress": "5790 Jennifer Inlet Apt. 920",
      "startCoords": {
        "latitude": 40.752492,
        "longitude": -111.881658
      },
      "endCoords": {
        "latitude": 40.76766,
        "longitude": -111.779295
      },
      "distanceMeters": 53341.8,
      "durationMs": 7384890,
      "drivingDurationMs": 7084430,
      "idlingDurationMs": 300459,
      "fuelConsumedMl": 6783,
      "fuelConsumedGallons": 1.792,
      "maxSpeedMph": 53.2,
      "averageSpeedMph": 16.2,
      "safetyEvents": []
    },
    {
      "id": "trip_43088084_20250303_001",
      "vehicleId": "43088084",
      "driverId": null,
      "startMs": 1741013880000,
      "endMs": 1741016345813,
      "startAddress": "82035 Thomas Forges",
      "endAddress": "30618 Charles Springs",
      "startCoords": {
        "latitude": 40.735789,
        "longitude": -111.901326
      },
      "endCoords": {
        "latitude": 40.686989,
        "longitude": -111.775853
      },
      "distanceMeters": 13227.5,
      "durationMs": 2465814,
      "drivingDurationMs": 2007224,
      "idlingDurationMs": 458590,
      "fuelConsumedMl": 1681,
      "fuelConsumedGallons": 0.444,
      "maxSpeedMph": 62.0,
      "averageSpeedMph": 12.0,
      "safetyEvents": []
    },
    {
      "id": "trip_43088084_20250303_002",
      "vehicleId": "43088084",
      "driverId": "20000038",
      "startMs": 1741018980000,
      "endMs": 1741034708679,
      "startAddress": "1139 Davis Vista Suite 428",
      "endAddress": "4479 Gamble Fords Suite 689",
      "startCoords": {
        "latitude": 40.742979,
        "longitude": -111.821951
      },
      "endCoords": {
        "latitude": 40.777837,
        "longitude": -111.937407
      },
      "distanceMeters": 71555.5,
      "durationMs": 15728680,
      "drivingDurationMs": 13318330,
      "idlingDurationMs": 2410350,
      "fuelConsumedMl": 9096,
      "fuelConsumedGallons": 2.403,
      "maxSpeedMph": 59.4,
      "averageSpeedMph": 10.2,
      "safetyEvents": []
    },
    {
      "id": "trip_43088084_20250303_003",
      "vehicleId": "43088084",
      "driverId": "20000038",
      "startMs": 1741003020000,
      "endMs": 1741005674501,
      "startAddress": "58314 Andrew Locks Suite 076",
      "endAddress": "87514 William Branch Apt. 507",
      "startCoords": {
        "latitude": 40.707672,
        "longitude": -111.909884
      },
      "endCoords": {
        "latitude": 40.708629,
        "longitude": -111.943828
      },
      "distanceMeters": 17758.8,
      "durationMs": 2654501,
      "drivingDurationMs": 2362391,
      "idlingDurationMs": 292110,
      "fuelConsumedMl": 2256,
      "fuelConsumedGallons": 0.596,
      "maxSpeedMph": 71.4,
      "averageSpeedMph": 15.0,
      "safetyEvents": [
        {
          "type": "speeding",
          "startMs": 1741004220000,
          "maxSpeedMph": 71.4
        }
      ]
    },
    {
      "id": "trip_43088084_20250303_004",
      "vehicleId": "43088084",
      "driverId": "20000038",
      "startMs": 1741015800000,
      "endMs": 1741021853279,
      "startAddress": "14582 Martinez Throughway",
      "endAddress": "648 Gabriel Rue",
      "startCoords": {
        "latitude": 40.773235,
        "longitude": -111.886953
      },
      "endCoords": {
        "latitude": 40.668146,
        "longitude": -111.854412
      },
      "distanceMeters": 37013.5,
      "durationMs": 6053279,
      "drivingDurationMs": 4930587,
      "idlingDurationMs": 1122692,
      "fuelConsumedMl": 4705,
      "fuelConsumedGallons": 1.243,
      "maxSpeedMph": 46.5,
      "averageSpeedMph": 13.7,
      "safetyEvents": []
    },
    {
      "id": "trip_43088084_20250303_005",
      "vehicleId": "43088084",
      "driverId": "20000038",
      "startMs": 1740981900000,
      "endMs": 1740994400478,
      "startAddress": "466 Amber Drive Apt. 863",
      "endAddress": "89197 Jackson Harbor Suite 962",
      "startCoords": {
        "latitude": 40.758734,
        "longitude": -111.796939
      },
      "endCoords": {
        "latitude": 40.763408,
        "longitude": -111.873913
      },
      "distanceMeters": 61140.4,
      "durationMs": 12500479,
      "drivingDurationMs": 10352429,
      "idlingDurationMs": 2148049,
      "fuelConsumedMl": 7775,
      "fuelConsumedGallons": 2.054,
      "maxSpeedMph": 65.9,
      "averageSpeedMph": 10.9,
      "safetyEvents": [
        {
          "type": "speeding",
          "startMs": 1740984900000,
          "maxSpeedMph": 65.9
        }
      ]
    },
    {
      "id": "trip_43088084_20250304_001",
      "vehicleId": "43088084",
      "driverId": "20000035",
      "startMs": 1741113120000,
      "endMs": 1741122000000,
      "startAddress": "40082 Lynn Parkway Suite 805",
      "endAddress": "5534 Thomas Course",
      "startCoords": {
        "latitude": 40.700476,
        "longitude": -111.838115
      },
      "endCoords": {
        "latitude": 40.788927,
        "longitude": -111.948658
      },
      "distanceMeters": 67572.1,
      "durationMs": 8880000,
      "drivingDurationMs": 8081696,
      "idlingDurationMs": 798304,
      "fuelConsumedMl": 8593,
      "fuelConsumedGallons": 2.27,
      "maxSpeedMph": 34.4,
      "averageSpeedMph": 17.0,
      "safetyEvents": []
    },
    {
      "id": "trip_43088084_20250304_002",
      "vehicleId": "43088084",
      "driverId": "20000035",
      "startMs": 1741083780000,
      "endMs": 1741087521512,
      "startAddress": "387 Lucas Trail Apt. 806",
      "endAddress": "57072 Steven Spring",
      "startCoords": {
        "latitude": 40.694564,
        "longitude": -111.842388
      },
      "endCoords": {
        "latitude": 40.775139,
        "longitude": -111.825139
      },
      "distanceMeters": 22781.0,
      "durationMs": 3741513,
      "drivingDurationMs": 3245669,
      "idlingDurationMs": 495844,
      "fuelConsumedMl": 2896,
      "fuelConsumedGallons": 0.765,
      "maxSpeedMph": 54.3,
      "averageSpeedMph": 13.6,
      "safetyEvents": []
    },
    {
      "id": "trip_43088084_20250304_003",
      "vehicleId": "43088084",
      "driverId": "20000035",
      "startMs": 1741081260000,
      "endMs": 1741085588885,
      "startAddress": "41070 Benjamin Locks Suite 669",
      "endAddress": "396 Rogers Trail",
      "startCoords": {
        "latitude": 40.717397,
        "longitude": -111.793766
      },
      "endCoords": {
        "latitude": 40.723162,
        "longitude": -111.776022
      },
      "distanceMeters": 23880.0,
      "durationMs": 4328886,
      "drivingDurationMs": 3523768,
      "idlingDurationMs": 805118,
      "fuelConsumedMl": 3036,
      "fuelConsumedGallons": 0.802,
      "maxSpeedMph": 39.7,
      "averageSpeedMph": 12.3,
      "safetyEvents": []
    },
    {
      "id": "trip_43088084_20250305_001",
      "vehicleId": "43088084",
      "driverId": "20000033",
      "startMs": 1741185900000,
      "endMs": 1741189789105,
      "startAddress": "20708 Vanessa Tunnel Suite 408",
      "endAddress": "6138 Anthony Springs Apt. 861",
      "startCoords": {
        "latitude": 40.688094,
        "longitude": -111.816698
      },
      "endCoords": {
        "latitude": 40.686478,
        "longitude": -111.955469
      },
      "distanceMeters": 23712.3,
      "durationMs": 3889106,
      "drivingDurationMs": 3527173,
      "idlingDurationMs": 361933,
      "fuelConsumedMl": 3013,
      "fuelConsumedGallons": 0.796,
      "maxSpeedMph": 28.2,
      "averageSpeedMph": 13.6,
      "safetyEvents": []
    },
    {
      "id": "trip_43088084_20250305_002",
      "vehicleId": "43088084",
      "driverId": "20000033",
      "startMs": 1741166760000,
      "endMs": 1741182297289,
      "startAddress": "54443 Jacqueline Pines Suite 151",
      "endAddress": "4756 James Flat Suite 420",
      "startCoords": {
        "latitude": 40.791243,
        "longitude": -111.898836
      },
      "endCoords": {
        "latitude": 40.732946,
        "longitude": -111.944052
      },
      "distanceMeters": 72767.6,
      "durationMs": 15537290,
      "drivingDurationMs": 13397397,
      "idlingDurationMs": 2139892,
      "fuelConsumedMl": 9252,
      "fuelConsumedGallons": 2.444,
      "maxSpeedMph": 64.3,
      "averageSpeedMph": 10.5,
      "safetyEvents": []
    },
    {
      "id": "trip_43088084_20250306_001",
      "vehicleId": "43088084",
      "driverId": "20000037",
      "startMs": 1741262880000,
      "endMs": 1741276285449,
      "startAddress": "18193 Gina Track Apt. 051",
      "endAddress": "54018 Young Green Apt. 885",
      "startCoords": {
        "latitude": 40.697934,
        "longitude": -111.832399
      },
      "endCoords": {
        "latitude": 40.687921,
        "longitude": -111.90103
      },
      "distanceMeters": 80952.7,
      "durationMs": 13405449,
      "drivingDurationMs": 11117503,
      "idlingDurationMs": 2287947,
      "fuelConsumedMl": 10293,
      "fuelConsumedGallons": 2.719,
      "maxSpeedMph": 32.0,
      "averageSpeedMph": 13.5,
      "safetyEvents": []
    },
    {
      "id": "trip_43088084_20250306_002",
      "vehicleId": "43088084",
      "driverId": "20000037",
      "startMs": 1741249140000,
      "endMs": 1741251161701,
      "startAddress": "88581 Rocha Stravenue",
      "endAddress": "89982 Jenna Road Suite 610",
      "startCoords": {
        "latitude": 40.772482,
        "longitude": -111.954121
      },
      "endCoords": {
        "latitude": 40.771359,
        "longitude": -111.810881
      },
      "distanceMeters": 12399.7,
      "durationMs": 2021701,
      "drivingDurationMs": 1681906,
      "idlingDurationMs": 339795,
      "fuelConsumedMl": 1575,
      "fuelConsumedGallons": 0.416,
      "maxSpeedMph": 28.6,
      "averageSpeedMph": 13.7,
      "safetyEvents": []
    },
    {
      "id": "trip_43088084_20250306_003",
      "vehicleId": "43088084",
      "driverId": "20000037",
      "startMs": 1741262220000,
      "endMs": 1741263698219,
      "startAddress": "7968 Chavez Pike Apt. 044",
      "endAddress": "312 Davis Walks",
      "startCoords": {
        "latitude": 40.795357,
        "longitude": -111.899046
      },
      "endCoords": {
        "latitude": 40.774414,
        "longitude": -111.798014
      },
      "distanceMeters": 9915.0,
      "durationMs": 1478220,
      "drivingDurationMs": 1187298,
      "idlingDurationMs": 290922,
      "fuelConsumedMl": 1261,
      "fuelConsumedGallons": 0.333,
      "maxSpeedMph": 71.9,
      "averageSpeedMph": 15.0,
      "safetyEvents": [
        {
          "type": "speeding",
          "startMs": 1741263180000,
          "maxSpeedMph": 71.9
        }
      ]
    },
    {
      "id": "trip_43088084_20250306_004",
      "vehicleId": "43088084",
      "driverId": "20000037",
      "startMs": 1741255800000,
      "endMs": 1741263792453,
      "startAddress": "1500 Claire Parks",
      "endAddress": "235 Williams Motorway",
      "startCoords": {
        "latitude": 40.763168,
        "longitude": -111.849249
      },
      "endCoords": {
        "latitude": 40.723726,
        "longitude": -111.804107
      },
      "distanceMeters": 54127.8,
      "durationMs": 7992453,
      "drivingDurationMs": 6457136,
      "idlingDurationMs": 1535318,
      "fuelConsumedMl": 6882,
      "fuelConsumedGallons": 1.818,
      "maxSpeedMph": 69.5,
      "averageSpeedMph": 15.1,
      "safetyEvents": [
        {
          "type": "speeding",
          "startMs": 1741258440000,
          "maxSpeedMph": 69.5
        }
      ]
    },
    {
      "id": "trip_43088084_20250306_005",
      "vehicleId": "43088084",
      "driverId": "20000037",
      "startMs": 1741280400000,
      "endMs": 1741284251809,
      "startAddress": "179 Osborne Causeway",
      "endAddress": "038 Adams Shoals Apt. 084",
      "startCoords": {
        "latitude": 40.77518,
        "longitude": -111.900283
      },
      "endCoords": {
        "latitude": 40.749767,
        "longitude": -111.931418
      },
      "distanceMeters": 16806.1,
      "durationMs": 3851809,
      "drivingDurationMs": 3089185,
      "idlingDurationMs": 762624,
      "fuelConsumedMl": 2135,
      "fuelConsumedGallons": 0.564,
      "maxSpeedMph": 62.7,
      "averageSpeedMph": 9.8,
      "safetyEvents": []
    },
    {
      "id": "trip_43088084_20250307_001",
      "vehicleId": "43088084",
      "driverId": "20000037",
      "startMs": 1741336740000,
      "endMs": 1741342441518,
      "startAddress": "24203 Stevens Orchard",
      "endAddress": "5006 Martinez Shoals",
      "startCoords": {
        "latitude": 40.694155,
        "longitude": -111.844963
      },
      "endCoords": {
        "latitude": 40.709036,
        "longitude": -111.900924
      },
      "distanceMeters": 27835.0,
      "durationMs": 5701519,
      "drivingDurationMs": 4848021,
      "idlingDurationMs": 853498,
      "fuelConsumedMl": 3539,
      "fuelConsumedGallons": 0.935,
      "maxSpeedMph": 43.8,
      "averageSpeedMph": 10.9,
      "safetyEvents": []
    },
    {
      "id": "trip_43088084_20250307_002",
      "vehicleId": "43088084",
      "driverId": "20000037",
      "startMs": 1741363440000,
      "endMs": 1741374586830,
      "startAddress": "6687 Michael Gateway Suite 819",
      "endAddress": "39873 Jason Centers Apt. 051",
      "startCoords": {
        "latitude": 40.795579,
        "longitude": -111.852665
      },
      "endCoords": {
        "latitude": 40.664522,
        "longitude": -111.825247
      },
      "distanceMeters": 64523.1,
      "durationMs": 11146831,
      "drivingDurationMs": 9473874,
      "idlingDurationMs": 1672957,
      "fuelConsumedMl": 8203,
      "fuelConsumedGallons": 2.167,
      "maxSpeedMph": 39.3,
      "averageSpeedMph": 12.9,
      "safetyEvents": []
    },
    {
      "id": "trip_43088084_20250307_003",
      "vehicleId": "43088084",
      "driverId": "20000037",
      "startMs": 1741359840000,
      "endMs": 1741361622658,
      "startAddress": "1327 Dorsey Isle",
      "endAddress": "7300 Little Green Apt. 799",
      "startCoords": {
        "latitude": 40.713387,
        "longitude": -111.853814
      },
      "endCoords": {
        "latitude": 40.657713,
        "longitude": -111.940433
      },
      "distanceMeters": 10914.8,
      "durationMs": 1782658,
      "drivingDurationMs": 1484979,
      "idlingDurationMs": 297679,
      "fuelConsumedMl": 1389,
      "fuelConsumedGallons": 0.367,
      "maxSpeedMph": 56.1,
      "averageSpeedMph": 13.7,
      "safetyEvents": []
    },
    {
      "id": "trip_43088084_20250307_004",
      "vehicleId": "43088084",
      "driverId": "20000037",
      "startMs": 1741368900000,
      "endMs": 1741376293942,
      "startAddress": "92711 Graves Fords",
      "endAddress": "3277 Maurice Mountain",
      "startCoords": {
        "latitude": 40.731282,
        "longitude": -111.901668
      },
      "endCoords": {
        "latitude": 40.657622,
        "longitude": -111.906373
      },
      "distanceMeters": 53475.0,
      "durationMs": 7393943,
      "drivingDurationMs": 6186033,
      "idlingDurationMs": 1207909,
      "fuelConsumedMl": 6799,
      "fuelConsumedGallons": 1.796,
      "maxSpeedMph": 28.2,
      "averageSpeedMph": 16.2,
      "safetyEvents": []
    },
    {
      "id": "trip_43088084_20250308_001",
      "vehicleId": "43088084",
      "driverId": "20000037",
      "startMs": 1741431780000,
      "endMs": 1741441886532,
      "startAddress": "291 Mcintyre Squares Apt. 580",
      "endAddress": "1893 Rodney Manor",
      "startCoords": {
        "latitude": 40.737905,
        "longitude": -111.929049
      },
      "endCoords": {
        "latitude": 40.711715,
        "longitude": -111.85524
      },
      "distanceMeters": 66306.3,
      "durationMs": 10106532,
      "drivingDurationMs": 9818792,
      "idlingDurationMs": 287740,
      "fuelConsumedMl": 8430,
      "fuelConsumedGallons": 2.227,
      "maxSpeedMph": 49.7,
      "averageSpeedMph": 14.7,
      "safetyEvents": []
    },
    {
      "id": "trip_43088084_20250308_002",
      "vehicleId": "43088084",
      "driverId": "20000037",
      "startMs": 1741443540000,
      "endMs": 1741445290444,
      "startAddress": "236 Miller Path Suite 717",
      "endAddress": "21386 Lawson Radial Apt. 416",
      "startCoords": {
        "latitude": 40.753682,
        "longitude": -111.789363
      },
      "endCoords": {
        "latitude": 40.781615,
        "longitude": -111.815502
      },
      "distanceMeters": 11153.5,
      "durationMs": 1750445,
      "drivingDurationMs": 1492200,
      "idlingDurationMs": 258244,
      "fuelConsumedMl": 1420,
      "fuelConsumedGallons": 0.375,
      "maxSpeedMph": 65.8,
      "averageSpeedMph": 14.3,
      "safetyEvents": [
        {
          "type": "speeding",
          "startMs": 1741444080000,
          "maxSpeedMph": 65.8
        }
      ]
    },
    {
      "id": "trip_43088084_20250308_003",
      "vehicleId": "43088084",
      "driverId": "20000037",
      "startMs": 1741449240000,
      "endMs": 1741454959907,
      "startAddress": "421 James Rest Suite 225",
      "endAddress": "8613 Miller Ways Apt. 836",
      "startCoords": {
        "latitude": 40.758441,
        "longitude": -111.900612
      },
      "endCoords": {
        "latitude": 40.763255,
        "longitude": -111.918685
      },
      "distanceMeters": 26066.8,
      "durationMs": 5719907,
      "drivingDurationMs": 4919543,
      "idlingDurationMs": 800364,
      "fuelConsumedMl": 3316,
      "fuelConsumedGallons": 0.876,
      "maxSpeedMph": 32.1,
      "averageSpeedMph": 10.2,
      "safetyEvents": []
    },
    {
      "id": "trip_43088084_20250308_004",
      "vehicleId": "43088084",
      "driverId": "20000037",
      "startMs": 1741443300000,
      "endMs": 1741453523432,
      "startAddress": "003 Adam Parks",
      "endAddress": "9824 Wesley Haven Apt. 429",
      "startCoords": {
        "latitude": 40.685665,
        "longitude": -111.87889
      },
      "endCoords": {
        "latitude": 40.659132,
        "longitude": -111.774931
      },
      "distanceMeters": 51190.3,
      "durationMs": 10223432,
      "drivingDurationMs": 8514149,
      "idlingDurationMs": 1709283,
      "fuelConsumedMl": 6507,
      "fuelConsumedGallons": 1.719,
      "maxSpeedMph": 31.2,
      "averageSpeedMph": 11.2,
      "safetyEvents": []
    },
    {
      "id": "trip_43088084_20250309_001",
      "vehicleId": "43088084",
      "driverId": "20000034",
      "startMs": 1741514640000,
      "endMs": 1741526054108,
      "startAddress": "94492 Blake Ways",
      "endAddress": "9046 Nelson Mountains Apt. 418",
      "startCoords": {
        "latitude": 40.723818,
        "longitude": -111.857062
      },
      "endCoords": {
        "latitude": 40.665544,
        "longitude": -111.799542
      },
      "distanceMeters": 72359.4,
      "durationMs": 11414109,
      "drivingDurationMs": 9170901,
      "idlingDurationMs": 2243208,
      "fuelConsumedMl": 9199,
      "fuelConsumedGallons": 2.43,
      "maxSpeedMph": 37.4,
      "averageSpeedMph": 14.2,
      "safetyEvents": []
    },
    {
      "id": "trip_43088084_20250309_002",
      "vehicleId": "43088084",
      "driverId": null,
      "startMs": 1741531680000,
      "endMs": 1741537278532,
      "startAddress": "0535 Sandra Island",
      "endAddress": "7240 Tiffany Ford",
      "startCoords": {
        "latitude": 40.7832,
        "longitude": -111.830464
      },
      "endCoords": {
        "latitude": 40.751517,
        "longitude": -111.800515
      },
      "distanceMeters": 40845.1,
      "durationMs": 5598532,
      "drivingDurationMs": 4672995,
      "idlingDurationMs": 925537,
      "fuelConsumedMl": 5194,
      "fuelConsumedGallons": 1.372,
      "maxSpeedMph": 33.4,
      "averageSpeedMph": 16.3,
      "safetyEvents": []
    },
    {
      "id": "trip_43088084_20250309_003",
      "vehicleId": "43088084",
      "driverId": "20000034",
      "startMs": 1741523520000,
      "endMs": 1741525802482,
      "startAddress": "3277 Neal Key Suite 515",
      "endAddress": "844 Ernest Rest",
      "startCoords": {
        "latitude": 40.792709,
        "longitude": -111.873089
      },
      "endCoords": {
        "latitude": 40.744003,
        "longitude": -111.932642
      },
      "distanceMeters": 15464.4,
      "durationMs": 2282482,
      "drivingDurationMs": 1919152,
      "idlingDurationMs": 363331,
      "fuelConsumedMl": 1965,
      "fuelConsumedGallons": 0.519,
      "maxSpeedMph": 65.8,
      "averageSpeedMph": 15.2,
      "safetyEvents": [
        {
          "type": "speeding",
          "startMs": 1741523640000,
          "maxSpeedMph": 65.8
        }
      ]
    },
    {
      "id": "trip_43088084_20250309_004",
      "vehicleId": "43088084",
      "driverId": "20000034",
      "startMs": 1741542660000,
      "endMs": 1741552688663,
      "startAddress": "00011 Campbell Locks Apt. 256",
      "endAddress": "42371 Thomas Oval Suite 302",
      "startCoords": {
        "latitude": 40.696517,
        "longitude": -111.855797
      },
      "endCoords": {
        "latitude": 40.705535,
        "longitude": -111.942528
      },
      "distanceMeters": 67079.8,
      "durationMs": 10028664,
      "drivingDurationMs": 8865219,
      "idlingDurationMs": 1163445,
      "fuelConsumedMl": 8529,
      "fuelConsumedGallons": 2.253,
      "maxSpeedMph": 68.8,
      "averageSpeedMph": 15.0,
      "safetyEvents": [
        {
          "type": "speeding",
          "startMs": 1741543320000,
          "maxSpeedMph": 68.8
        }
      ]
    },
    {
      "id": "trip_43088084_20250310_001",
      "vehicleId": "43088084",
      "driverId": "20000037",
      "startMs": 1741591500000,
      "endMs": 1741605418138,
      "startAddress": "8065 Amber Plains",
      "endAddress": "8288 Contreras Ford Apt. 848",
      "startCoords": {
        "latitude": 40.700055,
        "longitude": -111.900575
      },
      "endCoords": {
        "latitude": 40.689859,
        "longitude": -111.804456
      },
      "distanceMeters": 83697.3,
      "durationMs": 13918138,
      "drivingDurationMs": 11304982,
      "idlingDurationMs": 2613156,
      "fuelConsumedMl": 10641,
      "fuelConsumedGallons": 2.811,
      "maxSpeedMph": 39.5,
      "averageSpeedMph": 13.5,
      "safetyEvents": []
    },
    {
      "id": "trip_43088084_20250310_002",
      "vehicleId": "43088084",
      "driverId": "20000037",
      "startMs": 1741619280000,
      "endMs": 1741625010123,
      "startAddress": "7702 Denise Spur",
      "endAddress": "798 Kenneth Forest Suite 531",
      "startCoords": {
        "latitude": 40.672516,
        "longitude": -111.823211
      },
      "endCoords": {
        "latitude": 40.697849,
        "longitude": -111.950326
      },
      "distanceMeters": 45200.7,
      "durationMs": 5730123,
      "drivingDurationMs": 5492210,
      "idlingDurationMs": 237913,
      "fuelConsumedMl": 5746,
      "fuelConsumedGallons": 1.518,
      "maxSpeedMph": 61.1,
      "averageSpeedMph": 17.6,
      "safetyEvents": []
    },
    {
      "id": "trip_43088084_20250310_003",
      "vehicleId": "43088084",
      "driverId": "20000037",
      "startMs": 1741619640000,
      "endMs": 1741624752997,
      "startAddress": "128 Danny Trafficway",
      "endAddress": "87078 Jackson Haven",
      "startCoords": {
        "latitude": 40.683453,
        "longitude": -111.9227
      },
      "endCoords": {
        "latitude": 40.77285,
        "longitude": -111.902883
      },
      "distanceMeters": 30258.7,
      "durationMs": 5112997,
      "drivingDurationMs": 4860456,
      "idlingDurationMs": 252541,
      "fuelConsumedMl": 3846,
      "fuelConsumedGallons": 1.016,
      "maxSpeedMph": 71.2,
      "averageSpeedMph": 13.2,
      "safetyEvents": [
        {
          "type": "speeding",
          "startMs": 1741623540000,
          "maxSpeedMph": 71.2
        }
      ]
    },
    {
      "id": "trip_43088084_20250310_004",
      "vehicleId": "43088084",
      "driverId": "20000037",
      "startMs": 1741625400000,
      "endMs": 1741638501600,
      "startAddress": "790 John Passage Apt. 906",
      "endAddress": "436 Austin Estate",
      "startCoords": {
        "latitude": 40.724451,
        "longitude": -111.788197
      },
      "endCoords": {
        "latitude": 40.782076,
        "longitude": -111.841518
      },
      "distanceMeters": 72324.6,
      "durationMs": 13101600,
      "drivingDurationMs": 10697525,
      "idlingDurationMs": 2404076,
      "fuelConsumedMl": 9195,
      "fuelConsumedGallons": 2.429,
      "maxSpeedMph": 66.2,
      "averageSpeedMph": 12.3,
      "safetyEvents": [
        {
          "type": "speeding",
          "startMs": 1741632240000,
          "maxSpeedMph": 66.2
        }
      ]
    },
    {
      "id": "trip_43088084_20250310_005",
      "vehicleId": "43088084",
      "driverId": "20000037",
      "startMs": 1741628820000,
      "endMs": 1741640400000,
      "startAddress": "4155 Johnson Pine",
      "endAddress": "69718 Bautista Rest Apt. 825",
      "startCoords": {
        "latitude": 40.670517,
        "longitude": -111.883529
      },
      "endCoords": {
        "latitude": 40.736801,
        "longitude": -111.796068
      },
      "distanceMeters": 46567.9,
      "durationMs": 11580000,
      "drivingDurationMs": 9264000,
      "idlingDurationMs": 2316000,
      "fuelConsumedMl": 5920,
      "fuelConsumedGallons": 1.564,
      "maxSpeedMph": 51.6,
      "averageSpeedMph": 9.0,
      "safetyEvents": []
    },
    {
      "id": "trip_43088084_20250310_006",
      "vehicleId": "43088084",
      "driverId": "20000037",
      "startMs": 1741618680000,
      "endMs": 1741634995820,
      "startAddress": "61368 Anthony Mountains Suite 031",
      "endAddress": "032 Adam Ways",
      "startCoords": {
        "latitude": 40.725098,
        "longitude": -111.918165
      },
      "endCoords": {
        "latitude": 40.765692,
        "longitude": -111.896835
      },
      "distanceMeters": 73550.0,
      "durationMs": 16315821,
      "drivingDurationMs": 13902288,
      "idlingDurationMs": 2413533,
      "fuelConsumedMl": 9350,
      "fuelConsumedGallons": 2.47,
      "maxSpeedMph": 40.7,
      "averageSpeedMph": 10.1,
      "safetyEvents": []
    },
    {
      "id": "trip_43088084_20250311_001",
      "vehicleId": "43088084",
      "driverId": "20000036",
      "startMs": 1741694460000,
      "endMs": 1741706624685,
      "startAddress": "75782 Smith Shores Suite 344",
      "endAddress": "87818 Lutz Estates Apt. 326",
      "startCoords": {
        "latitude": 40.731191,
        "longitude": -111.8275
      },
      "endCoords": {
        "latitude": 40.741206,
        "longitude": -111.94947
      },
      "distanceMeters": 83833.7,
      "durationMs": 12164685,
      "drivingDurationMs": 11337081,
      "idlingDurationMs": 827604,
      "fuelConsumedMl": 10660,
      "fuelConsumedGallons": 2.816,
      "maxSpeedMph": 41.3,
      "averageSpeedMph": 15.4,
      "safetyEvents": []
    },
    {
      "id": "trip_43088084_20250311_002",
      "vehicleId": "43088084",
      "driverId": "20000036",
      "startMs": 1741686600000,
      "endMs": 1741691712065,
      "startAddress": "491 Christopher Forge",
      "endAddress": "07089 Montgomery Greens Apt. 539",
      "startCoords": {
        "latitude": 40.664786,
        "longitude": -111.884025
      },
      "endCoords": {
        "latitude": 40.742435,
        "longitude": -111.872692
      },
      "distanceMeters": 34343.7,
      "durationMs": 5112066,
      "drivingDurationMs": 4169355,
      "idlingDurationMs": 942710,
      "fuelConsumedMl": 4368,
      "fuelConsumedGallons": 1.154,
      "maxSpeedMph": 53.0,
      "averageSpeedMph": 15.0,
      "safetyEvents": []
    },
    {
      "id": "trip_43088084_20250311_003",
      "vehicleId": "43088084",
      "driverId": null,
      "startMs": 1741679160000,
      "endMs": 1741687446353,
      "startAddress": "976 Karen Locks Suite 481",
      "endAddress": "691 Daniel Parkway Apt. 076",
      "startCoords": {
        "latitude": 40.663692,
        "longitude": -111.815467
      },
      "endCoords": {
        "latitude": 40.726938,
        "longitude": -111.95351
      },
      "distanceMeters": 58047.5,
      "durationMs": 8286353,
      "drivingDurationMs": 7231578,
      "idlingDurationMs": 1054775,
      "fuelConsumedMl": 7382,
      "fuelConsumedGallons": 1.95,
      "maxSpeedMph": 56.3,
      "averageSpeedMph": 15.7,
      "safetyEvents": []
    },
    {
      "id": "trip_43088084_20250311_004",
      "vehicleId": "43088084",
      "driverId": "20000036",
      "startMs": 1741687200000,
      "endMs": 1741688496716,
      "startAddress": "9694 Sarah Loop Apt. 528",
      "endAddress": "505 Kelley Terrace",
      "startCoords": {
        "latitude": 40.708342,
        "longitude": -111.799838
      },
      "endCoords": {
        "latitude": 40.710631,
        "longitude": -111.939028
      },
      "distanceMeters": 8676.1,
      "durationMs": 1296717,
      "drivingDurationMs": 1064189,
      "idlingDurationMs": 232528,
      "fuelConsumedMl": 1102,
      "fuelConsumedGallons": 0.291,
      "maxSpeedMph": 46.4,
      "averageSpeedMph": 15.0,
      "safetyEvents": []
    },
    {
      "id": "trip_43088084_20250311_005",
      "vehicleId": "43088084",
      "driverId": "20000036",
      "startMs": 1741687200000,
      "endMs": 1741694250146,
      "startAddress": "2104 Ross Park",
      "endAddress": "6973 Monroe Courts Suite 637",
      "startCoords": {
        "latitude": 40.707224,
        "longitude": -111.857254
      },
      "endCoords": {
        "latitude": 40.667031,
        "longitude": -111.869034
      },
      "distanceMeters": 59661.2,
      "durationMs": 7050146,
      "drivingDurationMs": 6733277,
      "idlingDurationMs": 316869,
      "fuelConsumedMl": 7586,
      "fuelConsumedGallons": 2.004,
      "maxSpeedMph": 44.3,
      "averageSpeedMph": 18.9,
      "safetyEvents": []
    },
    {
      "id": "trip_43088084_20250311_006",
      "vehicleId": "43088084",
      "driverId": "20000036",
      "startMs": 1741710780000,
      "endMs": 1741717826944,
      "startAddress": "9125 Melissa Knoll",
      "endAddress": "0181 David Alley Apt. 130",
      "startCoords": {
        "latitude": 40.772172,
        "longitude": -111.881532
      },
      "endCoords": {
        "latitude": 40.730687,
        "longitude": -111.801728
      },
      "distanceMeters": 32717.2,
      "durationMs": 7046944,
      "drivingDurationMs": 6162449,
      "idlingDurationMs": 884495,
      "fuelConsumedMl": 4160,
      "fuelConsumedGallons": 1.099,
      "maxSpeedMph": 31.0,
      "averageSpeedMph": 10.4,
      "safetyEvents": []
    },
    {
      "id": "trip_43088084_20250312_001",
      "vehicleId": "43088084",
      "driverId": "20000038",
      "startMs": 1741780380000,
      "endMs": 1741789555700,
      "startAddress": "925 Annette Lodge",
      "endAddress": "510 Smith Motorway",
      "startCoords": {
        "latitude": 40.795697,
        "longitude": -111.838371
      },
      "endCoords": {
        "latitude": 40.79504,
        "longitude": -111.800522
      },
      "distanceMeters": 64389.9,
      "durationMs": 9175701,
      "drivingDurationMs": 7725617,
      "idlingDurationMs": 1450084,
      "fuelConsumedMl": 8188,
      "fuelConsumedGallons": 2.163,
      "maxSpeedMph": 32.5,
      "averageSpeedMph": 15.7,
      "safetyEvents": []
    },
    {
      "id": "trip_43088084_20250312_002",
      "vehicleId": "43088084",
      "driverId": "20000038",
      "startMs": 1741796700000,
      "endMs": 1741807427595,
      "startAddress": "7553 West Inlet Apt. 869",
      "endAddress": "0752 Vega Turnpike Apt. 032",
      "startCoords": {
        "latitude": 40.748525,
        "longitude": -111.913374
      },
      "endCoords": {
        "latitude": 40.73671,
        "longitude": -111.788454
      },
      "distanceMeters": 66643.5,
      "durationMs": 10727595,
      "drivingDurationMs": 10510370,
      "idlingDurationMs": 217225,
      "fuelConsumedMl": 8472,
      "fuelConsumedGallons": 2.238,
      "maxSpeedMph": 64.6,
      "averageSpeedMph": 13.9,
      "safetyEvents": []
    },
    {
      "id": "trip_43088084_20250312_003",
      "vehicleId": "43088084",
      "driverId": "20000038",
      "startMs": 1741792140000,
      "endMs": 1741802231556,
      "startAddress": "92448 Salazar Gateway",
      "endAddress": "1668 Mendoza Route Apt. 943",
      "startCoords": {
        "latitude": 40.799075,
        "longitude": -111.961797
      },
      "endCoords": {
        "latitude": 40.763637,
        "longitude": -111.800689
      },
      "distanceMeters": 47908.0,
      "durationMs": 10091556,
      "drivingDurationMs": 9531196,
      "idlingDurationMs": 560360,
      "fuelConsumedMl": 6091,
      "fuelConsumedGallons": 1.609,
      "maxSpeedMph": 63.8,
      "averageSpeedMph": 10.6,
      "safetyEvents": []
    },
    {
      "id": "trip_43088084_20250312_004",
      "vehicleId": "43088084",
      "driverId": "20000038",
      "startMs": 1741768020000,
      "endMs": 1741778293232,
      "startAddress": "415 Jacob Creek",
      "endAddress": "802 Perry Curve",
      "startCoords": {
        "latitude": 40.707894,
        "longitude": -111.943849
      },
      "endCoords": {
        "latitude": 40.781649,
        "longitude": -111.908741
      },
      "distanceMeters": 74402.6,
      "durationMs": 10273233,
      "drivingDurationMs": 8454168,
      "idlingDurationMs": 1819064,
      "fuelConsumedMl": 9460,
      "fuelConsumedGallons": 2.499,
      "maxSpeedMph": 58.4,
      "averageSpeedMph": 16.2,
      "safetyEvents": []
    },
    {
      "id": "trip_43088084_20250312_005",
      "vehicleId": "43088084",
      "driverId": "20000038",
      "startMs": 1741799820000,
      "endMs": 1741806463840,
      "startAddress": "8132 Danielle Rest Apt. 549",
      "endAddress": "948 Veronica Ford",
      "startCoords": {
        "latitude": 40.795931,
        "longitude": -111.915109
      },
      "endCoords": {
        "latitude": 40.674118,
        "longitude": -111.831738
      },
      "distanceMeters": 54719.1,
      "durationMs": 6643841,
      "drivingDurationMs": 6208088,
      "idlingDurationMs": 435753,
      "fuelConsumedMl": 6958,
      "fuelConsumedGallons": 1.838,
      "maxSpeedMph": 70.0,
      "averageSpeedMph": 18.4,
      "safetyEvents": [
        {
          "type": "speeding",
          "startMs": 1741802040000,
          "maxSpeedMph": 70.0
        }
      ]
    },
    {
      "id": "trip_43088084_20250313_001",
      "vehicleId": "43088084",
      "driverId": "20000035",
      "startMs": 1741860240000,
      "endMs": 1741861929066,
      "startAddress": "7020 Lewis Radial Apt. 600",
      "endAddress": "31876 Phelps Tunnel",
      "startCoords": {
        "latitude": 40.663915,
        "longitude": -111.787279
      },
      "endCoords": {
        "latitude": 40.724558,
        "longitude": -111.879512
      },
      "distanceMeters": 12132.1,
      "durationMs": 1689066,
      "drivingDurationMs": 1395221,
      "idlingDurationMs": 293845,
      "fuelConsumedMl": 1541,
      "fuelConsumedGallons": 0.407,
      "maxSpeedMph": 53.6,
      "averageSpeedMph": 16.1,
      "safetyEvents": []
    },
    {
      "id": "trip_43088084_20250313_002",
      "vehicleId": "43088084",
      "driverId": "20000035",
      "startMs": 1741886940000,
      "endMs": 1741887877322,
      "startAddress": "5325 Donald Wall",
      "endAddress": "009 Scott Fords",
      "startCoords": {
        "latitude": 40.771176,
        "longitude": -111.798031
      },
      "endCoords": {
        "latitude": 40.794406,
        "longitude": -111.838142
      },
      "distanceMeters": 6622.5,
      "durationMs": 937323,
      "drivingDurationMs": 755334,
      "idlingDurationMs": 181989,
      "fuelConsumedMl": 840,
      "fuelConsumedGallons": 0.222,
      "maxSpeedMph": 58.3,
      "averageSpeedMph": 15.8,
      "safetyEvents": []
    },
    {
      "id": "trip_43088084_20250313_003",
      "vehicleId": "43088084",
      "driverId": "20000035",
      "startMs": 1741881840000,
      "endMs": 1741885802589,
      "startAddress": "7885 Tara Parkway Apt. 931",
      "endAddress": "294 Debbie Club Suite 973",
      "startCoords": {
        "latitude": 40.742146,
        "longitude": -111.787524
      },
      "endCoords": {
        "latitude": 40.735322,
        "longitude": -111.8899
      },
      "distanceMeters": 20213.6,
      "durationMs": 3962590,
      "drivingDurationMs": 3198750,
      "idlingDurationMs": 763840,
      "fuelConsumedMl": 2570,
      "fuelConsumedGallons": 0.679,
      "maxSpeedMph": 71.3,
      "averageSpeedMph": 11.4,
      "safetyEvents": [
        {
          "type": "speeding",
          "startMs": 1741884360000,
          "maxSpeedMph": 71.3
        }
      ]
    },
    {
      "id": "trip_43088084_20250314_001",
      "vehicleId": "43088084",
      "driverId": null,
      "startMs": 1741965600000,
      "endMs": 1741969284384,
      "startAddress": "76981 Smith Hills Suite 689",
      "endAddress": "50827 Jeffrey Pike Apt. 023",
      "startCoords": {
        "latitude": 40.717665,
        "longitude": -111.818403
      },
      "endCoords": {
        "latitude": 40.731972,
        "longitude": -111.879553
      },
      "distanceMeters": 22662.1,
      "durationMs": 3684384,
      "drivingDurationMs": 3011563,
      "idlingDurationMs": 672821,
      "fuelConsumedMl": 2881,
      "fuelConsumedGallons": 0.761,
      "maxSpeedMph": 28.8,
      "averageSpeedMph": 13.8,
      "safetyEvents": []
    },
    {
      "id": "trip_43088084_20250314_002",
      "vehicleId": "43088084",
      "driverId": "20000039",
      "startMs": 1741939140000,
      "endMs": 1741941918539,
      "startAddress": "024 Key Turnpike",
      "endAddress": "359 Hayes Pines Suite 682",
      "startCoords": {
        "latitude": 40.716638,
        "longitude": -111.779606
      },
      "endCoords": {
        "latitude": 40.694052,
        "longitude": -111.880784
      },
      "distanceMeters": 14098.2,
      "durationMs": 2778540,
      "drivingDurationMs": 2550096,
      "idlingDurationMs": 228443,
      "fuelConsumedMl": 1794,
      "fuelConsumedGallons": 0.474,
      "maxSpeedMph": 30.2,
      "averageSpeedMph": 11.4,
      "safetyEvents": []
    },
    {
      "id": "trip_43088084_20250314_003",
      "vehicleId": "43088084",
      "driverId": "20000039",
      "startMs": 1741978140000,
      "endMs": 1741979220909,
      "startAddress": "184 Thomas Park",
      "endAddress": "724 Banks Views Apt. 806",
      "startCoords": {
        "latitude": 40.716208,
        "longitude": -111.961711
      },
      "endCoords": {
        "latitude": 40.781573,
        "longitude": -111.82563
      },
      "distanceMeters": 6641.7,
      "durationMs": 1080909,
      "drivingDurationMs": 898964,
      "idlingDurationMs": 181945,
      "fuelConsumedMl": 844,
      "fuelConsumedGallons": 0.223,
      "maxSpeedMph": 59.7,
      "averageSpeedMph": 13.7,
      "safetyEvents": []
    },
    {
      "id": "trip_43088084_20250314_004",
      "vehicleId": "43088084",
      "driverId": "20000039",
      "startMs": 1741956060000,
      "endMs": 1741962914661,
      "startAddress": "39516 Mullen Lakes Apt. 905",
      "endAddress": "405 Brown Station",
      "startCoords": {
        "latitude": 40.693327,
        "longitude": -111.799191
      },
      "endCoords": {
        "latitude": 40.728747,
        "longitude": -111.797243
      },
      "distanceMeters": 45294.0,
      "durationMs": 6854661,
      "drivingDurationMs": 5794198,
      "idlingDurationMs": 1060464,
      "fuelConsumedMl": 5758,
      "fuelConsumedGallons": 1.521,
      "maxSpeedMph": 69.4,
      "averageSpeedMph": 14.8,
      "safetyEvents": [
        {
          "type": "speeding",
          "startMs": 1741960080000,
          "maxSpeedMph": 69.4
        }
      ]
    },
    {
      "id": "trip_43088084_20250314_005",
      "vehicleId": "43088084",
      "driverId": "20000039",
      "startMs": 1741941480000,
      "endMs": 1741948390715,
      "startAddress": "4583 Bowers Prairie Apt. 586",
      "endAddress": "8187 Marsh Mission Apt. 711",
      "startCoords": {
        "latitude": 40.663074,
        "longitude": -111.844716
      },
      "endCoords": {
        "latitude": 40.687075,
        "longitude": -111.932043
      },
      "distanceMeters": 37770.3,
      "durationMs": 6910715,
      "drivingDurationMs": 5569007,
      "idlingDurationMs": 1341708,
      "fuelConsumedMl": 4804,
      "fuelConsumedGallons": 1.269,
      "maxSpeedMph": 50.9,
      "averageSpeedMph": 12.2,
      "safetyEvents": []
    },
    {
      "id": "trip_43088084_20250315_001",
      "vehicleId": "43088084",
      "driverId": "20000035",
      "startMs": 1742051940000,
      "endMs": 1742056272009,
      "startAddress": "79345 Denise Circle Suite 752",
      "endAddress": "26373 Powell Fields Apt. 169",
      "startCoords": {
        "latitude": 40.701566,
        "longitude": -111.95159
      },
      "endCoords": {
        "latitude": 40.797783,
        "longitude": -111.791678
      },
      "distanceMeters": 21122.3,
      "durationMs": 4332009,
      "drivingDurationMs": 4122637,
      "idlingDurationMs": 209373,
      "fuelConsumedMl": 2684,
      "fuelConsumedGallons": 0.709,
      "maxSpeedMph": 28.8,
      "averageSpeedMph": 10.9,
      "safetyEvents": []
    },
    {
      "id": "trip_43088084_20250315_002",
      "vehicleId": "43088084",
      "driverId": "20000035",
      "startMs": 1742028720000,
      "endMs": 1742036485542,
      "startAddress": "36840 Jeffrey Spur",
      "endAddress": "8764 Rice Glens",
      "startCoords": {
        "latitude": 40.656197,
        "longitude": -111.857221
      },
      "endCoords": {
        "latitude": 40.684395,
        "longitude": -111.902802
      },
      "distanceMeters": 49092.2,
      "durationMs": 7765542,
      "drivingDurationMs": 6573404,
      "idlingDurationMs": 1192138,
      "fuelConsumedMl": 6242,
      "fuelConsumedGallons": 1.649,
      "maxSpeedMph": 39.6,
      "averageSpeedMph": 14.1,
      "safetyEvents": []
    },
    {
      "id": "trip_43088084_20250315_003",
      "vehicleId": "43088084",
      "driverId": null,
      "startMs": 1742043780000,
      "endMs": 1742054760202,
      "startAddress": "32987 Cheyenne Hill",
      "endAddress": "643 Mark Burg Apt. 454",
      "startCoords": {
        "latitude": 40.774121,
        "longitude": -111.834386
      },
      "endCoords": {
        "latitude": 40.740373,
        "longitude": -111.835014
      },
      "distanceMeters": 75268.2,
      "durationMs": 10980203,
      "drivingDurationMs": 8792154,
      "idlingDurationMs": 2188049,
      "fuelConsumedMl": 9570,
      "fuelConsumedGallons": 2.528,
      "maxSpeedMph": 35.6,
      "averageSpeedMph": 15.3,
      "safetyEvents": []
    },
    {
      "id": "trip_43088084_20250315_004",
      "vehicleId": "43088084",
      "driverId": "20000035",
      "startMs": 1742050200000,
      "endMs": 1742060807610,
      "startAddress": "51337 Perez Row Suite 942",
      "endAddress": "0892 Stevens Pine Suite 809",
      "startCoords": {
        "latitude": 40.795287,
        "longitude": -111.912345
      },
      "endCoords": {
        "latitude": 40.770522,
        "longitude": -111.845141
      },
      "distanceMeters": 55310.2,
      "durationMs": 10607611,
      "drivingDurationMs": 8641898,
      "idlingDurationMs": 1965713,
      "fuelConsumedMl": 7033,
      "fuelConsumedGallons": 1.858,
      "maxSpeedMph": 32.2,
      "averageSpeedMph": 11.7,
      "safetyEvents": []
    },
    {
      "id": "trip_43088084_20250316_001",
      "vehicleId": "43088084",
      "driverId": "20000037",
      "startMs": 1742138820000,
      "endMs": 1742141177395,
      "startAddress": "48212 Li Pike Apt. 722",
      "endAddress": "9668 Bradley Expressway",
      "startCoords": {
        "latitude": 40.738685,
        "longitude": -111.811915
      },
      "endCoords": {
        "latitude": 40.784677,
        "longitude": -111.908593
      },
      "distanceMeters": 14743.4,
      "durationMs": 2357396,
      "drivingDurationMs": 1939320,
      "idlingDurationMs": 418076,
      "fuelConsumedMl": 1874,
      "fuelConsumedGallons": 0.495,
      "maxSpeedMph": 37.0,
      "averageSpeedMph": 14.0,
      "safetyEvents": []
    },
    {
      "id": "trip_43088084_20250316_002",
      "vehicleId": "43088084",
      "driverId": null,
      "startMs": 1742116980000,
      "endMs": 1742119978241,
      "startAddress": "177 Lewis Lake Apt. 938",
      "endAddress": "18275 Lane Drive",
      "startCoords": {
        "latitude": 40.770797,
        "longitude": -111.915029
      },
      "endCoords": {
        "latitude": 40.671564,
        "longitude": -111.866542
      },
      "distanceMeters": 16168.1,
      "durationMs": 2998241,
      "drivingDurationMs": 2499410,
      "idlingDurationMs": 498831,
      "fuelConsumedMl": 2055,
      "fuelConsumedGallons": 0.543,
      "maxSpeedMph": 63.8,
      "averageSpeedMph": 12.1,
      "safetyEvents": []
    },
    {
      "id": "trip_43088084_20250316_003",
      "vehicleId": "43088084",
      "driverId": "20000037",
      "startMs": 1742110560000,
      "endMs": 1742124779571,
      "startAddress": "925 Lopez Neck Suite 425",
      "endAddress": "8363 Amanda Camp Suite 071",
      "startCoords": {
        "latitude": 40.752073,
        "longitude": -111.862463
      },
      "endCoords": {
        "latitude": 40.728347,
        "longitude": -111.930046
      },
      "distanceMeters": 60173.2,
      "durationMs": 14219571,
      "drivingDurationMs": 11877957,
      "idlingDurationMs": 2341614,
      "fuelConsumedMl": 7650,
      "fuelConsumedGallons": 2.021,
      "maxSpeedMph": 47.9,
      "averageSpeedMph": 9.5,
      "safetyEvents": []
    },
    {
      "id": "trip_43088084_20250317_001",
      "vehicleId": "43088084",
      "driverId": "20000033",
      "startMs": 1742218980000,
      "endMs": 1742229905452,
      "startAddress": "742 Scott Shores Suite 555",
      "endAddress": "94146 Solis Street Suite 413",
      "startCoords": {
        "latitude": 40.768612,
        "longitude": -111.902872
      },
      "endCoords": {
        "latitude": 40.735164,
        "longitude": -111.831069
      },
      "distanceMeters": 65733.6,
      "durationMs": 10925453,
      "drivingDurationMs": 9002610,
      "idlingDurationMs": 1922842,
      "fuelConsumedMl": 8358,
      "fuelConsumedGallons": 2.208,
      "maxSpeedMph": 38.4,
      "averageSpeedMph": 13.5,
      "safetyEvents": []
    },
    {
      "id": "trip_43088084_20250317_002",
      "vehicleId": "43088084",
      "driverId": "20000033",
      "startMs": 1742193180000,
      "endMs": 1742196244424,
      "startAddress": "536 Michelle Mill",
      "endAddress": "3198 Mckay Roads Apt. 472",
      "startCoords": {
        "latitude": 40.780007,
        "longitude": -111.86781
      },
      "endCoords": {
        "latitude": 40.663642,
        "longitude": -111.854847
      },
      "distanceMeters": 15091.0,
      "durationMs": 3064425,
      "drivingDurationMs": 2806420,
      "idlingDurationMs": 258005,
      "fuelConsumedMl": 1919,
      "fuelConsumedGallons": 0.507,
      "maxSpeedMph": 33.3,
      "averageSpeedMph": 11.0,
      "safetyEvents": []
    },
    {
      "id": "trip_43088084_20250317_003",
      "vehicleId": "43088084",
      "driverId": "20000033",
      "startMs": 1742237340000,
      "endMs": 1742245200000,
      "startAddress": "428 Sharon Valley",
      "endAddress": "994 Wheeler Island Apt. 148",
      "startCoords": {
        "latitude": 40.714798,
        "longitude": -111.790103
      },
      "endCoords": {
        "latitude": 40.777604,
        "longitude": -111.829267
      },
      "distanceMeters": 32395.0,
      "durationMs": 7860000,
      "drivingDurationMs": 6288000,
      "idlingDurationMs": 1572000,
      "fuelConsumedMl": 4119,
      "fuelConsumedGallons": 1.088,
      "maxSpeedMph": 71.4,
      "averageSpeedMph": 9.2,
      "safetyEvents": [
        {
          "type": "speeding",
          "startMs": 1742238180000,
          "maxSpeedMph": 71.4
        }
      ]
    },
    {
      "id": "trip_43088084_20250317_004",
      "vehicleId": "43088084",
      "driverId": "20000033",
      "startMs": 1742223060000,
      "endMs": 1742234123690,
      "startAddress": "319 Mason Shore Suite 773",
      "endAddress": "431 Cortez Pass",
      "startCoords": {
        "latitude": 40.78964,
        "longitude": -111.838327
      },
      "endCoords": {
        "latitude": 40.668607,
        "longitude": -111.957711
      },
      "distanceMeters": 67582.9,
      "durationMs": 11063690,
      "drivingDurationMs": 9145355,
      "idlingDurationMs": 1918336,
      "fuelConsumedMl": 8593,
      "fuelConsumedGallons": 2.27,
      "maxSpeedMph": 28.9,
      "averageSpeedMph": 13.7,
      "safetyEvents": []
    },
    {
      "id": "trip_43088084_20250317_005",
      "vehicleId": "43088084",
      "driverId": "20000033",
      "startMs": 1742198280000,
      "endMs": 1742199954151,
      "startAddress": "2525 Christine Fords Apt. 751",
      "endAddress": "3212 Kelly Plain",
      "startCoords": {
        "latitude": 40.771284,
        "longitude": -111.786376
      },
      "endCoords": {
        "latitude": 40.765117,
        "longitude": -111.80756
      },
      "distanceMeters": 8492.3,
      "durationMs": 1674152,
      "drivingDurationMs": 1362269,
      "idlingDurationMs": 311883,
      "fuelConsumedMl": 1079,
      "fuelConsumedGallons": 0.285,
      "maxSpeedMph": 32.3,
      "averageSpeedMph": 11.3,
      "safetyEvents": []
    },
    {
      "id": "trip_43088084_20250318_001",
      "vehicleId": "43088084",
      "driverId": "20000038",
      "startMs": 1742278440000,
      "endMs": 1742283731776,
      "startAddress": "144 Smith Mountain",
      "endAddress": "2071 Zoe Mills",
      "startCoords": {
        "latitude": 40.779608,
        "longitude": -111.873029
      },
      "endCoords": {
        "latitude": 40.699126,
        "longitude": -111.920956
      },
      "distanceMeters": 24677.0,
      "durationMs": 5291777,
      "drivingDurationMs": 4776951,
      "idlingDurationMs": 514826,
      "fuelConsumedMl": 3138,
      "fuelConsumedGallons": 0.829,
      "maxSpeedMph": 68.9,
      "averageSpeedMph": 10.4,
      "safetyEvents": [
        {
          "type": "speeding",
          "startMs": 1742281440000,
          "maxSpeedMph": 68.9
        }
      ]
    },
    {
      "id": "trip_43088084_20250318_002",
      "vehicleId": "43088084",
      "driverId": "20000038",
      "startMs": 1742279880000,
      "endMs": 1742285160983,
      "startAddress": "895 Rivera Shore",
      "endAddress": "637 Kaitlyn Springs Suite 925",
      "startCoords": {
        "latitude": 40.703168,
        "longitude": -111.935941
      },
      "endCoords": {
        "latitude": 40.757107,
        "longitude": -111.863188
      },
      "distanceMeters": 40370.3,
      "durationMs": 5280984,
      "drivingDurationMs": 4664693,
      "idlingDurationMs": 616290,
      "fuelConsumedMl": 5133,
      "fuelConsumedGallons": 1.356,
      "maxSpeedMph": 71.7,
      "averageSpeedMph": 17.1,
      "safetyEvents": [
        {
          "type": "speeding",
          "startMs": 1742280060000,
          "maxSpeedMph": 71.7
        }
      ]
    },
    {
      "id": "trip_43088084_20250318_003",
      "vehicleId": "43088084",
      "driverId": "20000038",
      "startMs": 1742294580000,
      "endMs": 1742298185695,
      "startAddress": "9108 Stephanie Roads Apt. 703",
      "endAddress": "887 Moran Views",
      "startCoords": {
        "latitude": 40.734756,
        "longitude": -111.940333
      },
      "endCoords": {
        "latitude": 40.691806,
        "longitude": -111.918701
      },
      "distanceMeters": 24037.4,
      "durationMs": 3605695,
      "drivingDurationMs": 3131949,
      "idlingDurationMs": 473746,
      "fuelConsumedMl": 3055,
      "fuelConsumedGallons": 0.807,
      "maxSpeedMph": 65.8,
      "averageSpeedMph": 14.9,
      "safetyEvents": [
        {
          "type": "speeding",
          "startMs": 1742298060000,
          "maxSpeedMph": 65.8
        }
      ]
    },
    {
      "id": "trip_43088084_20250318_004",
      "vehicleId": "43088084",
      "driverId": "20000038",
      "startMs": 1742318400000,
      "endMs": 1742326786993,
      "startAddress": "692 Harris Throughway",
      "endAddress": "70690 Miller Manor Apt. 159",
      "startCoords": {
        "latitude": 40.678415,
        "longitude": -111.803678
      },
      "endCoords": {
        "latitude": 40.72856,
        "longitude": -111.869503
      },
      "distanceMeters": 58561.9,
      "durationMs": 8386993,
      "drivingDurationMs": 8064410,
      "idlingDurationMs": 322584,
      "fuelConsumedMl": 7446,
      "fuelConsumedGallons": 1.967,
      "maxSpeedMph": 60.0,
      "averageSpeedMph": 15.6,
      "safetyEvents": []
    },
    {
      "id": "trip_43088084_20250318_005",
      "vehicleId": "43088084",
      "driverId": "20000038",
      "startMs": 1742313600000,
      "endMs": 1742315850456,
      "startAddress": "6357 Graham Views",
      "endAddress": "141 Kendra Manor",
      "startCoords": {
        "latitude": 40.692211,
        "longitude": -111.933503
      },
      "endCoords": {
        "latitude": 40.774923,
        "longitude": -111.782227
      },
      "distanceMeters": 14142.7,
      "durationMs": 2250456,
      "drivingDurationMs": 1960940,
      "idlingDurationMs": 289517,
      "fuelConsumedMl": 1798,
      "fuelConsumedGallons": 0.475,
      "maxSpeedMph": 67.5,
      "averageSpeedMph": 14.1,
      "safetyEvents": [
        {
          "type": "speeding",
          "startMs": 1742314620000,
          "maxSpeedMph": 67.5
        }
      ]
    },
    {
      "id": "trip_43088084_20250318_006",
      "vehicleId": "43088084",
      "driverId": "20000038",
      "startMs": 1742279400000,
      "endMs": 1742291305042,
      "startAddress": "22403 Park Rapid",
      "endAddress": "94556 Robert Row",
      "startCoords": {
        "latitude": 40.755826,
        "longitude": -111.916209
      },
      "endCoords": {
        "latitude": 40.662514,
        "longitude": -111.855131
      },
      "distanceMeters": 53162.3,
      "durationMs": 11905042,
      "drivingDurationMs": 9909548,
      "idlingDurationMs": 1995494,
      "fuelConsumedMl": 6761,
      "fuelConsumedGallons": 1.786,
      "maxSpeedMph": 50.3,
      "averageSpeedMph": 10.0,
      "safetyEvents": []
    },
    {
      "id": "trip_43088084_20250319_001",
      "vehicleId": "43088084",
      "driverId": "20000033",
      "startMs": 1742391540000,
      "endMs": 1742394251322,
      "startAddress": "90888 David Villages Suite 132",
      "endAddress": "8886 Alexander Cape",
      "startCoords": {
        "latitude": 40.685378,
        "longitude": -111.807906
      },
      "endCoords": {
        "latitude": 40.752725,
        "longitude": -111.835142
      },
      "distanceMeters": 13058.1,
      "durationMs": 2711323,
      "drivingDurationMs": 2348796,
      "idlingDurationMs": 362527,
      "fuelConsumedMl": 1662,
      "fuelConsumedGallons": 0.439,
      "maxSpeedMph": 68.0,
      "averageSpeedMph": 10.8,
      "safetyEvents": [
        {
          "type": "speeding",
          "startMs": 1742393580000,
          "maxSpeedMph": 68.0
        }
      ]
    },
    {
      "id": "trip_43088084_20250319_002",
      "vehicleId": "43088084",
      "driverId": null,
      "startMs": 1742402160000,
      "endMs": 1742410205008,
      "startAddress": "1102 Lucas Island Suite 144",
      "endAddress": "172 Rodriguez Stream",
      "startCoords": {
        "latitude": 40.726071,
        "longitude": -111.794584
      },
      "endCoords": {
        "latitude": 40.664889,
        "longitude": -111.775912
      },
      "distanceMeters": 49567.1,
      "durationMs": 8045009,
      "drivingDurationMs": 7481153,
      "idlingDurationMs": 563856,
      "fuelConsumedMl": 6303,
      "fuelConsumedGallons": 1.665,
      "maxSpeedMph": 63.1,
      "averageSpeedMph": 13.8,
      "safetyEvents": []
    },
    {
      "id": "trip_43088084_20250319_003",
      "vehicleId": "43088084",
      "driverId": "20000033",
      "startMs": 1742368680000,
      "endMs": 1742373519681,
      "startAddress": "3425 Brandt Fords",
      "endAddress": "392 Henderson Walk Suite 551",
      "startCoords": {
        "latitude": 40.669004,
        "longitude": -111.814441
      },
      "endCoords": {
        "latitude": 40.740288,
        "longitude": -111.926624
      },
      "distanceMeters": 31438.9,
      "durationMs": 4839681,
      "drivingDurationMs": 3931607,
      "idlingDurationMs": 908074,
      "fuelConsumedMl": 3997,
      "fuelConsumedGallons": 1.056,
      "maxSpeedMph": 51.5,
      "averageSpeedMph": 14.5,
      "safetyEvents": []
    },
    {
      "id": "trip_43088084_20250320_001",
      "vehicleId": "43088084",
      "driverId": "20000033",
      "startMs": 1742470980000,
      "endMs": 1742481108930,
      "startAddress": "476 Justin Street",
      "endAddress": "068 Ellison Summit",
      "startCoords": {
        "latitude": 40.781829,
        "longitude": -111.895978
      },
      "endCoords": {
        "latitude": 40.72604,
        "longitude": -111.872908
      },
      "distanceMeters": 64145.2,
      "durationMs": 10128930,
      "drivingDurationMs": 8981502,
      "idlingDurationMs": 1147428,
      "fuelConsumedMl": 8154,
      "fuelConsumedGallons": 2.154,
      "maxSpeedMph": 34.4,
      "averageSpeedMph": 14.2,
      "safetyEvents": []
    },
    {
      "id": "trip_43088084_20250320_002",
      "vehicleId": "43088084",
      "driverId": "20000033",
      "startMs": 1742472960000,
      "endMs": 1742487799361,
      "startAddress": "6555 Cardenas Walks Apt. 920",
      "endAddress": "299 Cannon Rapid Suite 178",
      "startCoords": {
        "latitude": 40.771718,
        "longitude": -111.858781
      },
      "endCoords": {
        "latitude": 40.738977,
        "longitude": -111.785658
      },
      "distanceMeters": 76269.8,
      "durationMs": 14839362,
      "drivingDurationMs": 12326519,
      "idlingDurationMs": 2512843,
      "fuelConsumedMl": 9698,
      "fuelConsumedGallons": 2.562,
      "maxSpeedMph": 37.0,
      "averageSpeedMph": 11.5,
      "safetyEvents": []
    },
    {
      "id": "trip_43088084_20250320_003",
      "vehicleId": "43088084",
      "driverId": "20000033",
      "startMs": 1742451120000,
      "endMs": 1742456457507,
      "startAddress": "2172 Nash Expressway Suite 159",
      "endAddress": "10438 Bradley Streets",
      "startCoords": {
        "latitude": 40.78862,
        "longitude": -111.789605
      },
      "endCoords": {
        "latitude": 40.70253,
        "longitude": -111.900049
      },
      "distanceMeters": 40556.0,
      "durationMs": 5337508,
      "drivingDurationMs": 4997795,
      "idlingDurationMs": 339712,
      "fuelConsumedMl": 5156,
      "fuelConsumedGallons": 1.362,
      "maxSpeedMph": 49.8,
      "averageSpeedMph": 17.0,
      "safetyEvents": []
    },
    {
      "id": "trip_43088084_20250321_001",
      "vehicleId": "43088084",
      "driverId": null,
      "startMs": 1742573280000,
      "endMs": 1742586199866,
      "startAddress": "546 Matthew Summit",
      "endAddress": "5094 Gibson Falls",
      "startCoords": {
        "latitude": 40.789282,
        "longitude": -111.823332
      },
      "endCoords": {
        "latitude": 40.717434,
        "longitude": -111.893713
      },
      "distanceMeters": 61599.2,
      "durationMs": 12919866,
      "drivingDurationMs": 10984335,
      "idlingDurationMs": 1935532,
      "fuelConsumedMl": 7832,
      "fuelConsumedGallons": 2.069,
      "maxSpeedMph": 31.3,
      "averageSpeedMph": 10.7,
      "safetyEvents": []
    },
    {
      "id": "trip_43088084_20250321_002",
      "vehicleId": "43088084",
      "driverId": "20000037",
      "startMs": 1742564280000,
      "endMs": 1742565567154,
      "startAddress": "795 Lyons Ridge Apt. 658",
      "endAddress": "8600 John Flats",
      "startCoords": {
        "latitude": 40.72324,
        "longitude": -111.866412
      },
      "endCoords": {
        "latitude": 40.688223,
        "longitude": -111.875209
      },
      "distanceMeters": 8390.6,
      "durationMs": 1287155,
      "drivingDurationMs": 1050161,
      "idlingDurationMs": 236994,
      "fuelConsumedMl": 1067,
      "fuelConsumedGallons": 0.282,
      "maxSpeedMph": 58.5,
      "averageSpeedMph": 14.6,
      "safetyEvents": []
    },
    {
      "id": "trip_43088084_20250321_003",
      "vehicleId": "43088084",
      "driverId": "20000037",
      "startMs": 1742547600000,
      "endMs": 1742563163860,
      "startAddress": "851 Jennifer Extensions",
      "endAddress": "316 Justin Port",
      "startCoords": {
        "latitude": 40.778481,
        "longitude": -111.814951
      },
      "endCoords": {
        "latitude": 40.7368,
        "longitude": -111.819753
      },
      "distanceMeters": 77938.9,
      "durationMs": 15563861,
      "drivingDurationMs": 14636287,
      "idlingDurationMs": 927574,
      "fuelConsumedMl": 9910,
      "fuelConsumedGallons": 2.618,
      "maxSpeedMph": 58.6,
      "averageSpeedMph": 11.2,
      "safetyEvents": []
    },
    {
      "id": "trip_43088084_20250322_001",
      "vehicleId": "43088084",
      "driverId": "20000036",
      "startMs": 1742638860000,
      "endMs": 1742651094394,
      "startAddress": "14415 John Extension",
      "endAddress": "7092 Madeline Hills Suite 663",
      "startCoords": {
        "latitude": 40.757962,
        "longitude": -111.857463
      },
      "endCoords": {
        "latitude": 40.657018,
        "longitude": -111.786212
      },
      "distanceMeters": 73588.8,
      "durationMs": 12234395,
      "drivingDurationMs": 11625937,
      "idlingDurationMs": 608458,
      "fuelConsumedMl": 9358,
      "fuelConsumedGallons": 2.472,
      "maxSpeedMph": 62.4,
      "averageSpeedMph": 13.5,
      "safetyEvents": []
    },
    {
      "id": "trip_43088084_20250323_001",
      "vehicleId": "43088084",
      "driverId": "20000039",
      "startMs": 1742716320000,
      "endMs": 1742724315284,
      "startAddress": "95492 Phillips Pines Apt. 847",
      "endAddress": "731 Stevenson Valley Suite 340",
      "startCoords": {
        "latitude": 40.786135,
        "longitude": -111.961955
      },
      "endCoords": {
        "latitude": 40.66714,
        "longitude": -111.931839
      },
      "distanceMeters": 59586.4,
      "durationMs": 7995284,
      "drivingDurationMs": 6771094,
      "idlingDurationMs": 1224190,
      "fuelConsumedMl": 7575,
      "fuelConsumedGallons": 2.001,
      "maxSpeedMph": 42.3,
      "averageSpeedMph": 16.7,
      "safetyEvents": []
    },
    {
      "id": "trip_43088084_20250323_002",
      "vehicleId": "43088084",
      "driverId": "20000039",
      "startMs": 1742753640000,
      "endMs": 1742760672552,
      "startAddress": "44341 Edward Track Suite 559",
      "endAddress": "21932 Ferguson Meadows",
      "startCoords": {
        "latitude": 40.6837,
        "longitude": -111.92143
      },
      "endCoords": {
        "latitude": 40.752093,
        "longitude": -111.79734
      },
      "distanceMeters": 55982.6,
      "durationMs": 7032553,
      "drivingDurationMs": 6669970,
      "idlingDurationMs": 362582,
      "fuelConsumedMl": 7117,
      "fuelConsumedGallons": 1.88,
      "maxSpeedMph": 55.8,
      "averageSpeedMph": 17.8,
      "safetyEvents": []
    },
    {
      "id": "trip_43088084_20250323_003",
      "vehicleId": "43088084",
      "driverId": "20000039",
      "startMs": 1742726280000,
      "endMs": 1742738294048,
      "startAddress": "62394 Thomas Fields",
      "endAddress": "5973 Lewis Parks",
      "startCoords": {
        "latitude": 40.67729,
        "longitude": -111.837371
      },
      "endCoords": {
        "latitude": 40.759116,
        "longitude": -111.862713
      },
      "distanceMeters": 79849.5,
      "durationMs": 12014049,
      "drivingDurationMs": 10749105,
      "idlingDurationMs": 1264943,
      "fuelConsumedMl": 10152,
      "fuelConsumedGallons": 2.682,
      "maxSpeedMph": 33.9,
      "averageSpeedMph": 14.9,
      "safetyEvents": []
    },
    {
      "id": "trip_43088084_20250324_001",
      "vehicleId": "43088084",
      "driverId": "20000035",
      "startMs": 1742815860000,
      "endMs": 1742825031673,
      "startAddress": "878 Melissa Lane Suite 801",
      "endAddress": "202 Gerald Dam Apt. 370",
      "startCoords": {
        "latitude": 40.685715,
        "longitude": -111.935502
      },
      "endCoords": {
        "latitude": 40.660207,
        "longitude": -111.814028
      },
      "distanceMeters": 65414.5,
      "durationMs": 9171674,
      "drivingDurationMs": 8026978,
      "idlingDurationMs": 1144696,
      "fuelConsumedMl": 8317,
      "fuelConsumedGallons": 2.197,
      "maxSpeedMph": 54.4,
      "averageSpeedMph": 16.0,
      "safetyEvents": []
    },
    {
      "id": "trip_43088084_20250324_002",
      "vehicleId": "43088084",
      "driverId": "20000035",
      "startMs": 1742840820000,
      "endMs": 1742841867639,
      "startAddress": "83866 Washington Ridge",
      "endAddress": "1474 Rachel Orchard",
      "startCoords": {
        "latitude": 40.743036,
        "longitude": -111.801866
      },
      "endCoords": {
        "latitude": 40.721032,
        "longitude": -111.806491
      },
      "distanceMeters": 5516.3,
      "durationMs": 1047639,
      "drivingDurationMs": 843132,
      "idlingDurationMs": 204507,
      "fuelConsumedMl": 700,
      "fuelConsumedGallons": 0.185,
      "maxSpeedMph": 32.3,
      "averageSpeedMph": 11.8,
      "safetyEvents": []
    },
    {
      "id": "trip_43088084_20250324_003",
      "vehicleId": "43088084",
      "driverId": "20000035",
      "startMs": 1742831280000,
      "endMs": 1742843018098,
      "startAddress": "87599 Daniel Pine Apt. 460",
      "endAddress": "5468 Ramirez Bypass",
      "startCoords": {
        "latitude": 40.696958,
        "longitude": -111.932984
      },
      "endCoords": {
        "latitude": 40.787747,
        "longitude": -111.944613
      },
      "distanceMeters": 76141.1,
      "durationMs": 11738099,
      "drivingDurationMs": 10299262,
      "idlingDurationMs": 1438837,
      "fuelConsumedMl": 9679,
      "fuelConsumedGallons": 2.557,
      "maxSpeedMph": 70.1,
      "averageSpeedMph": 14.5,
      "safetyEvents": [
        {
          "type": "speeding",
          "startMs": 1742833080000,
          "maxSpeedMph": 70.1
        }
      ]
    },
    {
      "id": "trip_43088084_20250324_004",
      "vehicleId": "43088084",
      "driverId": "20000035",
      "startMs": 1742834520000,
      "endMs": 1742837525014,
      "startAddress": "7726 Smith Ranch Apt. 604",
      "endAddress": "9074 Bridges Plains Apt. 441",
      "startCoords": {
        "latitude": 40.783758,
        "longitude": -111.783002
      },
      "endCoords": {
        "latitude": 40.757242,
        "longitude": -111.819
      },
      "distanceMeters": 21778.2,
      "durationMs": 3005015,
      "drivingDurationMs": 2455756,
      "idlingDurationMs": 549258,
      "fuelConsumedMl": 2767,
      "fuelConsumedGallons": 0.731,
      "maxSpeedMph": 41.4,
      "averageSpeedMph": 16.2,
      "safetyEvents": []
    },
    {
      "id": "trip_43088084_20250324_005",
      "vehicleId": "43088084",
      "driverId": "20000035",
      "startMs": 1742804880000,
      "endMs": 1742815095638,
      "startAddress": "3873 Schmitt Streets",
      "endAddress": "5757 Ryan Stravenue Apt. 529",
      "startCoords": {
        "latitude": 40.764064,
        "longitude": -111.848037
      },
      "endCoords": {
        "latitude": 40.748301,
        "longitude": -111.859427
      },
      "distanceMeters": 60296.5,
      "durationMs": 10215638,
      "drivingDurationMs": 10029024,
      "idlingDurationMs": 186614,
      "fuelConsumedMl": 7665,
      "fuelConsumedGallons": 2.025,
      "maxSpeedMph": 64.5,
      "averageSpeedMph": 13.2,
      "safetyEvents": []
    },
    {
      "id": "trip_43088084_20250325_001",
      "vehicleId": "43088084",
      "driverId": "20000034",
      "startMs": 1742906880000,
      "endMs": 1742917059917,
      "startAddress": "016 Susan Rest",
      "endAddress": "103 Angela Isle Apt. 124",
      "startCoords": {
        "latitude": 40.715102,
        "longitude": -111.960122
      },
      "endCoords": {
        "latitude": 40.694885,
        "longitude": -111.912608
      },
      "distanceMeters": 71902.6,
      "durationMs": 10179917,
      "drivingDurationMs": 9554114,
      "idlingDurationMs": 625803,
      "fuelConsumedMl": 9142,
      "fuelConsumedGallons": 2.415,
      "maxSpeedMph": 52.7,
      "averageSpeedMph": 15.8,
      "safetyEvents": []
    },
    {
      "id": "trip_43088084_20250325_002",
      "vehicleId": "43088084",
      "driverId": "20000034",
      "startMs": 1742904240000,
      "endMs": 1742912117007,
      "startAddress": "3988 Kimberly Overpass Suite 001",
      "endAddress": "471 Church Meadows",
      "startCoords": {
        "latitude": 40.757088,
        "longitude": -111.779204
      },
      "endCoords": {
        "latitude": 40.74566,
        "longitude": -111.947177
      },
      "distanceMeters": 57762.1,
      "durationMs": 7877008,
      "drivingDurationMs": 7230635,
      "idlingDurationMs": 646372,
      "fuelConsumedMl": 7344,
      "fuelConsumedGallons": 1.94,
      "maxSpeedMph": 52.2,
      "averageSpeedMph": 16.4,
      "safetyEvents": []
    },
    {
      "id": "trip_43088084_20250325_003",
      "vehicleId": "43088084",
      "driverId": "20000034",
      "startMs": 1742887200000,
      "endMs": 1742898437443,
      "startAddress": "3314 Bryant Street Suite 895",
      "endAddress": "56585 Kevin Meadow Suite 793",
      "startCoords": {
        "latitude": 40.762359,
        "longitude": -111.833705
      },
      "endCoords": {
        "latitude": 40.680827,
        "longitude": -111.939212
      },
      "distanceMeters": 81037.2,
      "durationMs": 11237444,
      "drivingDurationMs": 10797195,
      "idlingDurationMs": 440249,
      "fuelConsumedMl": 10304,
      "fuelConsumedGallons": 2.722,
      "maxSpeedMph": 52.9,
      "averageSpeedMph": 16.1,
      "safetyEvents": []
    },
    {
      "id": "trip_43088084_20250325_004",
      "vehicleId": "43088084",
      "driverId": "20000034",
      "startMs": 1742902920000,
      "endMs": 1742907632917,
      "startAddress": "2782 Nicholas Village Apt. 064",
      "endAddress": "58343 Karen Grove Apt. 558",
      "startCoords": {
        "latitude": 40.746282,
        "longitude": -111.831414
      },
      "endCoords": {
        "latitude": 40.735274,
        "longitude": -111.845807
      },
      "distanceMeters": 28383.4,
      "durationMs": 4712918,
      "drivingDurationMs": 4058914,
      "idlingDurationMs": 654004,
      "fuelConsumedMl": 3607,
      "fuelConsumedGallons": 0.953,
      "maxSpeedMph": 46.5,
      "averageSpeedMph": 13.5,
      "safetyEvents": []
    },
    {
      "id": "trip_43088084_20250325_005",
      "vehicleId": "43088084",
      "driverId": "20000034",
      "startMs": 1742886060000,
      "endMs": 1742895164143,
      "startAddress": "3083 Roberto Views Suite 731",
      "endAddress": "39162 Garcia Way Apt. 966",
      "startCoords": {
        "latitude": 40.660609,
        "longitude": -111.915408
      },
      "endCoords": {
        "latitude": 40.764581,
        "longitude": -111.917797
      },
      "distanceMeters": 51714.5,
      "durationMs": 9104143,
      "drivingDurationMs": 8906545,
      "idlingDurationMs": 197598,
      "fuelConsumedMl": 6575,
      "fuelConsumedGallons": 1.737,
      "maxSpeedMph": 67.2,
      "averageSpeedMph": 12.7,
      "safetyEvents": [
        {
          "type": "speeding",
          "startMs": 1742890860000,
          "maxSpeedMph": 67.2
        }
      ]
    },
    {
      "id": "trip_43088084_20250326_001",
      "vehicleId": "43088084",
      "driverId": "20000037",
      "startMs": 1743015120000,
      "endMs": 1743017426869,
      "startAddress": "9376 Matthews Roads Suite 110",
      "endAddress": "195 Hunt Fork",
      "startCoords": {
        "latitude": 40.71222,
        "longitude": -111.898919
      },
      "endCoords": {
        "latitude": 40.672706,
        "longitude": -111.788106
      },
      "distanceMeters": 16300.1,
      "durationMs": 2306869,
      "drivingDurationMs": 2022503,
      "idlingDurationMs": 284366,
      "fuelConsumedMl": 2071,
      "fuelConsumedGallons": 0.547,
      "maxSpeedMph": 48.2,
      "averageSpeedMph": 15.8,
      "safetyEvents": []
    },
    {
      "id": "trip_43088084_20250326_002",
      "vehicleId": "43088084",
      "driverId": "20000037",
      "startMs": 1743001680000,
      "endMs": 1743006301676,
      "startAddress": "856 Sloan Valley",
      "endAddress": "370 Nancy Valleys",
      "startCoords": {
        "latitude": 40.761261,
        "longitude": -111.956331
      },
      "endCoords": {
        "latitude": 40.689725,
        "longitude": -111.831509
      },
      "distanceMeters": 22668.8,
      "durationMs": 4621677,
      "drivingDurationMs": 3971321,
      "idlingDurationMs": 650356,
      "fuelConsumedMl": 2881,
      "fuelConsumedGallons": 0.761,
      "maxSpeedMph": 34.8,
      "averageSpeedMph": 11.0,
      "safetyEvents": []
    },
    {
      "id": "trip_43088084_20250326_003",
      "vehicleId": "43088084",
      "driverId": "20000037",
      "startMs": 1742981460000,
      "endMs": 1742991626990,
      "startAddress": "96681 Julie Branch Suite 213",
      "endAddress": "821 Macdonald Valleys Apt. 506",
      "startCoords": {
        "latitude": 40.680493,
        "longitude": -111.8939
      },
      "endCoords": {
        "latitude": 40.697951,
        "longitude": -111.893617
      },
      "distanceMeters": 63598.7,
      "durationMs": 10166991,
      "drivingDurationMs": 9266766,
      "idlingDurationMs": 900224,
      "fuelConsumedMl": 8086,
      "fuelConsumedGallons": 2.136,
      "maxSpeedMph": 31.3,
      "averageSpeedMph": 14.0,
      "safetyEvents": []
    },
    {
      "id": "trip_43088084_20250326_004",
      "vehicleId": "43088084",
      "driverId": "20000037",
      "startMs": 1742984820000,
      "endMs": 1742990449780,
      "startAddress": "589 Maria Forks Apt. 945",
      "endAddress": "672 Wade Brooks",
      "startCoords": {
        "latitude": 40.701021,
        "longitude": -111.857978
      },
      "endCoords": {
        "latitude": 40.714362,
        "longitude": -111.775801
      },
      "distanceMeters": 40031.4,
      "durationMs": 5629780,
      "drivingDurationMs": 4922343,
      "idlingDurationMs": 707438,
      "fuelConsumedMl": 5091,
      "fuelConsumedGallons": 1.345,
      "maxSpeedMph": 49.3,
      "averageSpeedMph": 15.9,
      "safetyEvents": []
    },
    {
      "id": "trip_43088084_20250326_005",
      "vehicleId": "43088084",
      "driverId": null,
      "startMs": 1743010560000,
      "endMs": 1743019167050,
      "startAddress": "64068 Judy Gardens",
      "endAddress": "7059 Macdonald Squares Apt. 082",
      "startCoords": {
        "latitude": 40.687603,
        "longitude": -111.92933
      },
      "endCoords": {
        "latitude": 40.705852,
        "longitude": -111.796809
      },
      "distanceMeters": 60234.1,
      "durationMs": 8607050,
      "drivingDurationMs": 7662327,
      "idlingDurationMs": 944723,
      "fuelConsumedMl": 7658,
      "fuelConsumedGallons": 2.023,
      "maxSpeedMph": 28.6,
      "averageSpeedMph": 15.7,
      "safetyEvents": []
    },
    {
      "id": "trip_43088084_20250327_001",
      "vehicleId": "43088084",
      "driverId": "20000037",
      "startMs": 1743063900000,
      "endMs": 1743068027470,
      "startAddress": "673 Fuentes River",
      "endAddress": "1942 Sweeney Plaza",
      "startCoords": {
        "latitude": 40.750697,
        "longitude": -111.904319
      },
      "endCoords": {
        "latitude": 40.741022,
        "longitude": -111.872777
      },
      "distanceMeters": 20140.9,
      "durationMs": 4127471,
      "drivingDurationMs": 3644143,
      "idlingDurationMs": 483328,
      "fuelConsumedMl": 2559,
      "fuelConsumedGallons": 0.676,
      "maxSpeedMph": 44.3,
      "averageSpeedMph": 10.9,
      "safetyEvents": []
    },
    {
      "id": "trip_43088084_20250327_002",
      "vehicleId": "43088084",
      "driverId": "20000037",
      "startMs": 1743086880000,
      "endMs": 1743097421987,
      "startAddress": "0966 Neal Roads Suite 954",
      "endAddress": "438 David Port Apt. 067",
      "startCoords": {
        "latitude": 40.661241,
        "longitude": -111.840322
      },
      "endCoords": {
        "latitude": 40.665127,
        "longitude": -111.935002
      },
      "distanceMeters": 71402.3,
      "durationMs": 10541988,
      "drivingDurationMs": 9334929,
      "idlingDurationMs": 1207059,
      "fuelConsumedMl": 9077,
      "fuelConsumedGallons": 2.398,
      "maxSpeedMph": 41.3,
      "averageSpeedMph": 15.2,
      "safetyEvents": []
    },
    {
      "id": "trip_43088084_20250327_003",
      "vehicleId": "43088084",
      "driverId": "20000037",
      "startMs": 1743073560000,
      "endMs": 1743076501205,
      "startAddress": "3714 Kevin Avenue Apt. 759",
      "endAddress": "45285 Sarah Parks",
      "startCoords": {
        "latitude": 40.727019,
        "longitude": -111.785607
      },
      "endCoords": {
        "latitude": 40.673472,
        "longitude": -111.816043
      },
      "distanceMeters": 20723.1,
      "durationMs": 2941205,
      "drivingDurationMs": 2362174,
      "idlingDurationMs": 579032,
      "fuelConsumedMl": 2635,
      "fuelConsumedGallons": 0.696,
      "maxSpeedMph": 37.6,
      "averageSpeedMph": 15.8,
      "safetyEvents": []
    },
    {
      "id": "trip_43088084_20250328_001",
      "vehicleId": "43088084",
      "driverId": "20000034",
      "startMs": 1743159960000,
      "endMs": 1743168059445,
      "startAddress": "07501 Kimberly Crossroad",
      "endAddress": "4272 Santos Pass",
      "startCoords": {
        "latitude": 40.698459,
        "longitude": -111.895702
      },
      "endCoords": {
        "latitude": 40.711758,
        "longitude": -111.890879
      },
      "distanceMeters": 56778.4,
      "durationMs": 8099446,
      "drivingDurationMs": 7859493,
      "idlingDurationMs": 239953,
      "fuelConsumedMl": 7219,
      "fuelConsumedGallons": 1.907,
      "maxSpeedMph": 42.3,
      "averageSpeedMph": 15.7,
      "safetyEvents": []
    },
    {
      "id": "trip_43088084_20250328_002",
      "vehicleId": "43088084",
      "driverId": "20000034",
      "startMs": 1743158280000,
      "endMs": 1743174063931,
      "startAddress": "216 Samantha Avenue Suite 748",
      "endAddress": "198 Daniel Flat",
      "startCoords": {
        "latitude": 40.761224,
        "longitude": -111.882399
      },
      "endCoords": {
        "latitude": 40.721037,
        "longitude": -111.924014
      },
      "distanceMeters": 72769.2,
      "durationMs": 15783931,
      "drivingDurationMs": 13249332,
      "idlingDurationMs": 2534599,
      "fuelConsumedMl": 9252,
      "fuelConsumedGallons": 2.444,
      "maxSpeedMph": 46.1,
      "averageSpeedMph": 10.3,
      "safetyEvents": []
    },
    {
      "id": "trip_43088084_20250328_003",
      "vehicleId": "43088084",
      "driverId": "20000034",
      "startMs": 1743176340000,
      "endMs": 1743181556158,
      "startAddress": "660 Armstrong Ways",
      "endAddress": "231 Chaney Highway",
      "startCoords": {
        "latitude": 40.794971,
        "longitude": -111.923382
      },
      "endCoords": {
        "latitude": 40.778372,
        "longitude": -111.802806
      },
      "distanceMeters": 29673.1,
      "durationMs": 5216158,
      "drivingDurationMs": 4626606,
      "idlingDurationMs": 589552,
      "fuelConsumedMl": 3774,
      "fuelConsumedGallons": 0.997,
      "maxSpeedMph": 45.9,
      "averageSpeedMph": 12.7,
      "safetyEvents": []
    },
    {
      "id": "trip_43088084_20250328_004",
      "vehicleId": "43088084",
      "driverId": "20000034",
      "startMs": 1743154980000,
      "endMs": 1743168443020,
      "startAddress": "810 Parker Circles",
      "endAddress": "2997 Joseph Creek Suite 032",
      "startCoords": {
        "latitude": 40.709665,
        "longitude": -111.912158
      },
      "endCoords": {
        "latitude": 40.731573,
        "longitude": -111.89743
      },
      "distanceMeters": 74755.7,
      "durationMs": 13463020,
      "drivingDurationMs": 11816233,
      "idlingDurationMs": 1646787,
      "fuelConsumedMl": 9505,
      "fuelConsumedGallons": 2.511,
      "maxSpeedMph": 49.1,
      "averageSpeedMph": 12.4,
      "safetyEvents": []
    },
    {
      "id": "trip_43088084_20250329_001",
      "vehicleId": "43088084",
      "driverId": "20000035",
      "startMs": 1743235800000,
      "endMs": 1743246312286,
      "startAddress": "257 Carroll Fords",
      "endAddress": "6086 Deanna Rapids",
      "startCoords": {
        "latitude": 40.764844,
        "longitude": -111.95995
      },
      "endCoords": {
        "latitude": 40.778626,
        "longitude": -111.838986
      },
      "distanceMeters": 55722.3,
      "durationMs": 10512287,
      "drivingDurationMs": 10123204,
      "idlingDurationMs": 389083,
      "fuelConsumedMl": 7086,
      "fuelConsumedGallons": 1.872,
      "maxSpeedMph": 67.8,
      "averageSpeedMph": 11.9,
      "safetyEvents": [
        {
          "type": "speeding",
          "startMs": 1743237420000,
          "maxSpeedMph": 67.8
        }
      ]
    },
    {
      "id": "trip_43088084_20250329_002",
      "vehicleId": "43088084",
      "driverId": "20000035",
      "startMs": 1743270840000,
      "endMs": 1743274207513,
      "startAddress": "51155 Stephanie Drive Suite 098",
      "endAddress": "68078 Michele Roads Suite 237",
      "startCoords": {
        "latitude": 40.800205,
        "longitude": -111.775573
      },
      "endCoords": {
        "latitude": 40.781846,
        "longitude": -111.784485
      },
      "distanceMeters": 22486.9,
      "durationMs": 3367513,
      "drivingDurationMs": 2883004,
      "idlingDurationMs": 484510,
      "fuelConsumedMl": 2858,
      "fuelConsumedGallons": 0.755,
      "maxSpeedMph": 32.1,
      "averageSpeedMph": 14.9,
      "safetyEvents": []
    },
    {
      "id": "trip_43088084_20250330_001",
      "vehicleId": "43088084",
      "driverId": "20000038",
      "startMs": 1743356580000,
      "endMs": 1743367222663,
      "startAddress": "62564 Brandy Ports Apt. 785",
      "endAddress": "5739 Villarreal Track",
      "startCoords": {
        "latitude": 40.695582,
        "longitude": -111.900197
      },
      "endCoords": {
        "latitude": 40.725689,
        "longitude": -111.80882
      },
      "distanceMeters": 75457.8,
      "durationMs": 10642663,
      "drivingDurationMs": 8968287,
      "idlingDurationMs": 1674376,
      "fuelConsumedMl": 9592,
      "fuelConsumedGallons": 2.534,
      "maxSpeedMph": 43.3,
      "averageSpeedMph": 15.9,
      "safetyEvents": []
    },
    {
      "id": "trip_43088084_20250331_001",
      "vehicleId": "43088084",
      "driverId": "20000039",
      "startMs": 1743412080000,
      "endMs": 1743424992535,
      "startAddress": "10933 Roy Mount Apt. 896",
      "endAddress": "938 David Land Apt. 040",
      "startCoords": {
        "latitude": 40.671169,
        "longitude": -111.810038
      },
      "endCoords": {
        "latitude": 40.694684,
        "longitude": -111.819446
      },
      "distanceMeters": 73699.7,
      "durationMs": 12912535,
      "drivingDurationMs": 11137607,
      "idlingDurationMs": 1774928,
      "fuelConsumedMl": 9369,
      "fuelConsumedGallons": 2.475,
      "maxSpeedMph": 56.9,
      "averageSpeedMph": 12.8,
      "safetyEvents": []
    },
    {
      "id": "trip_43088084_20250331_002",
      "vehicleId": "43088084",
      "driverId": "20000039",
      "startMs": 1743444660000,
      "endMs": 1743449002931,
      "startAddress": "7560 Joshua Lodge",
      "endAddress": "846 Johnson Village",
      "startCoords": {
        "latitude": 40.780702,
        "longitude": -111.821565
      },
      "endCoords": {
        "latitude": 40.791236,
        "longitude": -111.961537
      },
      "distanceMeters": 23797.9,
      "durationMs": 4342932,
      "drivingDurationMs": 3526544,
      "idlingDurationMs": 816388,
      "fuelConsumedMl": 3025,
      "fuelConsumedGallons": 0.799,
      "maxSpeedMph": 57.1,
      "averageSpeedMph": 12.3,
      "safetyEvents": []
    },
    {
      "id": "trip_43088084_20250331_003",
      "vehicleId": "43088084",
      "driverId": "20000039",
      "startMs": 1743445380000,
      "endMs": 1743454800000,
      "startAddress": "26302 Zachary Isle Apt. 499",
      "endAddress": "30448 Woodard Land",
      "startCoords": {
        "latitude": 40.701928,
        "longitude": -111.933361
      },
      "endCoords": {
        "latitude": 40.765656,
        "longitude": -111.890665
      },
      "distanceMeters": 67585.9,
      "durationMs": 9420000,
      "drivingDurationMs": 7657126,
      "idlingDurationMs": 1762874,
      "fuelConsumedMl": 8593,
      "fuelConsumedGallons": 2.27,
      "maxSpeedMph": 52.6,
      "averageSpeedMph": 16.0,
      "safetyEvents": []
    },
    {
      "id": "trip_43088084_20250331_004",
      "vehicleId": "43088084",
      "driverId": "20000039",
      "startMs": 1743434040000,
      "endMs": 1743440801547,
      "startAddress": "69682 Davis Rapid",
      "endAddress": "30706 Hall Village",
      "startCoords": {
        "latitude": 40.664271,
        "longitude": -111.867304
      },
      "endCoords": {
        "latitude": 40.794574,
        "longitude": -111.948516
      },
      "distanceMeters": 34540.6,
      "durationMs": 6761548,
      "drivingDurationMs": 5820563,
      "idlingDurationMs": 940985,
      "fuelConsumedMl": 4391,
      "fuelConsumedGallons": 1.16,
      "maxSpeedMph": 64.6,
      "averageSpeedMph": 11.4,
      "safetyEvents": []
    },
    {
      "id": "trip_43088084_20250331_005",
      "vehicleId": "43088084",
      "driverId": "20000039",
      "startMs": 1743405540000,
      "endMs": 1743410050043,
      "startAddress": "367 Obrien Drive Suite 488",
      "endAddress": "98820 Erica Port",
      "startCoords": {
        "latitude": 40.748659,
        "longitude": -111.892366
      },
      "endCoords": {
        "latitude": 40.714605,
        "longitude": -111.828248
      },
      "distanceMeters": 31915.4,
      "durationMs": 4510043,
      "drivingDurationMs": 3842851,
      "idlingDurationMs": 667193,
      "fuelConsumedMl": 4058,
      "fuelConsumedGallons": 1.072,
      "maxSpeedMph": 52.6,
      "averageSpeedMph": 15.8,
      "safetyEvents": []
    },
    {
      "id": "trip_43088084_20250331_006",
      "vehicleId": "43088084",
      "driverId": "20000039",
      "startMs": 1743413280000,
      "endMs": 1743430708371,
      "startAddress": "5854 Travis Roads Apt. 013",
      "endAddress": "3186 Catherine Shoals",
      "startCoords": {
        "latitude": 40.754241,
        "longitude": -111.825759
      },
      "endCoords": {
        "latitude": 40.716473,
        "longitude": -111.882555
      },
      "distanceMeters": 74712.3,
      "durationMs": 17428371,
      "drivingDurationMs": 13977185,
      "idlingDurationMs": 3451186,
      "fuelConsumedMl": 9498,
      "fuelConsumedGallons": 2.509,
      "maxSpeedMph": 57.6,
      "averageSpeedMph": 9.6,
      "safetyEvents": []
    }
  ]
}