{
  "vehicleId": "40026912",
  "vehicleName": "DEN-MOTO-01",
  "month": "2025_03",
  "pagination": {
    "endCursor": "trip_40026912_20250331_12727",
    "hasNextPage": false
  },
  "trips": [
    {
      "id": "trip_40026912_20250301_8151",
      "vehicleId": "40026912",
      "driverId": "20000011",
      "startMs": 1740790495000,
      "endMs": 1740802802000,
      "startAddress": "652 Vincent Haven Apt. 665",
      "endAddress": "161 Jeff Trafficway",
      "startCoords": {
        "latitude": 39.777887,
        "longitude": -105.00032
      },
      "endCoords": {
        "latitude": 39.716962,
        "longitude": -104.932091
      },
      "distanceMeters": 78868.8,
      "durationMs": 12307000,
      "drivingDurationMs": 9399468,
      "idlingDurationMs": 2907532,
      "fuelConsumedMl": 3566,
      "fuelConsumedGallons": 0.942,
      "maxSpeedMph": 40.9,
      "averageSpeedMph": 14.3,
      "safetyEvents": []
    },
    {
      "id": "trip_40026912_20250301_8177",
      "vehicleId": "40026912",
      "driverId": "20000006",
      "startMs": 1740804727000,
      "endMs": 1740806827000,
      "startAddress": "59465 Shelton Pike Suite 638",
      "endAddress": "6914 Holly Street Apt. 702",
      "startCoords": {
        "latitude": 39.689327,
        "longitude": -104.900923
      },
      "endCoords": {
        "latitude": 39.710915,
        "longitude": -105.014333
      },
      "distanceMeters": 17880.0,
      "durationMs": 2100000,
      "drivingDurationMs": 1791229,
      "idlingDurationMs": 308771,
      "fuelConsumedMl": 810,
      "fuelConsumedGallons": 0.214,
      "maxSpeedMph": 46.7,
      "averageSpeedMph": 19.0,
      "safetyEvents": []
    },
    {
      "id": "trip_40026912_20250301_8202",
      "vehicleId": "40026912",
      "driverId": "20000011",
      "startMs": 1740822583000,
      "endMs": 1740825403000,
      "startAddress": "8072 Colleen Road",
      "endAddress": "61681 Grant Way Apt. 353",
      "startCoords": {
        "latitude": 39.775693,
        "longitude": -105.00471
      },
      "endCoords": {
        "latitude": 39.812733,
        "longitude": -104.928696
      },
      "distanceMeters": 13812.7,
      "durationMs": 2820000,
      "drivingDurationMs": 2139388,
      "idlingDurationMs": 680612,
      "fuelConsumedMl": 625,
      "fuelConsumedGallons": 0.165,
      "maxSpeedMph": 32.8,
      "averageSpeedMph": 11.0,
      "safetyEvents": []
    },
    {
      "id": "trip_40026912_20250301_8232",
      "vehicleId": "40026912",
      "driverId": "20000001",
      "startMs": 1740836785000,
      "endMs": 1740838645000,
      "startAddress": "74793 Alison Well Suite 670",
      "endAddress": "62727 Collins Trafficway",
      "startCoords": {
        "latitude": 39.695146,
        "longitude": -105.085993
      },
      "endCoords": {
        "latitude": 39.796084,
        "longitude": -105.065707
      },
      "distanceMeters": 14263.0,
      "durationMs": 1860000,
      "drivingDurationMs": 1417001,
      "idlingDurationMs": 442999,
      "fuelConsumedMl": 644,
      "fuelConsumedGallons": 0.17,
      "maxSpeedMph": 43.9,
      "averageSpeedMph": 17.2,
      "safetyEvents": []
    },
    {
      "id": "trip_40026912_20250301_8261",
      "vehicleId": "40026912",
      "driverId": "20000018",
      "startMs": 1740850386000,
      "endMs": 1740853677000,
      "startAddress": "5483 Daniel Locks",
      "endAddress": "838 Mcpherson Common",
      "startCoords": {
        "latitude": 39.806922,
        "longitude": -105.032609
      },
      "endCoords": {
        "latitude": 39.705846,
        "longitude": -104.933879
      },
      "distanceMeters": 18956.2,
      "durationMs": 3291000,
      "drivingDurationMs": 2959174,
      "idlingDurationMs": 331826,
      "fuelConsumedMl": 859,
      "fuelConsumedGallons": 0.227,
      "maxSpeedMph": 33.8,
      "averageSpeedMph": 12.9,
      "safetyEvents": []
    },
    {
      "id": "trip_40026912_20250301_8284",
      "vehicleId": "40026912",
      "driverId": "20000019",
      "startMs": 1740864531000,
      "endMs": 1740866913000,
      "startAddress": "939 Calderon Crossing",
      "endAddress": "042 Massey Brooks",
      "startCoords": {
        "latitude": 39.780305,
        "longitude": -104.948366
      },
      "endCoords": {
        "latitude": 39.724954,
        "longitude": -104.899976
      },
      "distanceMeters": 18416.4,
      "durationMs": 2382000,
      "drivingDurationMs": 2072606,
      "idlingDurationMs": 309394,
      "fuelConsumedMl": 833,
      "fuelConsumedGallons": 0.22,
      "maxSpeedMph": 35.5,
      "averageSpeedMph": 17.3,
      "safetyEvents": []
    },
    {
      "id": "trip_40026912_20250302_8316",
      "vehicleId": "40026912",
      "driverId": "20000015",
      "startMs": 1740883806000,
      "endMs": 1740885546000,
      "startAddress": "467 Kimberly Stravenue Suite 412",
      "endAddress": "86524 Denise Wells",
      "startCoords": {
        "latitude": 39.762214,
        "longitude": -105.059529
      },
      "endCoords": {
        "latitude": 39.683997,
        "longitude": -104.973782
      },
      "distanceMeters": 9727.3,
      "durationMs": 1740000,
      "drivingDurationMs": 1326493,
      "idlingDurationMs": 413507,
      "fuelConsumedMl": 439,
      "fuelConsumedGallons": 0.116,
      "maxSpeedMph": 33.8,
      "averageSpeedMph": 12.5,
      "safetyEvents": []
    },
    {
      "id": "trip_40026912_20250302_8346",
      "vehicleId": "40026912",
      "driverId": "20000012",
      "startMs": 1740911580000,
      "endMs": 1740914283000,
      "startAddress": "3501 Thomas Passage",
      "endAddress": "49033 Kendra Views",
      "startCoords": {
        "latitude": 39.812265,
        "longitude": -104.982227
      },
      "endCoords": {
        "latitude": 39.689471,
        "longitude": -104.997762
      },
      "distanceMeters": 14741.1,
      "durationMs": 2703000,
      "drivingDurationMs": 2216498,
      "idlingDurationMs": 486502,
      "fuelConsumedMl": 666,
      "fuelConsumedGallons": 0.176,
      "maxSpeedMph": 35.2,
      "averageSpeedMph": 12.2,
      "safetyEvents": []
    },
    {
      "id": "trip_40026912_20250302_8369",
      "vehicleId": "40026912",
      "driverId": "20000007",
      "startMs": 1740928737000,
      "endMs": 1740930777000,
      "startAddress": "11834 Anna Oval Suite 216",
      "endAddress": "4591 Allen Mission Apt. 333",
      "startCoords": {
        "latitude": 39.798744,
        "longitude": -105.048952
      },
      "endCoords": {
        "latitude": 39.8042,
        "longitude": -105.080917
      },
      "distanceMeters": 14305.1,
      "durationMs": 2040000,
      "drivingDurationMs": 1685196,
      "idlingDurationMs": 354804,
      "fuelConsumedMl": 647,
      "fuelConsumedGallons": 0.171,
      "maxSpeedMph": 45.2,
      "averageSpeedMph": 15.7,
      "safetyEvents": []
    },
    {
      "id": "trip_40026912_20250302_8400",
      "vehicleId": "40026912",
      "driverId": "20000018",
      "startMs": 1740953109000,
      "endMs": 1740955629000,
      "startAddress": "3255 Kyle Curve",
      "endAddress": "936 Reid Station",
      "startCoords": {
        "latitude": 39.691806,
        "longitude": -105.070551
      },
      "endCoords": {
        "latitude": 39.710004,
        "longitude": -104.984361
      },
      "distanceMeters": 17669.3,
      "durationMs": 2520000,
      "drivingDurationMs": 2027470,
      "idlingDurationMs": 492530,
      "fuelConsumedMl": 799,
      "fuelConsumedGallons": 0.211,
      "maxSpeedMph": 45.8,
      "averageSpeedMph": 15.7,
      "safetyEvents": []
    },
    {
      "id": "trip_40026912_20250303_8427",
      "vehicleId": "40026912",
      "driverId": "20000008",
      "startMs": 1740992969000,
      "endMs": 1740995261000,
      "startAddress": "582 Joshua Junctions",
      "endAddress": "74705 Daniel Manor",
      "startCoords": {
        "latitude": 39.691197,
        "longitude": -104.91113
      },
      "endCoords": {
        "latitude": 39.762315,
        "longitude": -104.949575
      },
      "distanceMeters": 13076.8,
      "durationMs": 2292000,
      "drivingDurationMs": 1949526,
      "idlingDurationMs": 342474,
      "fuelConsumedMl": 591,
      "fuelConsumedGallons": 0.156,
      "maxSpeedMph": 44.8,
      "averageSpeedMph": 12.8,
      "safetyEvents": []
    },
    {
      "id": "trip_40026912_20250303_8456",
      "vehicleId": "40026912",
      "driverId": "20000008",
      "startMs": 1741005146000,
      "endMs": 1741010585000,
      "startAddress": "069 Kathleen Station",
      "endAddress": "1856 Karen Summit",
      "startCoords": {
        "latitude": 39.74146,
        "longitude": -105.04277
      },
      "endCoords": {
        "latitude": 39.726272,
        "longitude": -104.967777
      },
      "distanceMeters": 44463.1,
      "durationMs": 5439000,
      "drivingDurationMs": 4651863,
      "idlingDurationMs": 787137,
      "fuelConsumedMl": 2010,
      "fuelConsumedGallons": 0.531,
      "maxSpeedMph": 45.9,
      "averageSpeedMph": 18.3,
      "safetyEvents": []
    },
    {
      "id": "trip_40026912_20250303_8491",
      "vehicleId": "40026912",
      "driverId": "20000022",
      "startMs": 1741020042000,
      "endMs": 1741023262000,
      "startAddress": "08478 Carpenter Coves",
      "endAddress": "8304 Crystal Lane",
      "startCoords": {
        "latitude": 39.802354,
        "longitude": -105.019865
      },
      "endCoords": {
        "latitude": 39.792619,
        "longitude": -104.912779
      },
      "distanceMeters": 29687.6,
      "durationMs": 3220000,
      "drivingDurationMs": 2876103,
      "idlingDurationMs": 343897,
      "fuelConsumedMl": 1344,
      "fuelConsumedGallons": 0.355,
      "maxSpeedMph": 30.7,
      "averageSpeedMph": 20.6,
      "safetyEvents": []
    },
    {
      "id": "trip_40026912_20250303_8518",
      "vehicleId": "40026912",
      "driverId": "20000003",
      "startMs": 1741033783000,
      "endMs": 1741038257000,
      "startAddress": "3360 Jerry Curve",
      "endAddress": "822 Joshua Gardens",
      "startCoords": {
        "latitude": 39.746315,
        "longitude": -104.956102
      },
      "endCoords": {
        "latitude": 39.788848,
        "longitude": -105.086738
      },
      "distanceMeters": 33948.6,
      "durationMs": 4474000,
      "drivingDurationMs": 3363642,
      "idlingDurationMs": 1110358,
      "fuelConsumedMl": 1537,
      "fuelConsumedGallons": 0.406,
      "maxSpeedMph": 43.9,
      "averageSpeedMph": 17.0,
      "safetyEvents": []
    },
    {
      "id": "trip_40026912_20250304_8550",
      "vehicleId": "40026912",
      "driverId": "20000001",
      "startMs": 1741052825000,
      "endMs": 1741054805000,
      "startAddress": "741 Simpson Plaza Suite 862",
      "endAddress": "292 Griffin View Apt. 420",
      "startCoords": {
        "latitude": 39.700714,
        "longitude": -105.039917
      },
      "endCoords": {
        "latitude": 39.736291,
        "longitude": -104.932757
      },
      "distanceMeters": 15048.4,
      "durationMs": 1980000,
      "drivingDurationMs": 1540042,
      "idlingDurationMs": 439958,
      "fuelConsumedMl": 681,
      "fuelConsumedGallons": 0.18,
      "maxSpeedMph": 44.1,
      "averageSpeedMph": 17.0,
      "safetyEvents": []
    },
    {
      "id": "trip_40026912_20250304_8577",
      "vehicleId": "40026912",
      "driverId": "20000006",
      "startMs": 1741072127000,
      "endMs": 1741074287000,
      "startAddress": "03441 Jacob Meadows",
      "endAddress": "08616 Trujillo Walk Apt. 325",
      "startCoords": {
        "latitude": 39.688974,
        "longitude": -104.929023
      },
      "endCoords": {
        "latitude": 39.691284,
        "longitude": -104.955599
      },
      "distanceMeters": 14217.8,
      "durationMs": 2160000,
      "drivingDurationMs": 1819653,
      "idlingDurationMs": 340347,
      "fuelConsumedMl": 644,
      "fuelConsumedGallons": 0.17,
      "maxSpeedMph": 44.2,
      "averageSpeedMph": 14.7,
      "safetyEvents": []
    },
    {
      "id": "trip_40026912_20250304_8608",
      "vehicleId": "40026912",
      "driverId": "20000005",
      "startMs": 1741085239000,
      "endMs": 1741086919000,
      "startAddress": "1783 Courtney Branch",
      "endAddress": "7902 Bush Dam",
      "startCoords": {
        "latitude": 39.72456,
        "longitude": -104.957514
      },
      "endCoords": {
        "latitude": 39.802437,
        "longitude": -104.999747
      },
      "distanceMeters": 10985.4,
      "durationMs": 1680000,
      "drivingDurationMs": 1450384,
      "idlingDurationMs": 229616,
      "fuelConsumedMl": 496,
      "fuelConsumedGallons": 0.131,
      "maxSpeedMph": 46.4,
      "averageSpeedMph": 14.6,
      "safetyEvents": []
    },
    {
      "id": "trip_40026912_20250304_8641",
      "vehicleId": "40026912",
      "driverId": "20000018",
      "startMs": 1741101652000,
      "endMs": 1741103392000,
      "startAddress": "625 Sarah Courts Apt. 356",
      "endAddress": "96659 Olson Drive Apt. 007",
      "startCoords": {
        "latitude": 39.740989,
        "longitude": -104.990097
      },
      "endCoords": {
        "latitude": 39.783472,
        "longitude": -104.95829
      },
      "distanceMeters": 14640.0,
      "durationMs": 1740000,
      "drivingDurationMs": 1546668,
      "idlingDurationMs": 193332,
      "fuelConsumedMl": 662,
      "fuelConsumedGallons": 0.175,
      "maxSpeedMph": 35.0,
      "averageSpeedMph": 18.8,
      "safetyEvents": []
    },
    {
      "id": "trip_40026912_20250304_8671",
      "vehicleId": "40026912",
      "driverId": "20000013",
      "startMs": 1741115251000,
      "endMs": 1741117171000,
      "startAddress": "49568 Baldwin Knoll Suite 623",
      "endAddress": "57227 Morgan Springs",
      "startCoords": {
        "latitude": 39.767966,
        "longitude": -104.92048
      },
      "endCoords": {
        "latitude": 39.689324,
        "longitude": -105.052278
      },
      "distanceMeters": 10844.5,
      "durationMs": 1920000,
      "drivingDurationMs": 1505926,
      "idlingDurationMs": 414074,
      "fuelConsumedMl": 492,
      "fuelConsumedGallons": 0.13,
      "maxSpeedMph": 32.4,
      "averageSpeedMph": 12.6,
      "safetyEvents": []
    },
    {
      "id": "trip_40026912_20250304_8701",
      "vehicleId": "40026912",
      "driverId": "20000017",
      "startMs": 1741131381000,
      "endMs": 1741133661000,
      "startAddress": "99851 Johnson Island Apt. 029",
      "endAddress": "1031 Berger Shoal",
      "startCoords": {
        "latitude": 39.781294,
        "longitude": -105.022924
      },
      "endCoords": {
        "latitude": 39.685069,
        "longitude": -104.965903
      },
      "distanceMeters": 13162.1,
      "durationMs": 2280000,
      "drivingDurationMs": 2041153,
      "idlingDurationMs": 238847,
      "fuelConsumedMl": 594,
      "fuelConsumedGallons": 0.157,
      "maxSpeedMph": 40.9,
      "averageSpeedMph": 12.9,
      "safetyEvents": []
    },
    {
      "id": "trip_40026912_20250305_8731",
      "vehicleId": "40026912",
      "driverId": "20000017",
      "startMs": 1741147226000,
      "endMs": 1741148906000,
      "startAddress": "85069 Moore Loop Suite 361",
      "endAddress": "3684 Keith Summit Suite 562",
      "startCoords": {
        "latitude": 39.804266,
        "longitude": -105.065087
      },
      "endCoords": {
        "latitude": 39.704363,
        "longitude": -105.024071
      },
      "distanceMeters": 11620.9,
      "durationMs": 1680000,
      "drivingDurationMs": 1469325,
      "idlingDurationMs": 210675,
      "fuelConsumedMl": 526,
      "fuelConsumedGallons": 0.139,
      "maxSpeedMph": 43.3,
      "averageSpeedMph": 15.5,
      "safetyEvents": []
    },
    {
      "id": "trip_40026912_20250305_8760",
      "vehicleId": "40026912",
      "driverId": "20000004",
      "startMs": 1741165293000,
      "endMs": 1741186269000,
      "startAddress": "98952 Brittany Walk Suite 174",
      "endAddress": "440 Woodward Estates",
      "startCoords": {
        "latitude": 39.73701,
        "longitude": -105.021001
      },
      "endCoords": {
        "latitude": 39.74115,
        "longitude": -105.086394
      },
      "distanceMeters": 147559.4,
      "durationMs": 20976000,
      "drivingDurationMs": 18786775,
      "idlingDurationMs": 2189225,
      "fuelConsumedMl": 6674,
      "fuelConsumedGallons": 1.763,
      "maxSpeedMph": 32.2,
      "averageSpeedMph": 15.7,
      "safetyEvents": []
    },
    {
      "id": "trip_40026912_20250305_8807",
      "vehicleId": "40026912",
      "driverId": "20000022",
      "startMs": 1741186730000,
      "endMs": 1741196032000,
      "startAddress": "0950 Benjamin Mountain",
      "endAddress": "8551 Dylan Mountain",
      "startCoords": {
        "latitude": 39.772284,
        "longitude": -105.05246
      },
      "endCoords": {
        "latitude": 39.79763,
        "longitude": -105.025797
      },
      "distanceMeters": 52773.8,
      "durationMs": 9302000,
      "drivingDurationMs": 8300845,
      "idlingDurationMs": 1001155,
      "fuelConsumedMl": 2389,
      "fuelConsumedGallons": 0.631,
      "maxSpeedMph": 41.0,
      "averageSpeedMph": 12.7,
      "safetyEvents": []
    },
    {
      "id": "trip_40026912_20250305_8838",
      "vehicleId": "40026912",
      "driverId": "20000001",
      "startMs": 1741199876000,
      "endMs": 1741203486000,
      "startAddress": "7589 Tyler Groves Apt. 607",
      "endAddress": "796 Bush Valleys",
      "startCoords": {
        "latitude": 39.71335,
        "longitude": -104.998418
      },
      "endCoords": {
        "latitude": 39.777385,
        "longitude": -104.960633
      },
      "distanceMeters": 19168.7,
      "durationMs": 3610000,
      "drivingDurationMs": 2926726,
      "idlingDurationMs": 683274,
      "fuelConsumedMl": 867,
      "fuelConsumedGallons": 0.229,
      "maxSpeedMph": 40.2,
      "averageSpeedMph": 11.9,
      "safetyEvents": []
    },
    {
      "id": "trip_40026912_20250305_8869",
      "vehicleId": "40026912",
      "driverId": "20000021",
      "startMs": 1741218552000,
      "endMs": 1741220232000,
      "startAddress": "7166 Stevens Glen Suite 591",
      "endAddress": "5299 Wheeler Crest",
      "startCoords": {
        "latitude": 39.723239,
        "longitude": -104.935263
      },
      "endCoords": {
        "latitude": 39.797029,
        "longitude": -104.984096
      },
      "distanceMeters": 12764.8,
      "durationMs": 1680000,
      "drivingDurationMs": 1265002,
      "idlingDurationMs": 414998,
      "fuelConsumedMl": 579,
      "fuelConsumedGallons": 0.153,
      "maxSpeedMph": 33.2,
      "averageSpeedMph": 17.0,
      "safetyEvents": []
    },
    {
      "id": "trip_40026912_20250306_8896",
      "vehicleId": "40026912",
      "driverId": "20000006",
      "startMs": 1741235287000,
      "endMs": 1741237207000,
      "startAddress": "686 Leach Run Suite 305",
      "endAddress": "79827 Lucas Freeway Suite 264",
      "startCoords": {
        "latitude": 39.700048,
        "longitude": -104.930488
      },
      "endCoords": {
        "latitude": 39.73713,
        "longitude": -104.937779
      },
      "distanceMeters": 13444.1,
      "durationMs": 1920000,
      "drivingDurationMs": 1504667,
      "idlingDurationMs": 415333,
      "fuelConsumedMl": 609,
      "fuelConsumedGallons": 0.161,
      "maxSpeedMph": 37.0,
      "averageSpeedMph": 15.7,
      "safetyEvents": []
    },
    {
      "id": "trip_40026912_20250306_8927",
      "vehicleId": "40026912",
      "driverId": "20000018",
      "startMs": 1741249334000,
      "endMs": 1741251074000,
      "startAddress": "70590 Johnson Falls",
      "endAddress": "6921 Rodriguez Circle",
      "startCoords": {
        "latitude": 39.826179,
        "longitude": -104.932799
      },
      "endCoords": {
        "latitude": 39.736376,
        "longitude": -105.055833
      },
      "distanceMeters": 10912.2,
      "durationMs": 1740000,
      "drivingDurationMs": 1390094,
      "idlingDurationMs": 349906,
      "fuelConsumedMl": 492,
      "fuelConsumedGallons": 0.13,
      "maxSpeedMph": 45.0,
      "averageSpeedMph": 14.0,
      "safetyEvents": []
    },
    {
      "id": "trip_40026912_20250306_8954",
      "vehicleId": "40026912",
      "driverId": "20000020",
      "startMs": 1741265132000,
      "endMs": 1741268740000,
      "startAddress": "4745 Leonard Skyway",
      "endAddress": "260 Sarah Overpass",
      "startCoords": {
        "latitude": 39.764776,
        "longitude": -105.047123
      },
      "endCoords": {
        "latitude": 39.743751,
        "longitude": -104.918683
      },
      "distanceMeters": 21477.9,
      "durationMs": 3608000,
      "drivingDurationMs": 3099520,
      "idlingDurationMs": 508480,
      "fuelConsumedMl": 973,
      "fuelConsumedGallons": 0.257,
      "maxSpeedMph": 33.0,
      "averageSpeedMph": 13.3,
      "safetyEvents": []
    },
    {
      "id": "trip_40026912_20250306_8985",
      "vehicleId": "40026912",
      "driverId": "20000014",
      "startMs": 1741280946000,
      "endMs": 1741297301000,
      "startAddress": "0158 Ricky Grove",
      "endAddress": "745 Taylor Hills",
      "startCoords": {
        "latitude": 39.712745,
        "longitude": -104.985636
      },
      "endCoords": {
        "latitude": 39.736893,
        "longitude": -104.939413
      },
      "distanceMeters": 105954.7,
      "durationMs": 16355000,
      "drivingDurationMs": 14363810,
      "idlingDurationMs": 1991190,
      "fuelConsumedMl": 4792,
      "fuelConsumedGallons": 1.266,
      "maxSpeedMph": 36.6,
      "averageSpeedMph": 14.5,
      "safetyEvents": []
    },
    {
      "id": "trip_40026912_20250306_9021",
      "vehicleId": "40026912",
      "driverId": "20000018",
      "startMs": 1741300475000,
      "endMs": 1741304314000,
      "startAddress": "218 Dennis Fords Suite 700",
      "endAddress": "4425 Mary Station",
      "startCoords": {
        "latitude": 39.735045,
        "longitude": -105.066891
      },
      "endCoords": {
        "latitude": 39.821759,
        "longitude": -104.902995
      },
      "distanceMeters": 30393.7,
      "durationMs": 3839000,
      "drivingDurationMs": 2940807,
      "idlingDurationMs": 898193,
      "fuelConsumedMl": 1374,
      "fuelConsumedGallons": 0.363,
      "maxSpeedMph": 40.7,
      "averageSpeedMph": 17.7,
      "safetyEvents": []
    },
    {
      "id": "trip_40026912_20250307_9051",
      "vehicleId": "40026912",
      "driverId": "20000019",
      "startMs": 1741322402000,
      "endMs": 1741324322000,
      "startAddress": "546 Daniel Throughway",
      "endAddress": "05707 Chavez Plains",
      "startCoords": {
        "latitude": 39.802543,
        "longitude": -105.043832
      },
      "endCoords": {
        "latitude": 39.746485,
        "longitude": -105.029764
      },
      "distanceMeters": 13289.6,
      "durationMs": 1920000,
      "drivingDurationMs": 1721198,
      "idlingDurationMs": 198802,
      "fuelConsumedMl": 602,
      "fuelConsumedGallons": 0.159,
      "maxSpeedMph": 44.5,
      "averageSpeedMph": 15.5,
      "safetyEvents": []
    },
    {
      "id": "trip_40026912_20250307_9078",
      "vehicleId": "40026912",
      "driverId": "20000003",
      "startMs": 1741337877000,
      "endMs": 1741344382000,
      "startAddress": "114 Kimberly Point Apt. 606",
      "endAddress": "265 Luke Burgs Apt. 244",
      "startCoords": {
        "latitude": 39.714009,
        "longitude": -105.066039
      },
      "endCoords": {
        "latitude": 39.725086,
        "longitude": -105.063955
      },
      "distanceMeters": 39303.3,
      "durationMs": 6505000,
      "drivingDurationMs": 5520735,
      "idlingDurationMs": 984265,
      "fuelConsumedMl": 1779,
      "fuelConsumedGallons": 0.47,
      "maxSpeedMph": 36.4,
      "averageSpeedMph": 13.5,
      "safetyEvents": []
    },
    {
      "id": "trip_40026912_20250307_9101",
      "vehicleId": "40026912",
      "driverId": "20000003",
      "startMs": 1741348486000,
      "endMs": 1741358904000,
      "startAddress": "2732 Patricia Cove",
      "endAddress": "2139 Giles Burg",
      "startCoords": {
        "latitude": 39.693698,
        "longitude": -105.063936
      },
      "endCoords": {
        "latitude": 39.74089,
        "longitude": -104.908598
      },
      "distanceMeters": 58086.6,
      "durationMs": 10418000,
      "drivingDurationMs": 8109303,
      "idlingDurationMs": 2308697,
      "fuelConsumedMl": 2627,
      "fuelConsumedGallons": 0.694,
      "maxSpeedMph": 45.8,
      "averageSpeedMph": 12.5,
      "safetyEvents": []
    },
    {
      "id": "trip_40026912_20250307_9128",
      "vehicleId": "40026912",
      "driverId": "20000006",
      "startMs": 1741360006000,
      "endMs": 1741366078000,
      "startAddress": "0978 David Grove Suite 535",
      "endAddress": "04399 Charles Ranch Suite 755",
      "startCoords": {
        "latitude": 39.789315,
        "longitude": -105.041726
      },
      "endCoords": {
        "latitude": 39.723526,
        "longitude": -105.046261
      },
      "distanceMeters": 48662.4,
      "durationMs": 6072000,
      "drivingDurationMs": 4680271,
      "idlingDurationMs": 1391729,
      "fuelConsumedMl": 2199,
      "fuelConsumedGallons": 0.581,
      "maxSpeedMph": 37.9,
      "averageSpeedMph": 17.9,
      "safetyEvents": []
    },
    {
      "id": "trip_40026912_20250307_9155",
      "vehicleId": "40026912",
      "driverId": "20000022",
      "startMs": 1741376662000,
      "endMs": 1741378762000,
      "startAddress": "3850 Chandler Knoll Apt. 941",
      "endAddress": "0927 Oliver Pine",
      "startCoords": {
        "latitude": 39.810934,
        "longitude": -105.018744
      },
      "endCoords": {
        "latitude": 39.77262,
        "longitude": -104.982655
      },
      "distanceMeters": 14262.6,
      "durationMs": 2100000,
      "drivingDurationMs": 1679991,
      "idlingDurationMs": 420009,
      "fuelConsumedMl": 644,
      "fuelConsumedGallons": 0.17,
      "maxSpeedMph": 45.6,
      "averageSpeedMph": 15.2,
      "safetyEvents": []
    },
    {
      "id": "trip_40026912_20250307_9180",
      "vehicleId": "40026912",
      "driverId": "20000020",
      "startMs": 1741390483000,
      "endMs": 1741395563000,
      "startAddress": "88823 Kelly Valley Suite 973",
      "endAddress": "71436 Michael Haven",
      "startCoords": {
        "latitude": 39.818979,
        "longitude": -104.99023
      },
      "endCoords": {
        "latitude": 39.817846,
        "longitude": -104.980463
      },
      "distanceMeters": 26300.4,
      "durationMs": 5080000,
      "drivingDurationMs": 4180044,
      "idlingDurationMs": 899956,
      "fuelConsumedMl": 1189,
      "fuelConsumedGallons": 0.314,
      "maxSpeedMph": 43.7,
      "averageSpeedMph": 11.6,
      "safetyEvents": []
    },
    {
      "id": "trip_40026912_20250308_9211",
      "vehicleId": "40026912",
      "driverId": "20000003",
      "startMs": 1741411935000,
      "endMs": 1741418073000,
      "startAddress": "101 Brian Port",
      "endAddress": "477 Cooper Fall Apt. 668",
      "startCoords": {
        "latitude": 39.71824,
        "longitude": -104.908344
      },
      "endCoords": {
        "latitude": 39.825073,
        "longitude": -105.024035
      },
      "distanceMeters": 54973.7,
      "durationMs": 6138000,
      "drivingDurationMs": 5423618,
      "idlingDurationMs": 714382,
      "fuelConsumedMl": 2487,
      "fuelConsumedGallons": 0.657,
      "maxSpeedMph": 33.8,
      "averageSpeedMph": 20.0,
      "safetyEvents": []
    },
    {
      "id": "trip_40026912_20250308_9243",
      "vehicleId": "40026912",
      "driverId": "20000003",
      "startMs": 1741428146000,
      "endMs": 1741431959000,
      "startAddress": "22171 Jennifer Mews",
      "endAddress": "8157 Frank Gateway Suite 720",
      "startCoords": {
        "latitude": 39.770848,
        "longitude": -105.047612
      },
      "endCoords": {
        "latitude": 39.823415,
        "longitude": -104.998811
      },
      "distanceMeters": 24955.0,
      "durationMs": 3813000,
      "drivingDurationMs": 3312053,
      "idlingDurationMs": 500947,
      "fuelConsumedMl": 1128,
      "fuelConsumedGallons": 0.298,
      "maxSpeedMph": 34.2,
      "averageSpeedMph": 14.6,
      "safetyEvents": []
    },
    {
      "id": "trip_40026912_20250308_9271",
      "vehicleId": "40026912",
      "driverId": "20000020",
      "startMs": 1741438800000,
      "endMs": 1741448355000,
      "startAddress": "845 Roberson Passage Apt. 345",
      "endAddress": "20931 Stephen Shore",
      "startCoords": {
        "latitude": 39.823065,
        "longitude": -104.978879
      },
      "endCoords": {
        "latitude": 39.708118,
        "longitude": -104.971683
      },
      "distanceMeters": 56878.3,
      "durationMs": 9555000,
      "drivingDurationMs": 8001624,
      "idlingDurationMs": 1553376,
      "fuelConsumedMl": 2574,
      "fuelConsumedGallons": 0.68,
      "maxSpeedMph": 40.4,
      "averageSpeedMph": 13.3,
      "safetyEvents": []
    },
    {
      "id": "trip_40026912_20250308_9298",
      "vehicleId": "40026912",
      "driverId": "20000015",
      "startMs": 1741451836000,
      "endMs": 1741456326000,
      "startAddress": "6414 Riddle Rapid",
      "endAddress": "380 Jones Pass",
      "startCoords": {
        "latitude": 39.699579,
        "longitude": -104.914071
      },
      "endCoords": {
        "latitude": 39.811004,
        "longitude": -105.012963
      },
      "distanceMeters": 34340.0,
      "durationMs": 4490000,
      "drivingDurationMs": 3495973,
      "idlingDurationMs": 994027,
      "fuelConsumedMl": 1552,
      "fuelConsumedGallons": 0.41,
      "maxSpeedMph": 39.3,
      "averageSpeedMph": 17.1,
      "safetyEvents": []
    },
    {
      "id": "trip_40026912_20250308_9325",
      "vehicleId": "40026912",
      "driverId": "20000008",
      "startMs": 1741469245000,
      "endMs": 1741470385000,
      "startAddress": "559 Munoz Plain Apt. 250",
      "endAddress": "38454 Collins Corners",
      "startCoords": {
        "latitude": 39.7329,
        "longitude": -105.087066
      },
      "endCoords": {
        "latitude": 39.759868,
        "longitude": -104.922285
      },
      "distanceMeters": 5855.4,
      "durationMs": 1140000,
      "drivingDurationMs": 874408,
      "idlingDurationMs": 265592,
      "fuelConsumedMl": 265,
      "fuelConsumedGallons": 0.07,
      "maxSpeedMph": 33.1,
      "averageSpeedMph": 11.5,
      "safetyEvents": []
    },
    {
      "id": "trip_40026912_20250309_9358",
      "vehicleId": "40026912",
      "driverId": "20000002",
      "startMs": 1741484655000,
      "endMs": 1741486215000,
      "startAddress": "2137 Ashlee Spring Apt. 682",
      "endAddress": "6163 Hardy Mountains Apt. 579",
      "startCoords": {
        "latitude": 39.774014,
        "longitude": -104.951547
      },
      "endCoords": {
        "latitude": 39.757648,
        "longitude": -104.983921
      },
      "distanceMeters": 13138.5,
      "durationMs": 1560000,
      "drivingDurationMs": 1372925,
      "idlingDurationMs": 187075,
      "fuelConsumedMl": 594,
      "fuelConsumedGallons": 0.157,
      "maxSpeedMph": 32.0,
      "averageSpeedMph": 18.8,
      "safetyEvents": []
    },
    {
      "id": "trip_40026912_20250309_9384",
      "vehicleId": "40026912",
      "driverId": "20000014",
      "startMs": 1741505105000,
      "endMs": 1741515915000,
      "startAddress": "48874 Blake Bridge",
      "endAddress": "21508 Henry Branch Apt. 633",
      "startCoords": {
        "latitude": 39.723043,
        "longitude": -104.93642
      },
      "endCoords": {
        "latitude": 39.719774,
        "longitude": -105.035825
      },
      "distanceMeters": 81299.5,
      "durationMs": 10810000,
      "drivingDurationMs": 9329693,
      "idlingDurationMs": 1480307,
      "fuelConsumedMl": 3676,
      "fuelConsumedGallons": 0.971,
      "maxSpeedMph": 41.7,
      "averageSpeedMph": 16.8,
      "safetyEvents": []
    },
    {
      "id": "trip_40026912_20250309_9413",
      "vehicleId": "40026912",
      "driverId": "20000005",
      "startMs": 1741524507000,
      "endMs": 1741526547000,
      "startAddress": "355 Duncan Bypass",
      "endAddress": "30719 Floyd Turnpike",
      "startCoords": {
        "latitude": 39.817735,
        "longitude": -104.982926
      },
      "endCoords": {
        "latitude": 39.779079,
        "longitude": -104.937021
      },
      "distanceMeters": 12639.7,
      "durationMs": 2040000,
      "drivingDurationMs": 1736369,
      "idlingDurationMs": 303631,
      "fuelConsumedMl": 572,
      "fuelConsumedGallons": 0.151,
      "maxSpeedMph": 38.5,
      "averageSpeedMph": 13.9,
      "safetyEvents": []
    },
    {
      "id": "trip_40026912_20250309_9439",
      "vehicleId": "40026912",
      "driverId": "20000007",
      "startMs": 1741548177000,
      "endMs": 1741550157000,
      "startAddress": "187 Veronica Way Suite 057",
      "endAddress": "6402 Adam Roads Suite 553",
      "startCoords": {
        "latitude": 39.688797,
        "longitude": -105.066975
      },
      "endCoords": {
        "latitude": 39.817448,
        "longitude": -105.04075
      },
      "distanceMeters": 12112.7,
      "durationMs": 1980000,
      "drivingDurationMs": 1511025,
      "idlingDurationMs": 468975,
      "fuelConsumedMl": 549,
      "fuelConsumedGallons": 0.145,
      "maxSpeedMph": 45.9,
      "averageSpeedMph": 13.7,
      "safetyEvents": []
    },
    {
      "id": "trip_40026912_20250310_9469",
      "vehicleId": "40026912",
      "driverId": "20000005",
      "startMs": 1741591892000,
      "endMs": 1741595463000,
      "startAddress": "35539 Ian Ports Apt. 743",
      "endAddress": "73130 Mccullough Mews Suite 006",
      "startCoords": {
        "latitude": 39.707176,
        "longitude": -104.929304
      },
      "endCoords": {
        "latitude": 39.730608,
        "longitude": -104.94571
      },
      "distanceMeters": 22064.8,
      "durationMs": 3571000,
      "drivingDurationMs": 2775730,
      "idlingDurationMs": 795270,
      "fuelConsumedMl": 999,
      "fuelConsumedGallons": 0.264,
      "maxSpeedMph": 42.4,
      "averageSpeedMph": 13.8,
      "safetyEvents": []
    },
    {
      "id": "trip_40026912_20250310_9497",
      "vehicleId": "40026912",
      "driverId": "20000015",
      "startMs": 1741602021000,
      "endMs": 1741604181000,
      "startAddress": "1316 Wayne Parkways Apt. 020",
      "endAddress": "70266 Cole Parks",
      "startCoords": {
        "latitude": 39.706758,
        "longitude": -104.962388
      },
      "endCoords": {
        "latitude": 39.738623,
        "longitude": -105.022173
      },
      "distanceMeters": 13590.3,
      "durationMs": 2160000,
      "drivingDurationMs": 1745142,
      "idlingDurationMs": 414858,
      "fuelConsumedMl": 613,
      "fuelConsumedGallons": 0.162,
      "maxSpeedMph": 38.5,
      "averageSpeedMph": 14.1,
      "safetyEvents": []
    },
    {
      "id": "trip_40026912_20250310_9526",
      "vehicleId": "40026912",
      "driverId": "20000001",
      "startMs": 1741615052000,
      "endMs": 1741619464000,
      "startAddress": "005 Kelly Courts",
      "endAddress": "909 Alicia Point",
      "startCoords": {
        "latitude": 39.729649,
        "longitude": -105.013413
      },
      "endCoords": {
        "latitude": 39.765696,
        "longitude": -105.084812
      },
      "distanceMeters": 34127.2,
      "durationMs": 4412000,
      "drivingDurationMs": 3595155,
      "idlingDurationMs": 816845,
      "fuelConsumedMl": 1544,
      "fuelConsumedGallons": 0.408,
      "maxSpeedMph": 39.3,
      "averageSpeedMph": 17.3,
      "safetyEvents": []
    },
    {
      "id": "trip_40026912_20250310_9558",
      "vehicleId": "40026912",
      "driverId": "20000018",
      "startMs": 1741629937000,
      "endMs": 1741644787000,
      "startAddress": "72319 Hawkins Fort Apt. 267",
      "endAddress": "7941 Theresa Highway Suite 491",
      "startCoords": {
        "latitude": 39.716536,
        "longitude": -105.065857
      },
      "endCoords": {
        "latitude": 39.733924,
        "longitude": -104.943855
      },
      "distanceMeters": 119709.4,
      "durationMs": 14850000,
      "drivingDurationMs": 12435668,
      "idlingDurationMs": 2414332,
      "fuelConsumedMl": 5413,
      "fuelConsumedGallons": 1.43,
      "maxSpeedMph": 32.0,
      "averageSpeedMph": 18.0,
      "safetyEvents": []
    },
    {
      "id": "trip_40026912_20250310_9590",
      "vehicleId": "40026912",
      "driverId": "20000012",
      "startMs": 1741646123000,
      "endMs": 1741650125000,
      "startAddress": "0167 Davis Viaduct Suite 661",
      "endAddress": "4126 Nancy Meadow",
      "startCoords": {
        "latitude": 39.780893,
        "longitude": -105.037701
      },
      "endCoords": {
        "latitude": 39.690906,
        "longitude": -105.051148
      },
      "distanceMeters": 34919.4,
      "durationMs": 4002000,
      "drivingDurationMs": 3313124,
      "idlingDurationMs": 688876,
      "fuelConsumedMl": 1579,
      "fuelConsumedGallons": 0.417,
      "maxSpeedMph": 46.9,
      "averageSpeedMph": 19.5,
      "safetyEvents": []
    },
    {
      "id": "trip_40026912_20250311_9622",
      "vehicleId": "40026912",
      "driverId": "20000008",
      "startMs": 1741666640000,
      "endMs": 1741668440000,
      "startAddress": "481 Merritt Highway",
      "endAddress": "124 Mathew Islands Apt. 683",
      "startCoords": {
        "latitude": 39.714687,
        "longitude": -104.901563
      },
      "endCoords": {
        "latitude": 39.819297,
        "longitude": -105.07357
      },
      "distanceMeters": 12721.9,
      "durationMs": 1800000,
      "drivingDurationMs": 1513775,
      "idlingDurationMs": 286225,
      "fuelConsumedMl": 575,
      "fuelConsumedGallons": 0.152,
      "maxSpeedMph": 32.9,
      "averageSpeedMph": 15.8,
      "safetyEvents": []
    },
    {
      "id": "trip_40026912_20250311_9650",
      "vehicleId": "40026912",
      "driverId": "20000006",
      "startMs": 1741684500000,
      "endMs": 1741701479000,
      "startAddress": "419 Fisher Islands Apt. 664",
      "endAddress": "691 Evans Views Apt. 189",
      "startCoords": {
        "latitude": 39.719499,
        "longitude": -104.971661
      },
      "endCoords": {
        "latitude": 39.782406,
        "longitude": -104.992307
      },
      "distanceMeters": 123134.8,
      "durationMs": 16979000,
      "drivingDurationMs": 13117791,
      "idlingDurationMs": 3861209,
      "fuelConsumedMl": 5568,
      "fuelConsumedGallons": 1.471,
      "maxSpeedMph": 38.7,
      "averageSpeedMph": 16.2,
      "safetyEvents": []
    },
    {
      "id": "trip_40026912_20250311_9687",
      "vehicleId": "40026912",
      "driverId": "20000013",
      "startMs": 1741702344000,
      "endMs": 1741704564000,
      "startAddress": "412 Bennett Ford Suite 851",
      "endAddress": "644 Jennifer Turnpike",
      "startCoords": {
        "latitude": 39.823209,
        "longitude": -105.029701
      },
      "endCoords": {
        "latitude": 39.694277,
        "longitude": -104.945914
      },
      "distanceMeters": 11623.1,
      "durationMs": 2220000,
      "drivingDurationMs": 1805065,
      "idlingDurationMs": 414935,
      "fuelConsumedMl": 526,
      "fuelConsumedGallons": 0.139,
      "maxSpeedMph": 30.9,
      "averageSpeedMph": 11.7,
      "safetyEvents": []
    },
    {
      "id": "trip_40026912_20250311_9713",
      "vehicleId": "40026912",
      "driverId": "20000005",
      "startMs": 1741713468000,
      "endMs": 1741723718000,
      "startAddress": "49623 Julia Spurs",
      "endAddress": "314 Morales Pike",
      "startCoords": {
        "latitude": 39.699249,
        "longitude": -105.015142
      },
      "endCoords": {
        "latitude": 39.687236,
        "longitude": -105.002565
      },
      "distanceMeters": 71357.4,
      "durationMs": 10250000,
      "drivingDurationMs": 8490484,
      "idlingDurationMs": 1759516,
      "fuelConsumedMl": 3229,
      "fuelConsumedGallons": 0.853,
      "maxSpeedMph": 34.4,
      "averageSpeedMph": 15.6,
      "safetyEvents": []
    },
    {
      "id": "trip_40026912_20250311_9742",
      "vehicleId": "40026912",
      "driverId": "20000019",
      "startMs": 1741730280000,
      "endMs": 1741732260000,
      "startAddress": "30675 Francis Park",
      "endAddress": "4927 Conrad Parkway",
      "startCoords": {
        "latitude": 39.750402,
        "longitude": -105.00185
      },
      "endCoords": {
        "latitude": 39.779937,
        "longitude": -105.0251
      },
      "distanceMeters": 11942.8,
      "durationMs": 1980000,
      "drivingDurationMs": 1589087,
      "idlingDurationMs": 390913,
      "fuelConsumedMl": 541,
      "fuelConsumedGallons": 0.143,
      "maxSpeedMph": 47.0,
      "averageSpeedMph": 13.5,
      "safetyEvents": []
    },
    {
      "id": "trip_40026912_20250312_9773",
      "vehicleId": "40026912",
      "driverId": "20000009",
      "startMs": 1741748741000,
      "endMs": 1741752022000,
      "startAddress": "4053 Rodney Dam Suite 688",
      "endAddress": "4691 Velasquez Plains Suite 574",
      "startCoords": {
        "latitude": 39.760121,
        "longitude": -105.004922
      },
      "endCoords": {
        "latitude": 39.815319,
        "longitude": -104.992093
      },
      "distanceMeters": 25384.1,
      "durationMs": 3281000,
      "drivingDurationMs": 2836085,
      "idlingDurationMs": 444915,
      "fuelConsumedMl": 1147,
      "fuelConsumedGallons": 0.303,
      "maxSpeedMph": 33.0,
      "averageSpeedMph": 17.3,
      "safetyEvents": []
    },
    {
      "id": "trip_40026912_20250312_9800",
      "vehicleId": "40026912",
      "driverId": "20000003",
      "startMs": 1741764628000,
      "endMs": 1741775573000,
      "startAddress": "4407 Estrada Fall Suite 397",
      "endAddress": "6099 Pugh Viaduct",
      "startCoords": {
        "latitude": 39.826935,
        "longitude": -105.000501
      },
      "endCoords": {
        "latitude": 39.729748,
        "longitude": -105.032045
      },
      "distanceMeters": 79577.9,
      "durationMs": 10945000,
      "drivingDurationMs": 8881928,
      "idlingDurationMs": 2063072,
      "fuelConsumedMl": 3600,
      "fuelConsumedGallons": 0.951,
      "maxSpeedMph": 42.6,
      "averageSpeedMph": 16.3,
      "safetyEvents": []
    },
    {
      "id": "trip_40026912_20250312_9829",
      "vehicleId": "40026912",
      "driverId": "20000019",
      "startMs": 1741781526000,
      "endMs": 1741783266000,
      "startAddress": "8577 Michael Mountain Suite 955",
      "endAddress": "66103 Montoya Overpass Apt. 184",
      "startCoords": {
        "latitude": 39.763354,
        "longitude": -104.908202
      },
      "endCoords": {
        "latitude": 39.739696,
        "longitude": -104.965354
      },
      "distanceMeters": 13235.7,
      "durationMs": 1740000,
      "drivingDurationMs": 1534346,
      "idlingDurationMs": 205654,
      "fuelConsumedMl": 598,
      "fuelConsumedGallons": 0.158,
      "maxSpeedMph": 42.1,
      "averageSpeedMph": 17.0,
      "safetyEvents": []
    },
    {
      "id": "trip_40026912_20250312_9858",
      "vehicleId": "40026912",
      "driverId": "20000015",
      "startMs": 1741794774000,
      "endMs": 1741801832000,
      "startAddress": "52802 Jeremy Square",
      "endAddress": "3877 Valerie Walk Apt. 082",
      "startCoords": {
        "latitude": 39.697381,
        "longitude": -104.922847
      },
      "endCoords": {
        "latitude": 39.771156,
        "longitude": -105.058335
      },
      "distanceMeters": 58346.5,
      "durationMs": 7058000,
      "drivingDurationMs": 6027360,
      "idlingDurationMs": 1030640,
      "fuelConsumedMl": 2638,
      "fuelConsumedGallons": 0.697,
      "maxSpeedMph": 43.5,
      "averageSpeedMph": 18.5,
      "safetyEvents": []
    },
    {
      "id": "trip_40026912_20250312_9884",
      "vehicleId": "40026912",
      "driverId": "20000007",
      "startMs": 1741806481000,
      "endMs": 1741808798000,
      "startAddress": "6767 Jones Manor Apt. 890",
      "endAddress": "83016 Owens Villages Apt. 574",
      "startCoords": {
        "latitude": 39.793216,
        "longitude": -104.998994
      },
      "endCoords": {
        "latitude": 39.819191,
        "longitude": -104.950345
      },
      "distanceMeters": 20146.1,
      "durationMs": 2317000,
      "drivingDurationMs": 2082541,
      "idlingDurationMs": 234459,
      "fuelConsumedMl": 912,
      "fuelConsumedGallons": 0.241,
      "maxSpeedMph": 31.4,
      "averageSpeedMph": 19.4,
      "safetyEvents": []
    },
    {
      "id": "trip_40026912_20250312_9911",
      "vehicleId": "40026912",
      "driverId": "20000014",
      "startMs": 1741822697000,
      "endMs": 1741827788000,
      "startAddress": "85094 Hopkins Knolls Apt. 277",
      "endAddress": "50520 Kevin Isle",
      "startCoords": {
        "latitude": 39.772675,
        "longitude": -104.92292
      },
      "endCoords": {
        "latitude": 39.783865,
        "longitude": -105.005629
      },
      "distanceMeters": 42004.8,
      "durationMs": 5091000,
      "drivingDurationMs": 4363503,
      "idlingDurationMs": 727497,
      "fuelConsumedMl": 1900,
      "fuelConsumedGallons": 0.502,
      "maxSpeedMph": 36.9,
      "averageSpeedMph": 18.5,
      "safetyEvents": []
    },
    {
      "id": "trip_40026912_20250313_9939",
      "vehicleId": "40026912",
      "driverId": "20000013",
      "startMs": 1741839088000,
      "endMs": 1741841308000,
      "startAddress": "335 Jon Oval Suite 591",
      "endAddress": "22946 Jack Plaza Suite 855",
      "startCoords": {
        "latitude": 39.778964,
        "longitude": -105.041911
      },
      "endCoords": {
        "latitude": 39.803099,
        "longitude": -104.96883
      },
      "distanceMeters": 14532.6,
      "durationMs": 2220000,
      "drivingDurationMs": 1946981,
      "idlingDurationMs": 273019,
      "fuelConsumedMl": 659,
      "fuelConsumedGallons": 0.174,
      "maxSpeedMph": 34.6,
      "averageSpeedMph": 14.6,
      "safetyEvents": []
    },
    {
      "id": "trip_40026912_20250313_9970",
      "vehicleId": "40026912",
      "driverId": "20000020",
      "startMs": 1741852950000,
      "endMs": 1741854690000,
      "startAddress": "82670 Elliott Creek",
      "endAddress": "743 Rebecca Crossing",
      "startCoords": {
        "latitude": 39.714194,
        "longitude": -104.906555
      },
      "endCoords": {
        "latitude": 39.727401,
        "longitude": -104.971935
      },
      "distanceMeters": 9497.8,
      "durationMs": 1740000,
      "drivingDurationMs": 1537167,
      "idlingDurationMs": 202833,
      "fuelConsumedMl": 428,
      "fuelConsumedGallons": 0.113,
      "maxSpeedMph": 42.8,
      "averageSpeedMph": 12.2,
      "safetyEvents": []
    },
    {
      "id": "trip_40026912_20250313_9995",
      "vehicleId": "40026912",
      "driverId": "20000008",
      "startMs": 1741867845000,
      "endMs": 1741869345000,
      "startAddress": "32507 Keith Park",
      "endAddress": "54184 Sharp Circle",
      "startCoords": {
        "latitude": 39.776952,
        "longitude": -105.04465
      },
      "endCoords": {
        "latitude": 39.691748,
        "longitude": -104.998116
      },
      "distanceMeters": 11533.6,
      "durationMs": 1500000,
      "drivingDurationMs": 1317762,
      "idlingDurationMs": 182238,
      "fuelConsumedMl": 522,
      "fuelConsumedGallons": 0.138,
      "maxSpeedMph": 44.0,
      "averageSpeedMph": 17.2,
      "safetyEvents": []
    },
    {
      "id": "trip_40026912_20250313_10027",
      "vehicleId": "40026912",
      "driverId": "20000009",
      "startMs": 1741886565000,
      "endMs": 1741888185000,
      "startAddress": "7172 Thomas Square Apt. 683",
      "endAddress": "91997 Valerie Passage Suite 983",
      "startCoords": {
        "latitude": 39.821984,
        "longitude": -104.904057
      },
      "endCoords": {
        "latitude": 39.746507,
        "longitude": -104.97321
      },
      "distanceMeters": 12149.1,
      "durationMs": 1620000,
      "drivingDurationMs": 1250878,
      "idlingDurationMs": 369122,
      "fuelConsumedMl": 549,
      "fuelConsumedGallons": 0.145,
      "maxSpeedMph": 43.0,
      "averageSpeedMph": 16.8,
      "safetyEvents": []
    },
    {
      "id": "trip_40026912_20250313_10059",
      "vehicleId": "40026912",
      "driverId": "20000016",
      "startMs": 1741901419000,
      "endMs": 1741903459000,
      "startAddress": "8669 William Lodge",
      "endAddress": "710 Bullock Drive",
      "startCoords": {
        "latitude": 39.761636,
        "longitude": -104.962952
      },
      "endCoords": {
        "latitude": 39.687633,
        "longitude": -104.97064
      },
      "distanceMeters": 15680.6,
      "durationMs": 2040000,
      "drivingDurationMs": 1808333,
      "idlingDurationMs": 231667,
      "fuelConsumedMl": 708,
      "fuelConsumedGallons": 0.187,
      "maxSpeedMph": 44.5,
      "averageSpeedMph": 17.2,
      "safetyEvents": []
    },
    {
      "id": "trip_40026912_20250314_10084",
      "vehicleId": "40026912",
      "driverId": "20000019",
      "startMs": 1741915647000,
      "endMs": 1741917687000,
      "startAddress": "3072 Bryan Common Apt. 692",
      "endAddress": "3708 Jack Isle Apt. 575",
      "startCoords": {
        "latitude": 39.765669,
        "longitude": -104.925295
      },
      "endCoords": {
        "latitude": 39.81295,
        "longitude": -104.986884
      },
      "distanceMeters": 10102.0,
      "durationMs": 2040000,
      "drivingDurationMs": 1629209,
      "idlingDurationMs": 410791,
      "fuelConsumedMl": 458,
      "fuelConsumedGallons": 0.121,
      "maxSpeedMph": 34.4,
      "averageSpeedMph": 11.1,
      "safetyEvents": []
    },
    {
      "id": "trip_40026912_20250314_10115",
      "vehicleId": "40026912",
      "driverId": "20000011",
      "startMs": 1741931884000,
      "endMs": 1741933804000,
      "startAddress": "730 Kimberly Dale",
      "endAddress": "8527 Laura Ville Suite 484",
      "startCoords": {
        "latitude": 39.709729,
        "longitude": -104.957462
      },
      "endCoords": {
        "latitude": 39.81925,
        "longitude": -104.933666
      },
      "distanceMeters": 15808.5,
      "durationMs": 1920000,
      "drivingDurationMs": 1526845,
      "idlingDurationMs": 393155,
      "fuelConsumedMl": 715,
      "fuelConsumedGallons": 0.189,
      "maxSpeedMph": 46.1,
      "averageSpeedMph": 18.4,
      "safetyEvents": []
    },
    {
      "id": "trip_40026912_20250314_10143",
      "vehicleId": "40026912",
      "driverId": "20000021",
      "startMs": 1741943789000,
      "endMs": 1741949090000,
      "startAddress": "85808 Diane Groves Suite 033",
      "endAddress": "608 Phillips Center",
      "startCoords": {
        "latitude": 39.705809,
        "longitude": -104.978743
      },
      "endCoords": {
        "latitude": 39.734797,
        "longitude": -105.084837
      },
      "distanceMeters": 28677.8,
      "durationMs": 5301000,
      "drivingDurationMs": 4687372,
      "idlingDurationMs": 613628,
      "fuelConsumedMl": 1298,
      "fuelConsumedGallons": 0.343,
      "maxSpeedMph": 36.0,
      "averageSpeedMph": 12.1,
      "safetyEvents": []
    },
    {
      "id": "trip_40026912_20250314_10171",
      "vehicleId": "40026912",
      "driverId": "20000011",
      "startMs": 1741958682000,
      "endMs": 1741967857000,
      "startAddress": "0472 Christopher Knolls Apt. 130",
      "endAddress": "4043 Maria Groves Apt. 576",
      "startCoords": {
        "latitude": 39.702537,
        "longitude": -104.97024
      },
      "endCoords": {
        "latitude": 39.789532,
        "longitude": -104.931585
      },
      "distanceMeters": 76908.7,
      "durationMs": 9175000,
      "drivingDurationMs": 8179894,
      "idlingDurationMs": 995106,
      "fuelConsumedMl": 3479,
      "fuelConsumedGallons": 0.919,
      "maxSpeedMph": 38.3,
      "averageSpeedMph": 18.8,
      "safetyEvents": []
    },
    {
      "id": "trip_40026912_20250314_10203",
      "vehicleId": "40026912",
      "driverId": "20000019",
      "startMs": 1741974242000,
      "endMs": 1741987243000,
      "startAddress": "848 Bennett Key Apt. 240",
      "endAddress": "75447 Jake Wells Apt. 633",
      "startCoords": {
        "latitude": 39.783428,
        "longitude": -105.034892
      },
      "endCoords": {
        "latitude": 39.771939,
        "longitude": -104.997632
      },
      "distanceMeters": 105263.7,
      "durationMs": 13001000,
      "drivingDurationMs": 10875744,
      "idlingDurationMs": 2125256,
      "fuelConsumedMl": 4762,
      "fuelConsumedGallons": 1.258,
      "maxSpeedMph": 37.5,
      "averageSpeedMph": 18.1,
      "safetyEvents": []
    },
    {
      "id": "trip_40026912_20250314_10235",
      "vehicleId": "40026912",
      "driverId": "20000011",
      "startMs": 1741994413000,
      "endMs": 1741996093000,
      "startAddress": "3684 Ronnie Court",
      "endAddress": "949 Smith Shoals",
      "startCoords": {
        "latitude": 39.760036,
        "longitude": -105.055354
      },
      "endCoords": {
        "latitude": 39.744669,
        "longitude": -105.051246
      },
      "distanceMeters": 11533.0,
      "durationMs": 1680000,
      "drivingDurationMs": 1284159,
      "idlingDurationMs": 395841,
      "fuelConsumedMl": 522,
      "fuelConsumedGallons": 0.138,
      "maxSpeedMph": 40.6,
      "averageSpeedMph": 15.4,
      "safetyEvents": []
    },
    {
      "id": "trip_40026912_20250315_10263",
      "vehicleId": "40026912",
      "driverId": "20000019",
      "startMs": 1742009702000,
      "endMs": 1742011262000,
      "startAddress": "18709 Jeffrey Bypass",
      "endAddress": "44918 Stephanie Trace",
      "startCoords": {
        "latitude": 39.80759,
        "longitude": -105.035496
      },
      "endCoords": {
        "latitude": 39.77241,
        "longitude": -105.010595
      },
      "distanceMeters": 7616.8,
      "durationMs": 1560000,
      "drivingDurationMs": 1172566,
      "idlingDurationMs": 387434,
      "fuelConsumedMl": 344,
      "fuelConsumedGallons": 0.091,
      "maxSpeedMph": 38.1,
      "averageSpeedMph": 10.9,
      "safetyEvents": []
    },
    {
      "id": "trip_40026912_20250315_10290",
      "vehicleId": "40026912",
      "driverId": "20000022",
      "startMs": 1742027162000,
      "endMs": 1742028842000,
      "startAddress": "47066 Yolanda Isle",
      "endAddress": "44024 Bell Skyway Apt. 557",
      "startCoords": {
        "latitude": 39.804782,
        "longitude": -105.021317
      },
      "endCoords": {
        "latitude": 39.810781,
        "longitude": -105.052641
      },
      "distanceMeters": 10740.9,
      "durationMs": 1680000,
      "drivingDurationMs": 1287782,
      "idlingDurationMs": 392218,
      "fuelConsumedMl": 485,
      "fuelConsumedGallons": 0.128,
      "maxSpeedMph": 43.1,
      "averageSpeedMph": 14.3,
      "safetyEvents": []
    },
    {
      "id": "trip_40026912_20250315_10319",
      "vehicleId": "40026912",
      "driverId": "20000009",
      "startMs": 1742040858000,
      "endMs": 1742049191000,
      "startAddress": "214 Lee View",
      "endAddress": "448 Wong Via",
      "startCoords": {
        "latitude": 39.736527,
        "longitude": -104.933145
      },
      "endCoords": {
        "latitude": 39.734639,
        "longitude": -104.984794
      },
      "distanceMeters": 47720.1,
      "durationMs": 8333000,
      "drivingDurationMs": 6728866,
      "idlingDurationMs": 1604134,
      "fuelConsumedMl": 2158,
      "fuelConsumedGallons": 0.57,
      "maxSpeedMph": 35.4,
      "averageSpeedMph": 12.8,
      "safetyEvents": []
    },
    {
      "id": "trip_40026912_20250315_10349",
      "vehicleId": "40026912",
      "driverId": "20000013",
      "startMs": 1742055708000,
      "endMs": 1742062439000,
      "startAddress": "2121 Skinner Locks Suite 247",
      "endAddress": "15619 Isaiah Lakes",
      "startCoords": {
        "latitude": 39.712877,
        "longitude": -105.049568
      },
      "endCoords": {
        "latitude": 39.743591,
        "longitude": -105.085064
      },
      "distanceMeters": 36528.0,
      "durationMs": 6731000,
      "drivingDurationMs": 5439289,
      "idlingDurationMs": 1291711,
      "fuelConsumedMl": 1650,
      "fuelConsumedGallons": 0.436,
      "maxSpeedMph": 36.1,
      "averageSpeedMph": 12.1,
      "safetyEvents": []
    },
    {
      "id": "trip_40026912_20250315_10374",
      "vehicleId": "40026912",
      "driverId": "20000016",
      "startMs": 1742067024000,
      "endMs": 1742077350000,
      "startAddress": "7933 Jennifer Center",
      "endAddress": "4060 Lisa Mission",
      "startCoords": {
        "latitude": 39.734906,
        "longitude": -105.049308
      },
      "endCoords": {
        "latitude": 39.7642,
        "longitude": -105.023489
      },
      "distanceMeters": 58134.5,
      "durationMs": 10326000,
      "drivingDurationMs": 8470440,
      "idlingDurationMs": 1855560,
      "fuelConsumedMl": 2631,
      "fuelConsumedGallons": 0.695,
      "maxSpeedMph": 34.3,
      "averageSpeedMph": 12.6,
      "safetyEvents": []
    },
    {
      "id": "trip_40026912_20250316_10403",
      "vehicleId": "40026912",
      "driverId": "20000006",
      "startMs": 1742090946000,
      "endMs": 1742093226000,
      "startAddress": "42433 Kenneth Ridges",
      "endAddress": "7543 Bell Centers Suite 200",
      "startCoords": {
        "latitude": 39.730739,
        "longitude": -105.067947
      },
      "endCoords": {
        "latitude": 39.727024,
        "longitude": -105.023886
      },
      "distanceMeters": 13694.8,
      "durationMs": 2280000,
      "drivingDurationMs": 1737011,
      "idlingDurationMs": 542989,
      "fuelConsumedMl": 621,
      "fuelConsumedGallons": 0.164,
      "maxSpeedMph": 32.7,
      "averageSpeedMph": 13.4,
      "safetyEvents": []
    },
    {
      "id": "trip_40026912_20250316_10431",
      "vehicleId": "40026912",
      "driverId": "20000010",
      "startMs": 1742119788000,
      "endMs": 1742121168000,
      "startAddress": "260 Lori Mount Apt. 226",
      "endAddress": "084 James Stream",
      "startCoords": {
        "latitude": 39.778751,
        "longitude": -104.95602
      },
      "endCoords": {
        "latitude": 39.766769,
        "longitude": -104.962175
      },
      "distanceMeters": 12346.7,
      "durationMs": 1380000,
      "drivingDurationMs": 1216205,
      "idlingDurationMs": 163795,
      "fuelConsumedMl": 560,
      "fuelConsumedGallons": 0.148,
      "maxSpeedMph": 34.3,
      "averageSpeedMph": 20.0,
      "safetyEvents": []
    },
    {
      "id": "trip_40026912_20250316_10456",
      "vehicleId": "40026912",
      "driverId": "20000005",
      "startMs": 1742134076000,
      "endMs": 1742136557000,
      "startAddress": "4164 Maria Curve",
      "endAddress": "5754 Tanya Drive",
      "startCoords": {
        "latitude": 39.801627,
        "longitude": -104.998258
      },
      "endCoords": {
        "latitude": 39.737969,
        "longitude": -104.903385
      },
      "distanceMeters": 13732.2,
      "durationMs": 2481000,
      "drivingDurationMs": 1895385,
      "idlingDurationMs": 585615,
      "fuelConsumedMl": 621,
      "fuelConsumedGallons": 0.164,
      "maxSpeedMph": 40.0,
      "averageSpeedMph": 12.4,
      "safetyEvents": []
    },
    {
      "id": "trip_40026912_20250316_10482",
      "vehicleId": "40026912",
      "driverId": "20000002",
      "startMs": 1742152745000,
      "endMs": 1742154665000,
      "startAddress": "9838 Foster Landing Suite 870",
      "endAddress": "409 Todd Unions",
      "startCoords": {
        "latitude": 39.727202,
        "longitude": -104.941755
      },
      "endCoords": {
        "latitude": 39.794594,
        "longitude": -105.0513
      },
      "distanceMeters": 14163.9,
      "durationMs": 1920000,
      "drivingDurationMs": 1709018,
      "idlingDurationMs": 210982,
      "fuelConsumedMl": 640,
      "fuelConsumedGallons": 0.169,
      "maxSpeedMph": 31.9,
      "averageSpeedMph": 16.5,
      "safetyEvents": []
    },
    {
      "id": "trip_40026912_20250317_10511",
      "vehicleId": "40026912",
      "driverId": "20000003",
      "startMs": 1742180563000,
      "endMs": 1742182783000,
      "startAddress": "764 Charles Garden Suite 765",
      "endAddress": "16163 John Alley Apt. 573",
      "startCoords": {
        "latitude": 39.742643,
        "longitude": -105.017211
      },
      "endCoords": {
        "latitude": 39.693665,
        "longitude": -105.06559
      },
      "distanceMeters": 13754.1,
      "durationMs": 2220000,
      "drivingDurationMs": 1675207,
      "idlingDurationMs": 544793,
      "fuelConsumedMl": 621,
      "fuelConsumedGallons": 0.164,
      "maxSpeedMph": 37.9,
      "averageSpeedMph": 13.9,
      "safetyEvents": []
    },
    {
      "id": "trip_40026912_20250317_10538",
      "vehicleId": "40026912",
      "driverId": "20000009",
      "startMs": 1742205794000,
      "endMs": 1742207954000,
      "startAddress": "7890 April Pike Suite 076",
      "endAddress": "209 Katie Inlet",
      "startCoords": {
        "latitude": 39.75835,
        "longitude": -104.921333
      },
      "endCoords": {
        "latitude": 39.704596,
        "longitude": -104.928637
      },
      "distanceMeters": 11105.6,
      "durationMs": 2160000,
      "drivingDurationMs": 1645079,
      "idlingDurationMs": 514921,
      "fuelConsumedMl": 503,
      "fuelConsumedGallons": 0.133,
      "maxSpeedMph": 38.2,
      "averageSpeedMph": 11.5,
      "safetyEvents": []
    },
    {
      "id": "trip_40026912_20250317_10569",
      "vehicleId": "40026912",
      "driverId": "20000020",
      "startMs": 1742220236000,
      "endMs": 1742226056000,
      "startAddress": "41305 Mary Oval Suite 443",
      "endAddress": "357 Johnson Squares",
      "startCoords": {
        "latitude": 39.715487,
        "longitude": -105.00043
      },
      "endCoords": {
        "latitude": 39.729101,
        "longitude": -105.03041
      },
      "distanceMeters": 41698.1,
      "durationMs": 5820000,
      "drivingDurationMs": 4374609,
      "idlingDurationMs": 1445391,
      "fuelConsumedMl": 1885,
      "fuelConsumedGallons": 0.498,
      "maxSpeedMph": 35.6,
      "averageSpeedMph": 16.0,
      "safetyEvents": []
    },
    {
      "id": "trip_40026912_20250317_10597",
      "vehicleId": "40026912",
      "driverId": "20000007",
      "startMs": 1742232639000,
      "endMs": 1742253636000,
      "startAddress": "97223 Roach Square Apt. 979",
      "endAddress": "868 Patrick Neck Suite 994",
      "startCoords": {
        "latitude": 39.812111,
        "longitude": -105.053181
      },
      "endCoords": {
        "latitude": 39.775231,
        "longitude": -104.938334
      },
      "distanceMeters": 159746.6,
      "durationMs": 20997000,
      "drivingDurationMs": 17057074,
      "idlingDurationMs": 3939926,
      "fuelConsumedMl": 7226,
      "fuelConsumedGallons": 1.909,
      "maxSpeedMph": 46.4,
      "averageSpeedMph": 17.0,
      "safetyEvents": []
    },
    {
      "id": "trip_40026912_20250317_10634",
      "vehicleId": "40026912",
      "driverId": "20000018",
      "startMs": 1742254372000,
      "endMs": 1742259755000,
      "startAddress": "9213 Harris Lane",
      "endAddress": "71692 Diana Estates",
      "startCoords": {
        "latitude": 39.685849,
        "longitude": -104.997654
      },
      "endCoords": {
        "latitude": 39.716834,
        "longitude": -105.080271
      },
      "distanceMeters": 29348.9,
      "durationMs": 5383000,
      "drivingDurationMs": 4132492,
      "idlingDurationMs": 1250508,
      "fuelConsumedMl": 1329,
      "fuelConsumedGallons": 0.351,
      "maxSpeedMph": 32.5,
      "averageSpeedMph": 12.2,
      "safetyEvents": []
    },
    {
      "id": "trip_40026912_20250318_10662",
      "vehicleId": "40026912",
      "driverId": "20000014",
      "startMs": 1742269209000,
      "endMs": 1742271189000,
      "startAddress": "1138 Brown Loop",
      "endAddress": "646 Claire Inlet",
      "startCoords": {
        "latitude": 39.706352,
        "longitude": -104.939481
      },
      "endCoords": {
        "latitude": 39.69816,
        "longitude": -104.949906
      },
      "distanceMeters": 13325.1,
      "durationMs": 1980000,
      "drivingDurationMs": 1698529,
      "idlingDurationMs": 281471,
      "fuelConsumedMl": 602,
      "fuelConsumedGallons": 0.159,
      "maxSpeedMph": 31.0,
      "averageSpeedMph": 15.1,
      "safetyEvents": []
    },
    {
      "id": "trip_40026912_20250318_10685",
      "vehicleId": "40026912",
      "driverId": "20000022",
      "startMs": 1742285764000,
      "endMs": 1742287744000,
      "startAddress": "0052 Melissa Bridge Apt. 780",
      "endAddress": "934 Christopher Locks",
      "startCoords": {
        "latitude": 39.686103,
        "longitude": -105.000309
      },
      "endCoords": {
        "latitude": 39.704136,
        "longitude": -105.055049
      },
      "distanceMeters": 13791.8,
      "durationMs": 1980000,
      "drivingDurationMs": 1736113,
      "idlingDurationMs": 243887,
      "fuelConsumedMl": 625,
      "fuelConsumedGallons": 0.165,
      "maxSpeedMph": 43.8,
      "averageSpeedMph": 15.6,
      "safetyEvents": []
    },
    {
      "id": "trip_40026912_20250318_10717",
      "vehicleId": "40026912",
      "driverId": "20000016",
      "startMs": 1742298341000,
      "endMs": 1742303592000,
      "startAddress": "3107 Vincent Cliff Suite 259",
      "endAddress": "86540 Young Islands Apt. 847",
      "startCoords": {
        "latitude": 39.779749,
        "longitude": -104.919509
      },
      "endCoords": {
        "latitude": 39.765914,
        "longitude": -104.903307
      },
      "distanceMeters": 28133.7,
      "durationMs": 5251000,
      "drivingDurationMs": 4059709,
      "idlingDurationMs": 1191291,
      "fuelConsumedMl": 1272,
      "fuelConsumedGallons": 0.336,
      "maxSpeedMph": 43.5,
      "averageSpeedMph": 12.0,
      "safetyEvents": []
    },
    {
      "id": "trip_40026912_20250318_10747",
      "vehicleId": "40026912",
      "driverId": "20000022",
      "startMs": 1742311739000,
      "endMs": 1742319710000,
      "startAddress": "00413 Turner Mountain Suite 227",
      "endAddress": "396 Smith Knoll Suite 855",
      "startCoords": {
        "latitude": 39.75309,
        "longitude": -104.933663
      },
      "endCoords": {
        "latitude": 39.740465,
        "longitude": -104.990899
      },
      "distanceMeters": 44555.9,
      "durationMs": 7971000,
      "drivingDurationMs": 6022093,
      "idlingDurationMs": 1948907,
      "fuelConsumedMl": 2014,
      "fuelConsumedGallons": 0.532,
      "maxSpeedMph": 35.1,
      "averageSpeedMph": 12.5,
      "safetyEvents": []
    },
    {
      "id": "trip_40026912_20250318_10779",
      "vehicleId": "40026912",
      "driverId": "20000008",
      "startMs": 1742327880000,
      "endMs": 1742329620000,
      "startAddress": "966 Kimberly Cape Apt. 672",
      "endAddress": "0262 Samuel Springs Suite 017",
      "startCoords": {
        "latitude": 39.818809,
        "longitude": -104.9799
      },
      "endCoords": {
        "latitude": 39.717489,
        "longitude": -105.036283
      },
      "distanceMeters": 11831.0,
      "durationMs": 1740000,
      "drivingDurationMs": 1328378,
      "idlingDurationMs": 411622,
      "fuelConsumedMl": 534,
      "fuelConsumedGallons": 0.141,
      "maxSpeedMph": 41.7,
      "averageSpeedMph": 15.2,
      "safetyEvents": []
    },
    {
      "id": "trip_40026912_20250319_10809",
      "vehicleId": "40026912",
      "driverId": "20000011",
      "startMs": 1742344438000,
      "endMs": 1742346598000,
      "startAddress": "23366 Jennifer Skyway Suite 676",
      "endAddress": "297 Cody Walk",
      "startCoords": {
        "latitude": 39.770721,
        "longitude": -104.963937
      },
      "endCoords": {
        "latitude": 39.736267,
        "longitude": -104.900128
      },
      "distanceMeters": 15881.6,
      "durationMs": 2160000,
      "drivingDurationMs": 1794316,
      "idlingDurationMs": 365684,
      "fuelConsumedMl": 719,
      "fuelConsumedGallons": 0.19,
      "maxSpeedMph": 45.5,
      "averageSpeedMph": 16.4,
      "safetyEvents": []
    },
    {
      "id": "trip_40026912_20250319_10836",
      "vehicleId": "40026912",
      "driverId": "20000011",
      "startMs": 1742357114000,
      "endMs": 1742359945000,
      "startAddress": "04805 Sutton Skyway",
      "endAddress": "0848 Angela Cove Suite 068",
      "startCoords": {
        "latitude": 39.762115,
        "longitude": -105.07428
      },
      "endCoords": {
        "latitude": 39.755925,
        "longitude": -104.909404
      },
      "distanceMeters": 15458.2,
      "durationMs": 2831000,
      "drivingDurationMs": 2250860,
      "idlingDurationMs": 580140,
      "fuelConsumedMl": 700,
      "fuelConsumedGallons": 0.185,
      "maxSpeedMph": 31.9,
      "averageSpeedMph": 12.2,
      "safetyEvents": []
    },
    {
      "id": "trip_40026912_20250319_10865",
      "vehicleId": "40026912",
      "driverId": "20000007",
      "startMs": 1742372788000,
      "endMs": 1742379101000,
      "startAddress": "906 Jessica Key Suite 219",
      "endAddress": "46532 Hernandez Estates Suite 219",
      "startCoords": {
        "latitude": 39.744774,
        "longitude": -105.008795
      },
      "endCoords": {
        "latitude": 39.774972,
        "longitude": -105.039598
      },
      "distanceMeters": 45280.4,
      "durationMs": 6313000,
      "drivingDurationMs": 5636263,
      "idlingDurationMs": 676737,
      "fuelConsumedMl": 2048,
      "fuelConsumedGallons": 0.541,
      "maxSpeedMph": 38.0,
      "averageSpeedMph": 16.0,
      "safetyEvents": []
    },
    {
      "id": "trip_40026912_20250319_10897",
      "vehicleId": "40026912",
      "driverId": "20000021",
      "startMs": 1742389168000,
      "endMs": 1742404895000,
      "startAddress": "3671 Amy Brook",
      "endAddress": "742 Wright Pine Suite 675",
      "startCoords": {
        "latitude": 39.783532,
        "longitude": -105.042188
      },
      "endCoords": {
        "latitude": 39.71245,
        "longitude": -104.994476
      },
      "distanceMeters": 87850.3,
      "durationMs": 15727000,
      "drivingDurationMs": 12058512,
      "idlingDurationMs": 3668488,
      "fuelConsumedMl": 3975,
      "fuelConsumedGallons": 1.05,
      "maxSpeedMph": 38.2,
      "averageSpeedMph": 12.5,
      "safetyEvents": []
    },
    {
      "id": "trip_40026912_20250319_10930",
      "vehicleId": "40026912",
      "driverId": "20000020",
      "startMs": 1742406116000,
      "endMs": 1742408036000,
      "startAddress": "9842 Lee Summit",
      "endAddress": "2471 Jacobs Road",
      "startCoords": {
        "latitude": 39.732694,
        "longitude": -104.96182
      },
      "endCoords": {
        "latitude": 39.728739,
        "longitude": -105.01285
      },
      "distanceMeters": 12320.5,
      "durationMs": 1920000,
      "drivingDurationMs": 1572879,
      "idlingDurationMs": 347121,
      "fuelConsumedMl": 556,
      "fuelConsumedGallons": 0.147,
      "maxSpeedMph": 44.6,
      "averageSpeedMph": 14.4,
      "safetyEvents": []
    },
    {
      "id": "trip_40026912_20250319_10962",
      "vehicleId": "40026912",
      "driverId": "20000017",
      "startMs": 1742420608000,
      "endMs": 1742424563000,
      "startAddress": "851 Strickland Island",
      "endAddress": "449 Steven Mill",
      "startCoords": {
        "latitude": 39.767256,
        "longitude": -105.010302
      },
      "endCoords": {
        "latitude": 39.701752,
        "longitude": -104.909072
      },
      "distanceMeters": 24867.6,
      "durationMs": 3955000,
      "drivingDurationMs": 3008202,
      "idlingDurationMs": 946798,
      "fuelConsumedMl": 1124,
      "fuelConsumedGallons": 0.297,
      "maxSpeedMph": 41.8,
      "averageSpeedMph": 14.1,
      "safetyEvents": []
    },
    {
      "id": "trip_40026912_20250320_10994",
      "vehicleId": "40026912",
      "driverId": "20000016",
      "startMs": 1742440680000,
      "endMs": 1742442840000,
      "startAddress": "44346 Kaitlyn Squares",
      "endAddress": "7537 Mario Villages",
      "startCoords": {
        "latitude": 39.750598,
        "longitude": -104.934991
      },
      "endCoords": {
        "latitude": 39.804308,
        "longitude": -105.078973
      },
      "distanceMeters": 12342.3,
      "durationMs": 2160000,
      "drivingDurationMs": 1632241,
      "idlingDurationMs": 527759,
      "fuelConsumedMl": 556,
      "fuelConsumedGallons": 0.147,
      "maxSpeedMph": 44.7,
      "averageSpeedMph": 12.8,
      "safetyEvents": []
    },
    {
      "id": "trip_40026912_20250320_11020",
      "vehicleId": "40026912",
      "driverId": "20000012",
      "startMs": 1742455638000,
      "endMs": 1742457978000,
      "startAddress": "659 Ryan Ferry",
      "endAddress": "84128 Tammy Crescent",
      "startCoords": {
        "latitude": 39.719382,
        "longitude": -104.952144
      },
      "endCoords": {
        "latitude": 39.722764,
        "longitude": -104.951665
      },
      "distanceMeters": 19735.6,
      "durationMs": 2340000,
      "drivingDurationMs": 1919730,
      "idlingDurationMs": 420270,
      "fuelConsumedMl": 893,
      "fuelConsumedGallons": 0.236,
      "maxSpeedMph": 42.2,
      "averageSpeedMph": 18.9,
      "safetyEvents": []
    },
    {
      "id": "trip_40026912_20250320_11048",
      "vehicleId": "40026912",
      "driverId": "20000011",
      "startMs": 1742468912000,
      "endMs": 1742473778000,
      "startAddress": "10236 Phillips Freeway Suite 421",
      "endAddress": "189 Dorothy Summit",
      "startCoords": {
        "latitude": 39.686893,
        "longitude": -105.042332
      },
      "endCoords": {
        "latitude": 39.790849,
        "longitude": -104.972094
      },
      "distanceMeters": 43369.1,
      "durationMs": 4866000,
      "drivingDurationMs": 4331352,
      "idlingDurationMs": 534648,
      "fuelConsumedMl": 1961,
      "fuelConsumedGallons": 0.518,
      "maxSpeedMph": 43.5,
      "averageSpeedMph": 19.9,
      "safetyEvents": []
    },
    {
      "id": "trip_40026912_20250320_11078",
      "vehicleId": "40026912",
      "driverId": "20000011",
      "startMs": 1742483203000,
      "endMs": 1742485243000,
      "startAddress": "353 Stephens Drive",
      "endAddress": "52658 Tyler Lane",
      "startCoords": {
        "latitude": 39.75455,
        "longitude": -105.003501
      },
      "endCoords": {
        "latitude": 39.814643,
        "longitude": -105.071549
      },
      "distanceMeters": 16569.9,
      "durationMs": 2040000,
      "drivingDurationMs": 1647886,
      "idlingDurationMs": 392114,
      "fuelConsumedMl": 750,
      "fuelConsumedGallons": 0.198,
      "maxSpeedMph": 44.1,
      "averageSpeedMph": 18.2,
      "safetyEvents": []
    },
    {
      "id": "trip_40026912_20250320_11107",
      "vehicleId": "40026912",
      "driverId": "20000010",
      "startMs": 1742500471000,
      "endMs": 1742506945000,
      "startAddress": "66484 Lisa Passage",
      "endAddress": "46123 Joy Unions",
      "startCoords": {
        "latitude": 39.78246,
        "longitude": -104.900762
      },
      "endCoords": {
        "latitude": 39.824144,
        "longitude": -104.900828
      },
      "distanceMeters": 46135.1,
      "durationMs": 6474000,
      "drivingDurationMs": 5623408,
      "idlingDurationMs": 850592,
      "fuelConsumedMl": 2086,
      "fuelConsumedGallons": 0.551,
      "maxSpeedMph": 44.3,
      "averageSpeedMph": 15.9,
      "safetyEvents": []
    },
    {
      "id": "trip_40026912_20250321_11141",
      "vehicleId": "40026912",
      "driverId": "20000021",
      "startMs": 1742524581000,
      "endMs": 1742527119000,
      "startAddress": "999 Colleen Brooks Suite 665",
      "endAddress": "849 Janet Junction Suite 645",
      "startCoords": {
        "latitude": 39.734229,
        "longitude": -104.959051
      },
      "endCoords": {
        "latitude": 39.823271,
        "longitude": -105.019635
      },
      "distanceMeters": 15724.4,
      "durationMs": 2538000,
      "drivingDurationMs": 2069136,
      "idlingDurationMs": 468864,
      "fuelConsumedMl": 712,
      "fuelConsumedGallons": 0.188,
      "maxSpeedMph": 33.0,
      "averageSpeedMph": 13.9,
      "safetyEvents": []
    },
    {
      "id": "trip_40026912_20250321_11170",
      "vehicleId": "40026912",
      "driverId": "20000013",
      "startMs": 1742544298000,
      "endMs": 1742546398000,
      "startAddress": "26958 Barr Lake",
      "endAddress": "717 Lee Plain",
      "startCoords": {
        "latitude": 39.728762,
        "longitude": -104.969762
      },
      "endCoords": {
        "latitude": 39.733489,
        "longitude": -104.929943
      },
      "distanceMeters": 12268.8,
      "durationMs": 2100000,
      "drivingDurationMs": 1708999,
      "idlingDurationMs": 391001,
      "fuelConsumedMl": 556,
      "fuelConsumedGallons": 0.147,
      "maxSpeedMph": 36.2,
      "averageSpeedMph": 13.1,
      "safetyEvents": []
    },
    {
      "id": "trip_40026912_20250321_11199",
      "vehicleId": "40026912",
      "driverId": "20000020",
      "startMs": 1742557153000,
      "endMs": 1742569455000,
      "startAddress": "5757 Mcpherson Center Suite 852",
      "endAddress": "0965 Jones Springs Suite 650",
      "startCoords": {
        "latitude": 39.799896,
        "longitude": -105.016916
      },
      "endCoords": {
        "latitude": 39.747014,
        "longitude": -105.005673
      },
      "distanceMeters": 97421.7,
      "durationMs": 12302000,
      "drivingDurationMs": 10394617,
      "idlingDurationMs": 1907383,
      "fuelConsumedMl": 4406,
      "fuelConsumedGallons": 1.164,
      "maxSpeedMph": 44.7,
      "averageSpeedMph": 17.7,
      "safetyEvents": []
    },
    {
      "id": "trip_40026912_20250321_11230",
      "vehicleId": "40026912",
      "driverId": "20000004",
      "startMs": 1742571830000,
      "endMs": 1742574470000,
      "startAddress": "8015 Robinson Drive",
      "endAddress": "0019 Wright Summit",
      "startCoords": {
        "latitude": 39.815393,
        "longitude": -105.054658
      },
      "endCoords": {
        "latitude": 39.698246,
        "longitude": -105.080511
      },
      "distanceMeters": 21085.5,
      "durationMs": 2640000,
      "drivingDurationMs": 2006336,
      "idlingDurationMs": 633664,
      "fuelConsumedMl": 954,
      "fuelConsumedGallons": 0.252,
      "maxSpeedMph": 32.4,
      "averageSpeedMph": 17.9,
      "safetyEvents": []
    },
    {
      "id": "trip_40026912_20250321_11263",
      "vehicleId": "40026912",
      "driverId": "20000006",
      "startMs": 1742586732000,
      "endMs": 1742589012000,
      "startAddress": "69640 Christina Way Apt. 799",
      "endAddress": "82337 Robert Squares",
      "startCoords": {
        "latitude": 39.770794,
        "longitude": -105.062317
      },
      "endCoords": {
        "latitude": 39.826377,
        "longitude": -104.978507
      },
      "distanceMeters": 16816.2,
      "durationMs": 2280000,
      "drivingDurationMs": 1929817,
      "idlingDurationMs": 350183,
      "fuelConsumedMl": 761,
      "fuelConsumedGallons": 0.201,
      "maxSpeedMph": 41.0,
      "averageSpeedMph": 16.5,
      "safetyEvents": []
    },
    {
      "id": "trip_40026912_20250322_11291",
      "vehicleId": "40026912",
      "driverId": "20000019",
      "startMs": 1742603270000,
      "endMs": 1742607562000,
      "startAddress": "920 Zimmerman Burg Apt. 989",
      "endAddress": "91691 Brandon Streets",
      "startCoords": {
        "latitude": 39.788826,
        "longitude": -104.929966
      },
      "endCoords": {
        "latitude": 39.802535,
        "longitude": -104.919513
      },
      "distanceMeters": 27772.9,
      "durationMs": 4292000,
      "drivingDurationMs": 3645279,
      "idlingDurationMs": 646721,
      "fuelConsumedMl": 1257,
      "fuelConsumedGallons": 0.332,
      "maxSpeedMph": 31.0,
      "averageSpeedMph": 14.5,
      "safetyEvents": []
    },
    {
      "id": "trip_40026912_20250322_11319",
      "vehicleId": "40026912",
      "driverId": "20000015",
      "startMs": 1742626390000,
      "endMs": 1742633354000,
      "startAddress": "49013 Ortega Wells Apt. 341",
      "endAddress": "3682 Pope Key",
      "startCoords": {
        "latitude": 39.807041,
        "longitude": -105.064464
      },
      "endCoords": {
        "latitude": 39.739152,
        "longitude": -105.0454
      },
      "distanceMeters": 45238.2,
      "durationMs": 6964000,
      "drivingDurationMs": 6140882,
      "idlingDurationMs": 823118,
      "fuelConsumedMl": 2048,
      "fuelConsumedGallons": 0.541,
      "maxSpeedMph": 41.2,
      "averageSpeedMph": 14.5,
      "safetyEvents": []
    },
    {
      "id": "trip_40026912_20250322_11348",
      "vehicleId": "40026912",
      "driverId": "20000004",
      "startMs": 1742641383000,
      "endMs": 1742646951000,
      "startAddress": "538 Nolan Lake Suite 192",
      "endAddress": "5636 Robin Pines",
      "startCoords": {
        "latitude": 39.82627,
        "longitude": -105.050995
      },
      "endCoords": {
        "latitude": 39.720411,
        "longitude": -104.965744
      },
      "distanceMeters": 38699.1,
      "durationMs": 5568000,
      "drivingDurationMs": 4220496,
      "idlingDurationMs": 1347504,
      "fuelConsumedMl": 1749,
      "fuelConsumedGallons": 0.462,
      "maxSpeedMph": 31.1,
      "averageSpeedMph": 15.5,
      "safetyEvents": []
    },
    {
      "id": "trip_40026912_20250322_11379",
      "vehicleId": "40026912",
      "driverId": "20000007",
      "startMs": 1742654021000,
      "endMs": 1742656121000,
      "startAddress": "2655 Robert Cliff Suite 670",
      "endAddress": "6430 Cynthia Flats",
      "startCoords": {
        "latitude": 39.793162,
        "longitude": -105.080576
      },
      "endCoords": {
        "latitude": 39.696575,
        "longitude": -105.038033
      },
      "distanceMeters": 15382.1,
      "durationMs": 2100000,
      "drivingDurationMs": 1664558,
      "idlingDurationMs": 435442,
      "fuelConsumedMl": 697,
      "fuelConsumedGallons": 0.184,
      "maxSpeedMph": 46.3,
      "averageSpeedMph": 16.4,
      "safetyEvents": []
    },
    {
      "id": "trip_40026912_20250322_11409",
      "vehicleId": "40026912",
      "driverId": "20000010",
      "startMs": 1742669237000,
      "endMs": 1742671637000,
      "startAddress": "174 Tamara Points Apt. 465",
      "endAddress": "725 Lawson Trafficway",
      "startCoords": {
        "latitude": 39.816843,
        "longitude": -104.921907
      },
      "endCoords": {
        "latitude": 39.769573,
        "longitude": -104.974015
      },
      "distanceMeters": 17885.4,
      "durationMs": 2400000,
      "drivingDurationMs": 1814143,
      "idlingDurationMs": 585857,
      "fuelConsumedMl": 810,
      "fuelConsumedGallons": 0.214,
      "maxSpeedMph": 31.7,
      "averageSpeedMph": 16.7,
      "safetyEvents": []
    },
    {
      "id": "trip_40026912_20250323_11437",
      "vehicleId": "40026912",
      "driverId": "20000018",
      "startMs": 1742689634000,
      "endMs": 1742694198000,
      "startAddress": "8882 Jamie Vista Suite 954",
      "endAddress": "2311 John Pine Apt. 238",
      "startCoords": {
        "latitude": 39.688589,
        "longitude": -105.076362
      },
      "endCoords": {
        "latitude": 39.774233,
        "longitude": -105.044044
      },
      "distanceMeters": 30254.1,
      "durationMs": 4564000,
      "drivingDurationMs": 3748696,
      "idlingDurationMs": 815304,
      "fuelConsumedMl": 1370,
      "fuelConsumedGallons": 0.362,
      "maxSpeedMph": 33.6,
      "averageSpeedMph": 14.8,
      "safetyEvents": []
    },
    {
      "id": "trip_40026912_20250323_11468",
      "vehicleId": "40026912",
      "driverId": "20000021",
      "startMs": 1742714429000,
      "endMs": 1742719220000,
      "startAddress": "4503 Waters Shores",
      "endAddress": "68624 Porter Gardens Suite 272",
      "startCoords": {
        "latitude": 39.782639,
        "longitude": -105.012428
      },
      "endCoords": {
        "latitude": 39.701203,
        "longitude": -104.998691
      },
      "distanceMeters": 36769.0,
      "durationMs": 4791000,
      "drivingDurationMs": 3810967,
      "idlingDurationMs": 980033,
      "fuelConsumedMl": 1662,
      "fuelConsumedGallons": 0.439,
      "maxSpeedMph": 36.6,
      "averageSpeedMph": 17.2,
      "safetyEvents": []
    },
    {
      "id": "trip_40026912_20250323_11502",
      "vehicleId": "40026912",
      "driverId": "20000013",
      "startMs": 1742740634000,
      "endMs": 1742743274000,
      "startAddress": "01773 Melissa Burg",
      "endAddress": "71684 Henderson Island Suite 307",
      "startCoords": {
        "latitude": 39.718364,
        "longitude": -104.966687
      },
      "endCoords": {
        "latitude": 39.779821,
        "longitude": -105.035503
      },
      "distanceMeters": 20184.2,
      "durationMs": 2640000,
      "drivingDurationMs": 2268649,
      "idlingDurationMs": 371351,
      "fuelConsumedMl": 912,
      "fuelConsumedGallons": 0.241,
      "maxSpeedMph": 35.4,
      "averageSpeedMph": 17.1,
      "safetyEvents": []
    },
    {
      "id": "trip_40026912_20250323_11535",
      "vehicleId": "40026912",
      "driverId": "20000020",
      "startMs": 1742757950000,
      "endMs": 1742764914000,
      "startAddress": "7564 Marshall Trafficway Suite 367",
      "endAddress": "1401 Rogers Extension Apt. 563",
      "startCoords": {
        "latitude": 39.798377,
        "longitude": -105.074769
      },
      "endCoords": {
        "latitude": 39.756895,
        "longitude": -104.934862
      },
      "distanceMeters": 55082.4,
      "durationMs": 6964000,
      "drivingDurationMs": 5422806,
      "idlingDurationMs": 1541194,
      "fuelConsumedMl": 2491,
      "fuelConsumedGallons": 0.658,
      "maxSpeedMph": 45.1,
      "averageSpeedMph": 17.7,
      "safetyEvents": []
    },
    {
      "id": "trip_40026912_20250324_11561",
      "vehicleId": "40026912",
      "driverId": "20000015",
      "startMs": 1742795369000,
      "endMs": 1742797589000,
      "startAddress": "219 Scott Cliffs",
      "endAddress": "7570 Roberts Pike Apt. 192",
      "startCoords": {
        "latitude": 39.82458,
        "longitude": -105.050708
      },
      "endCoords": {
        "latitude": 39.825178,
        "longitude": -105.061922
      },
      "distanceMeters": 14259.6,
      "durationMs": 2220000,
      "drivingDurationMs": 1897565,
      "idlingDurationMs": 322435,
      "fuelConsumedMl": 644,
      "fuelConsumedGallons": 0.17,
      "maxSpeedMph": 46.4,
      "averageSpeedMph": 14.4,
      "safetyEvents": []
    },
    {
      "id": "trip_40026912_20250324_11591",
      "vehicleId": "40026912",
      "driverId": "20000015",
      "startMs": 1742815784000,
      "endMs": 1742821092000,
      "startAddress": "5013 Burke Divide Apt. 985",
      "endAddress": "158 Kevin Trace Apt. 284",
      "startCoords": {
        "latitude": 39.792659,
        "longitude": -105.011909
      },
      "endCoords": {
        "latitude": 39.767366,
        "longitude": -104.943936
      },
      "distanceMeters": 32943.0,
      "durationMs": 5308000,
      "drivingDurationMs": 3988740,
      "idlingDurationMs": 1319260,
      "fuelConsumedMl": 1491,
      "fuelConsumedGallons": 0.394,
      "maxSpeedMph": 43.1,
      "averageSpeedMph": 13.9,
      "safetyEvents": []
    },
    {
      "id": "trip_40026912_20250324_11620",
      "vehicleId": "40026912",
      "driverId": "20000015",
      "startMs": 1742830138000,
      "endMs": 1742831698000,
      "startAddress": "8521 Murphy Drives Apt. 739",
      "endAddress": "731 Michele Locks",
      "startCoords": {
        "latitude": 39.817789,
        "longitude": -104.915851
      },
      "endCoords": {
        "latitude": 39.712464,
        "longitude": -104.94361
      },
      "distanceMeters": 10102.7,
      "durationMs": 1560000,
      "drivingDurationMs": 1239064,
      "idlingDurationMs": 320936,
      "fuelConsumedMl": 458,
      "fuelConsumedGallons": 0.121,
      "maxSpeedMph": 43.6,
      "averageSpeedMph": 14.5,
      "safetyEvents": []
    },
    {
      "id": "trip_40026912_20250324_11648",
      "vehicleId": "40026912",
      "driverId": "20000005",
      "startMs": 1742844123000,
      "endMs": 1742848876000,
      "startAddress": "162 Jenkins Ville",
      "endAddress": "7405 Johnson Estates Apt. 564",
      "startCoords": {
        "latitude": 39.7749,
        "longitude": -105.006899
      },
      "endCoords": {
        "latitude": 39.811558,
        "longitude": -104.953264
      },
      "distanceMeters": 38240.6,
      "durationMs": 4753000,
      "drivingDurationMs": 3627067,
      "idlingDurationMs": 1125933,
      "fuelConsumedMl": 1730,
      "fuelConsumedGallons": 0.457,
      "maxSpeedMph": 44.6,
      "averageSpeedMph": 18.0,
      "safetyEvents": []
    },
    {
      "id": "trip_40026912_20250325_11679",
      "vehicleId": "40026912",
      "driverId": "20000003",
      "startMs": 1742861260000,
      "endMs": 1742867884000,
      "startAddress": "88581 Rocha Stravenue",
      "endAddress": "89982 Jenna Road Suite 610",
      "startCoords": {
        "latitude": 39.689137,
        "longitude": -104.974699
      },
      "endCoords": {
        "latitude": 39.709655,
        "longitude": -104.951027
      },
      "distanceMeters": 51499.4,
      "durationMs": 6624000,
      "drivingDurationMs": 5321236,
      "idlingDurationMs": 1302764,
      "fuelConsumedMl": 2328,
      "fuelConsumedGallons": 0.615,
      "maxSpeedMph": 45.3,
      "averageSpeedMph": 17.4,
      "safetyEvents": []
    },
    {
      "id": "trip_40026912_20250325_11714",
      "vehicleId": "40026912",
      "driverId": "20000006",
      "startMs": 1742878956000,
      "endMs": 1742884584000,
      "startAddress": "427 Joseph Hollow Suite 116",
      "endAddress": "503 Luis Rapid Suite 926",
      "startCoords": {
        "latitude": 39.735806,
        "longitude": -105.030155
      },
      "endCoords": {
        "latitude": 39.758991,
        "longitude": -104.973565
      },
      "distanceMeters": 44439.9,
      "durationMs": 5628000,
      "drivingDurationMs": 4252951,
      "idlingDurationMs": 1375049,
      "fuelConsumedMl": 2010,
      "fuelConsumedGallons": 0.531,
      "maxSpeedMph": 31.3,
      "averageSpeedMph": 17.7,
      "safetyEvents": []
    },
    {
      "id": "trip_40026912_20250325_11744",
      "vehicleId": "40026912",
      "driverId": "20000011",
      "startMs": 1742893053000,
      "endMs": 1742895033000,
      "startAddress": "4341 Alexander Dale Apt. 521",
      "endAddress": "824 Amy Divide",
      "startCoords": {
        "latitude": 39.810031,
        "longitude": -105.052275
      },
      "endCoords": {
        "latitude": 39.740372,
        "longitude": -104.991701
      },
      "distanceMeters": 15664.2,
      "durationMs": 1980000,
      "drivingDurationMs": 1519589,
      "idlingDurationMs": 460411,
      "fuelConsumedMl": 708,
      "fuelConsumedGallons": 0.187,
      "maxSpeedMph": 41.0,
      "averageSpeedMph": 17.7,
      "safetyEvents": []
    },
    {
      "id": "trip_40026912_20250325_11769",
      "vehicleId": "40026912",
      "driverId": "20000010",
      "startMs": 1742907131000,
      "endMs": 1742909051000,
      "startAddress": "2294 Lawrence Route",
      "endAddress": "33921 John Cape Apt. 889",
      "startCoords": {
        "latitude": 39.758876,
        "longitude": -105.041852
      },
      "endCoords": {
        "latitude": 39.715184,
        "longitude": -105.000726
      },
      "distanceMeters": 11690.2,
      "durationMs": 1920000,
      "drivingDurationMs": 1708105,
      "idlingDurationMs": 211895,
      "fuelConsumedMl": 530,
      "fuelConsumedGallons": 0.14,
      "maxSpeedMph": 41.2,
      "averageSpeedMph": 13.6,
      "safetyEvents": []
    },
    {
      "id": "trip_40026912_20250325_11798",
      "vehicleId": "40026912",
      "driverId": "20000009",
      "startMs": 1742918310000,
      "endMs": 1742925467000,
      "startAddress": "29530 Green Land",
      "endAddress": "550 Lin Park",
      "startCoords": {
        "latitude": 39.723039,
        "longitude": -104.971874
      },
      "endCoords": {
        "latitude": 39.721336,
        "longitude": -104.972379
      },
      "distanceMeters": 60848.4,
      "durationMs": 7157000,
      "drivingDurationMs": 5850737,
      "idlingDurationMs": 1306263,
      "fuelConsumedMl": 2752,
      "fuelConsumedGallons": 0.727,
      "maxSpeedMph": 35.7,
      "averageSpeedMph": 19.0,
      "safetyEvents": []
    },
    {
      "id": "trip_40026912_20250325_11823",
      "vehicleId": "40026912",
      "driverId": "20000004",
      "startMs": 1742930024000,
      "endMs": 1742936688000,
      "startAddress": "719 Cunningham Corner",
      "endAddress": "559 Mark Trail",
      "startCoords": {
        "latitude": 39.709599,
        "longitude": -104.971711
      },
      "endCoords": {
        "latitude": 39.721127,
        "longitude": -105.009245
      },
      "distanceMeters": 33641.3,
      "durationMs": 6664000,
      "drivingDurationMs": 5080769,
      "idlingDurationMs": 1583231,
      "fuelConsumedMl": 1522,
      "fuelConsumedGallons": 0.402,
      "maxSpeedMph": 33.1,
      "averageSpeedMph": 11.3,
      "safetyEvents": []
    },
    {
      "id": "trip_40026912_20250326_11852",
      "vehicleId": "40026912",
      "driverId": "20000007",
      "startMs": 1742948582000,
      "endMs": 1742950742000,
      "startAddress": "13228 Guerrero Motorway",
      "endAddress": "83415 Hernandez Pine Apt. 097",
      "startCoords": {
        "latitude": 39.807207,
        "longitude": -105.046166
      },
      "endCoords": {
        "latitude": 39.736633,
        "longitude": -105.066506
      },
      "distanceMeters": 15042.1,
      "durationMs": 2160000,
      "drivingDurationMs": 1683717,
      "idlingDurationMs": 476283,
      "fuelConsumedMl": 681,
      "fuelConsumedGallons": 0.18,
      "maxSpeedMph": 43.7,
      "averageSpeedMph": 15.6,
      "safetyEvents": []
    },
    {
      "id": "trip_40026912_20250326_11885",
      "vehicleId": "40026912",
      "driverId": "20000009",
      "startMs": 1742969329000,
      "endMs": 1742971369000,
      "startAddress": "9603 Evans Village",
      "endAddress": "6212 Chase Village Apt. 198",
      "startCoords": {
        "latitude": 39.736728,
        "longitude": -104.976007
      },
      "endCoords": {
        "latitude": 39.689524,
        "longitude": -105.070822
      },
      "distanceMeters": 16312.0,
      "durationMs": 2040000,
      "drivingDurationMs": 1779766,
      "idlingDurationMs": 260234,
      "fuelConsumedMl": 738,
      "fuelConsumedGallons": 0.195,
      "maxSpeedMph": 41.9,
      "averageSpeedMph": 17.9,
      "safetyEvents": []
    },
    {
      "id": "trip_40026912_20250326_11915",
      "vehicleId": "40026912",
      "driverId": "20000021",
      "startMs": 1742984503000,
      "endMs": 1743016432000,
      "startAddress": "71642 Timothy Ways",
      "endAddress": "28513 Munoz Cliffs",
      "startCoords": {
        "latitude": 39.70249,
        "longitude": -104.978227
      },
      "endCoords": {
        "latitude": 39.714086,
        "longitude": -105.006128
      },
      "distanceMeters": 244651.3,
      "durationMs": 31929000,
      "drivingDurationMs": 28460451,
      "idlingDurationMs": 3468549,
      "fuelConsumedMl": 11065,
      "fuelConsumedGallons": 2.923,
      "maxSpeedMph": 34.1,
      "averageSpeedMph": 17.1,
      "safetyEvents": []
    },
    {
      "id": "trip_40026912_20250326_11983",
      "vehicleId": "40026912",
      "driverId": "20000008",
      "startMs": 1743017660000,
      "endMs": 1743023553000,
      "startAddress": "636 Hale Parks",
      "endAddress": "893 Mendoza Union",
      "startCoords": {
        "latitude": 39.805893,
        "longitude": -104.999013
      },
      "endCoords": {
        "latitude": 39.740656,
        "longitude": -105.062424
      },
      "distanceMeters": 43970.6,
      "durationMs": 5893000,
      "drivingDurationMs": 4559807,
      "idlingDurationMs": 1333193,
      "fuelConsumedMl": 1987,
      "fuelConsumedGallons": 0.525,
      "maxSpeedMph": 45.7,
      "averageSpeedMph": 16.7,
      "safetyEvents": []
    },
    {
      "id": "trip_40026912_20250326_12009",
      "vehicleId": "40026912",
      "driverId": "20000005",
      "startMs": 1743031773000,
      "endMs": 1743038502000,
      "startAddress": "4138 Morris Ridges Apt. 723",
      "endAddress": "9329 Howard Skyway",
      "startCoords": {
        "latitude": 39.710092,
        "longitude": -104.993755
      },
      "endCoords": {
        "latitude": 39.775315,
        "longitude": -105.023373
      },
      "distanceMeters": 44058.6,
      "durationMs": 6729000,
      "drivingDurationMs": 5090000,
      "idlingDurationMs": 1639000,
      "fuelConsumedMl": 1991,
      "fuelConsumedGallons": 0.526,
      "maxSpeedMph": 31.6,
      "averageSpeedMph": 14.6,
      "safetyEvents": []
    },
    {
      "id": "trip_40026912_20250327_12037",
      "vehicleId": "40026912",
      "driverId": "20000004",
      "startMs": 1743050247000,
      "endMs": 1743058956000,
      "startAddress": "8777 Megan Hill",
      "endAddress": "360 Wells Plaza",
      "startCoords": {
        "latitude": 39.825711,
        "longitude": -105.058029
      },
      "endCoords": {
        "latitude": 39.810307,
        "longitude": -104.980122
      },
      "distanceMeters": 72210.3,
      "durationMs": 8709000,
      "drivingDurationMs": 7403745,
      "idlingDurationMs": 1305255,
      "fuelConsumedMl": 3267,
      "fuelConsumedGallons": 0.863,
      "maxSpeedMph": 34.9,
      "averageSpeedMph": 18.5,
      "safetyEvents": []
    },
    {
      "id": "trip_40026912_20250327_12065",
      "vehicleId": "40026912",
      "driverId": "20000021",
      "startMs": 1743066454000,
      "endMs": 1743069109000,
      "startAddress": "80447 Cynthia Parkways",
      "endAddress": "91394 Brandon Pike",
      "startCoords": {
        "latitude": 39.717705,
        "longitude": -105.072375
      },
      "endCoords": {
        "latitude": 39.802421,
        "longitude": -105.013314
      },
      "distanceMeters": 21705.9,
      "durationMs": 2655000,
      "drivingDurationMs": 2106845,
      "idlingDurationMs": 548155,
      "fuelConsumedMl": 980,
      "fuelConsumedGallons": 0.259,
      "maxSpeedMph": 34.7,
      "averageSpeedMph": 18.3,
      "safetyEvents": []
    },
    {
      "id": "trip_40026912_20250327_12093",
      "vehicleId": "40026912",
      "driverId": "20000010",
      "startMs": 1743077513000,
      "endMs": 1743084925000,
      "startAddress": "889 Roberts Spring",
      "endAddress": "28913 Carr Valleys Apt. 187",
      "startCoords": {
        "latitude": 39.815012,
        "longitude": -105.031112
      },
      "endCoords": {
        "latitude": 39.827388,
        "longitude": -105.072189
      },
      "distanceMeters": 47628.3,
      "durationMs": 7412000,
      "drivingDurationMs": 6188186,
      "idlingDurationMs": 1223814,
      "fuelConsumedMl": 2154,
      "fuelConsumedGallons": 0.569,
      "maxSpeedMph": 47.0,
      "averageSpeedMph": 14.4,
      "safetyEvents": []
    },