{
  "vehicleId": "42031656",
  "vehicleName": "DEN-VAN-09",
  "month": "2025_06",
  "pagination": {
    "endCursor": "trip_42031656_20250630_004",
    "hasNextPage": false
  },
  "trips": [
    {
      "id": "trip_42031656_20250601_001",
      "vehicleId": "42031656",
      "driverId": "20000007",
      "startMs": 1748766540000,
      "endMs": 1748767915447,
      "startAddress": "21620 Richmond Brook",
      "endAddress": "782 Berry Forest Apt. 710",
      "startCoords": {
        "latitude": 39.746442,
        "longitude": -104.977774
      },
      "endCoords": {
        "latitude": 39.801758,
        "longitude": -105.015407
      },
      "distanceMeters": 9221.8,
      "durationMs": 1375447,
      "drivingDurationMs": 1132766,
      "idlingDurationMs": 242681,
      "fuelConsumedMl": 1173,
      "fuelConsumedGallons": 0.31,
      "maxSpeedMph": 43.8,
      "averageSpeedMph": 15.0,
      "safetyEvents": []
    },
    {
      "id": "trip_42031656_20250602_001",
      "vehicleId": "42031656",
      "driverId": "20000001",
      "startMs": 1748856600000,
      "endMs": 1748864303235,
      "startAddress": "19494 Yang Squares",
      "endAddress": "976 Martin Ports Apt. 439",
      "startCoords": {
        "latitude": 39.732134,
        "longitude": -104.916234
      },
      "endCoords": {
        "latitude": 39.802148,
        "longitude": -104.9698
      },
      "distanceMeters": 53171.5,
      "durationMs": 7703235,
      "drivingDurationMs": 7043268,
      "idlingDurationMs": 659967,
      "fuelConsumedMl": 6761,
      "fuelConsumedGallons": 1.786,
      "maxSpeedMph": 63.9,
      "averageSpeedMph": 15.4,
      "safetyEvents": []
    },
    {
      "id": "trip_42031656_20250602_002",
      "vehicleId": "42031656",
      "driverId": "20000001",
      "startMs": 1748858820000,
      "endMs": 1748872473141,
      "startAddress": "3422 Gregory Tunnel Apt. 532",
      "endAddress": "6249 Nichols Forge",
      "startCoords": {
        "latitude": 39.793408,
        "longitude": -104.930763
      },
      "endCoords": {
        "latitude": 39.766204,
        "longitude": -104.920756
      },
      "distanceMeters": 77194.0,
      "durationMs": 13653142,
      "drivingDurationMs": 10928612,
      "idlingDurationMs": 2724530,
      "fuelConsumedMl": 9816,
      "fuelConsumedGallons": 2.593,
      "maxSpeedMph": 61.5,
      "averageSpeedMph": 12.6,
      "safetyEvents": []
    },
    {
      "id": "trip_42031656_20250602_003",
      "vehicleId": "42031656",
      "driverId": "20000001",
      "startMs": 1748884200000,
      "endMs": 1748888120314,
      "startAddress": "0598 Sherry Estates",
      "endAddress": "28888 Elizabeth Row",
      "startCoords": {
        "latitude": 39.793183,
        "longitude": -104.948324
      },
      "endCoords": {
        "latitude": 39.77467,
        "longitude": -105.077094
      },
      "distanceMeters": 25286.5,
      "durationMs": 3920314,
      "drivingDurationMs": 3491870,
      "idlingDurationMs": 428445,
      "fuelConsumedMl": 3214,
      "fuelConsumedGallons": 0.849,
      "maxSpeedMph": 56.4,
      "averageSpeedMph": 14.4,
      "safetyEvents": []
    },
    {
      "id": "trip_42031656_20250602_004",
      "vehicleId": "42031656",
      "driverId": "20000001",
      "startMs": 1748863020000,
      "endMs": 1748866697286,
      "startAddress": "8238 Sharon Landing",
      "endAddress": "9416 Nguyen Orchard Suite 744",
      "startCoords": {
        "latitude": 39.684887,
        "longitude": -104.911352
      },
      "endCoords": {
        "latitude": 39.810394,
        "longitude": -105.083928
      },
      "distanceMeters": 20942.9,
      "durationMs": 3677287,
      "drivingDurationMs": 3166317,
      "idlingDurationMs": 510969,
      "fuelConsumedMl": 2661,
      "fuelConsumedGallons": 0.703,
      "maxSpeedMph": 29.8,
      "averageSpeedMph": 12.7,
      "safetyEvents": []
    },
    {
      "id": "trip_42031656_20250602_005",
      "vehicleId": "42031656",
      "driverId": "20000001",
      "startMs": 1748858640000,
      "endMs": 1748869378217,
      "startAddress": "52437 Martin Walks",
      "endAddress": "085 Arnold Grove Apt. 223",
      "startCoords": {
        "latitude": 39.684321,
        "longitude": -104.978654
      },
      "endCoords": {
        "latitude": 39.692765,
        "longitude": -105.044247
      },
      "distanceMeters": 71647.8,
      "durationMs": 10738218,
      "drivingDurationMs": 9559377,
      "idlingDurationMs": 1178841,
      "fuelConsumedMl": 9108,
      "fuelConsumedGallons": 2.406,
      "maxSpeedMph": 53.9,
      "averageSpeedMph": 14.9,
      "safetyEvents": []
    },
    {
      "id": "trip_42031656_20250602_006",
      "vehicleId": "42031656",
      "driverId": "20000001",
      "startMs": 1748875380000,
      "endMs": 1748883002532,
      "startAddress": "84738 White Walks",
      "endAddress": "79011 Mark Dale Suite 700",
      "startCoords": {
        "latitude": 39.805657,
        "longitude": -105.018935
      },
      "endCoords": {
        "latitude": 39.750707,
        "longitude": -104.98634
      },
      "distanceMeters": 47755.8,
      "durationMs": 7622532,
      "drivingDurationMs": 6188282,
      "idlingDurationMs": 1434250,
      "fuelConsumedMl": 6072,
      "fuelConsumedGallons": 1.604,
      "maxSpeedMph": 57.9,
      "averageSpeedMph": 14.0,
      "safetyEvents": []
    },
    {
      "id": "trip_42031656_20250603_001",
      "vehicleId": "42031656",
      "driverId": "20000001",
      "startMs": 1748931660000,
      "endMs": 1748943688192,
      "startAddress": "56387 Irwin Loop",
      "endAddress": "304 James Road Apt. 573",
      "startCoords": {
        "latitude": 39.712612,
        "longitude": -105.057207
      },
      "endCoords": {
        "latitude": 39.734565,
        "longitude": -105.041801
      },
      "distanceMeters": 76334.1,
      "durationMs": 12028193,
      "drivingDurationMs": 9963352,
      "idlingDurationMs": 2064841,
      "fuelConsumedMl": 9706,
      "fuelConsumedGallons": 2.564,
      "maxSpeedMph": 47.6,
      "averageSpeedMph": 14.2,
      "safetyEvents": []
    },
    {
      "id": "trip_42031656_20250603_002",
      "vehicleId": "42031656",
      "driverId": "20000001",
      "startMs": 1748950980000,
      "endMs": 1748953223021,
      "startAddress": "354 Lang Mission Apt. 828",
      "endAddress": "85341 Jordan Expressway",
      "startCoords": {
        "latitude": 39.766336,
        "longitude": -105.066122
      },
      "endCoords": {
        "latitude": 39.728311,
        "longitude": -105.034932
      },
      "distanceMeters": 13461.2,
      "durationMs": 2243021,
      "drivingDurationMs": 1855027,
      "idlingDurationMs": 387994,
      "fuelConsumedMl": 1711,
      "fuelConsumedGallons": 0.452,
      "maxSpeedMph": 55.7,
      "averageSpeedMph": 13.4,
      "safetyEvents": []
    },
    {
      "id": "trip_42031656_20250603_003",
      "vehicleId": "42031656",
      "driverId": "20000001",
      "startMs": 1748958000000,
      "endMs": 1748968275209,
      "startAddress": "0276 Jeff Meadow Apt. 698",
      "endAddress": "92552 Audrey Prairie Apt. 906",
      "startCoords": {
        "latitude": 39.761075,
        "longitude": -104.924618
      },
      "endCoords": {
        "latitude": 39.697815,
        "longitude": -105.02067
      },
      "distanceMeters": 80706.0,
      "durationMs": 10275210,
      "drivingDurationMs": 9800966,
      "idlingDurationMs": 474244,
      "fuelConsumedMl": 10262,
      "fuelConsumedGallons": 2.711,
      "maxSpeedMph": 30.1,
      "averageSpeedMph": 17.6,
      "safetyEvents": []
    },
    {
      "id": "trip_42031656_20250603_004",
      "vehicleId": "42031656",
      "driverId": "20000001",
      "startMs": 1748936700000,
      "endMs": 1748939157092,
      "startAddress": "3590 Cassandra Terrace",
      "endAddress": "8142 Adam Road Suite 807",
      "startCoords": {
        "latitude": 39.823393,
        "longitude": -104.931044
      },
      "endCoords": {
        "latitude": 39.822013,
        "longitude": -104.909199
      },
      "distanceMeters": 14537.8,
      "durationMs": 2457092,
      "drivingDurationMs": 1995157,
      "idlingDurationMs": 461935,
      "fuelConsumedMl": 1847,
      "fuelConsumedGallons": 0.488,
      "maxSpeedMph": 28.1,
      "averageSpeedMph": 13.2,
      "safetyEvents": []
    },
    {
      "id": "trip_42031656_20250604_001",
      "vehicleId": "42031656",
      "driverId": "20000010",
      "startMs": 1749024600000,
      "endMs": 1749032570836,
      "startAddress": "6701 Brandon Manors",
      "endAddress": "766 Moore Squares",
      "startCoords": {
        "latitude": 39.824509,
        "longitude": -105.085171
      },
      "endCoords": {
        "latitude": 39.785324,
        "longitude": -105.02827
      },
      "distanceMeters": 64251.0,
      "durationMs": 7970837,
      "drivingDurationMs": 7762042,
      "idlingDurationMs": 208794,
      "fuelConsumedMl": 8169,
      "fuelConsumedGallons": 2.158,
      "maxSpeedMph": 50.5,
      "averageSpeedMph": 18.0,
      "safetyEvents": []
    },
    {
      "id": "trip_42031656_20250604_002",
      "vehicleId": "42031656",
      "driverId": "20000010",
      "startMs": 1749018960000,
      "endMs": 1749031523939,
      "startAddress": "11320 Terry Rapid",
      "endAddress": "51791 Moore Ferry Suite 157",
      "startCoords": {
        "latitude": 39.787837,
        "longitude": -104.98917
      },
      "endCoords": {
        "latitude": 39.763693,
        "longitude": -105.012582
      },
      "distanceMeters": 80890.6,
      "durationMs": 12563939,
      "drivingDurationMs": 11464485,
      "idlingDurationMs": 1099454,
      "fuelConsumedMl": 10285,
      "fuelConsumedGallons": 2.717,
      "maxSpeedMph": 29.1,
      "averageSpeedMph": 14.4,
      "safetyEvents": []
    },
    {
      "id": "trip_42031656_20250604_003",
      "vehicleId": "42031656",
      "driverId": "20000010",
      "startMs": 1749021000000,
      "endMs": 1749033529127,
      "startAddress": "483 Taylor Cliffs Suite 383",
      "endAddress": "125 Michelle Tunnel Apt. 636",
      "startCoords": {
        "latitude": 39.779651,
        "longitude": -104.959101
      },
      "endCoords": {
        "latitude": 39.822936,
        "longitude": -105.022633
      },
      "distanceMeters": 60641.2,
      "durationMs": 12529127,
      "drivingDurationMs": 11980005,
      "idlingDurationMs": 549123,
      "fuelConsumedMl": 7711,
      "fuelConsumedGallons": 2.037,
      "maxSpeedMph": 53.3,
      "averageSpeedMph": 10.8,
      "safetyEvents": []
    },
    {
      "id": "trip_42031656_20250604_004",
      "vehicleId": "42031656",
      "driverId": "20000010",
      "startMs": 1749041400000,
      "endMs": 1749047701473,
      "startAddress": "26459 Adkins Rapids Suite 510",
      "endAddress": "20383 Gross Street Apt. 088",
      "startCoords": {
        "latitude": 39.771154,
        "longitude": -105.035732
      },
      "endCoords": {
        "latitude": 39.787552,
        "longitude": -105.065403
      },
      "distanceMeters": 32210.4,
      "durationMs": 6301473,
      "drivingDurationMs": 5538841,
      "idlingDurationMs": 762633,
      "fuelConsumedMl": 4096,
      "fuelConsumedGallons": 1.082,
      "maxSpeedMph": 37.9,
      "averageSpeedMph": 11.4,
      "safetyEvents": []
    },
    {
      "id": "trip_42031656_20250604_005",
      "vehicleId": "42031656",
      "driverId": "20000010",
      "startMs": 1749057540000,
      "endMs": 1749066775235,
      "startAddress": "4940 Kristin Brook Apt. 691",
      "endAddress": "2905 Hammond Avenue",
      "startCoords": {
        "latitude": 39.716659,
        "longitude": -104.952661
      },
      "endCoords": {
        "latitude": 39.706497,
        "longitude": -105.027809
      },
      "distanceMeters": 44062.6,
      "durationMs": 9235236,
      "drivingDurationMs": 7521053,
      "idlingDurationMs": 1714182,
      "fuelConsumedMl": 5602,
      "fuelConsumedGallons": 1.48,
      "maxSpeedMph": 48.0,
      "averageSpeedMph": 10.7,
      "safetyEvents": []
    },
    {
      "id": "trip_42031656_20250604_006",
      "vehicleId": "42031656",
      "driverId": "20000010",
      "startMs": 1749043800000,
      "endMs": 1749056239423,
      "startAddress": "67720 Padilla Burg",
      "endAddress": "9377 Hays Bypass",
      "startCoords": {
        "latitude": 39.700211,
        "longitude": -104.961694
      },
      "endCoords": {
        "latitude": 39.744767,
        "longitude": -105.021322
      },
      "distanceMeters": 69359.0,
      "durationMs": 12439423,
      "drivingDurationMs": 10975600,
      "idlingDurationMs": 1463823,
      "fuelConsumedMl": 8820,
      "fuelConsumedGallons": 2.33,
      "maxSpeedMph": 50.8,
      "averageSpeedMph": 12.5,
      "safetyEvents": []
    },
    {
      "id": "trip_42031656_20250605_001",
      "vehicleId": "42031656",
      "driverId": "20000005",
      "startMs": 1749141120000,
      "endMs": 1749145754864,
      "startAddress": "5077 Higgins Shore Suite 437",
      "endAddress": "59745 Kent Row",
      "startCoords": {
        "latitude": 39.747985,
        "longitude": -105.084833
      },
      "endCoords": {
        "latitude": 39.738034,
        "longitude": -105.083288
      },
      "distanceMeters": 27006.8,
      "durationMs": 4634865,
      "drivingDurationMs": 4168083,
      "idlingDurationMs": 466782,
      "fuelConsumedMl": 3433,
      "fuelConsumedGallons": 0.907,
      "maxSpeedMph": 68.3,
      "averageSpeedMph": 13.0,
      "safetyEvents": [
        {
          "type": "speeding",
          "startMs": 1749142620000,
          "maxSpeedMph": 68.3
        }
      ]
    },
    {
      "id": "trip_42031656_20250605_002",
      "vehicleId": "42031656",
      "driverId": "20000005",
      "startMs": 1749108780000,
      "endMs": 1749126598432,
      "startAddress": "459 John Plaza Apt. 741",
      "endAddress": "36185 Julie Way Suite 219",
      "startCoords": {
        "latitude": 39.686951,
        "longitude": -104.946687
      },
      "endCoords": {
        "latitude": 39.778352,
        "longitude": -105.037884
      },
      "distanceMeters": 81607.2,
      "durationMs": 17818432,
      "drivingDurationMs": 15294672,
      "idlingDurationMs": 2523761,
      "fuelConsumedMl": 10376,
      "fuelConsumedGallons": 2.741,
      "maxSpeedMph": 54.1,
      "averageSpeedMph": 10.2,
      "safetyEvents": []
    },
    {
      "id": "trip_42031656_20250605_003",
      "vehicleId": "42031656",
      "driverId": "20000005",
      "startMs": 1749133140000,
      "endMs": 1749145240579,
      "startAddress": "21984 Adams Shoal Suite 276",
      "endAddress": "00512 Jill Forest Suite 424",
      "startCoords": {
        "latitude": 39.814943,
        "longitude": -104.960113
      },
      "endCoords": {
        "latitude": 39.696425,
        "longitude": -104.975023
      },
      "distanceMeters": 76635.4,
      "durationMs": 12100580,
      "drivingDurationMs": 11909036,
      "idlingDurationMs": 191543,
      "fuelConsumedMl": 9744,
      "fuelConsumedGallons": 2.574,
      "maxSpeedMph": 65.3,
      "averageSpeedMph": 14.2,
      "safetyEvents": [
        {
          "type": "speeding",
          "startMs": 1749136440000,
          "maxSpeedMph": 65.3
        }
      ]
    },
    {
      "id": "trip_42031656_20250605_004",
      "vehicleId": "42031656",
      "driverId": "20000005",
      "startMs": 1749117480000,
      "endMs": 1749129565484,
      "startAddress": "0372 Rebecca Point",
      "endAddress": "8356 Melanie Coves Apt. 903",
      "startCoords": {
        "latitude": 39.741922,
        "longitude": -105.030843
      },
      "endCoords": {
        "latitude": 39.795103,
        "longitude": -105.010433
      },
      "distanceMeters": 70636.9,
      "durationMs": 12085484,
      "drivingDurationMs": 10324485,
      "idlingDurationMs": 1761000,
      "fuelConsumedMl": 8983,
      "fuelConsumedGallons": 2.373,
      "maxSpeedMph": 60.9,
      "averageSpeedMph": 13.1,
      "safetyEvents": []
    },
    {
      "id": "trip_42031656_20250605_005",
      "vehicleId": "42031656",
      "driverId": "20000005",
      "startMs": 1749139980000,
      "endMs": 1749146194318,
      "startAddress": "504 Wagner Forge Apt. 250",
      "endAddress": "194 Oneal Shoals Apt. 550",
      "startCoords": {
        "latitude": 39.730806,
        "longitude": -104.911083
      },
      "endCoords": {
        "latitude": 39.759072,
        "longitude": -104.905568
      },
      "distanceMeters": 37836.4,
      "durationMs": 6214318,
      "drivingDurationMs": 5334691,
      "idlingDurationMs": 879627,
      "fuelConsumedMl": 4811,
      "fuelConsumedGallons": 1.271,
      "maxSpeedMph": 34.4,
      "averageSpeedMph": 13.6,
      "safetyEvents": []
    },
    {
      "id": "trip_42031656_20250606_001",
      "vehicleId": "42031656",
      "driverId": "20000016",
      "startMs": 1749194880000,
      "endMs": 1749202759492,
      "startAddress": "71924 Villegas Forge",
      "endAddress": "014 Shane Extensions",
      "startCoords": {
        "latitude": 39.73062,
        "longitude": -104.919634
      },
      "endCoords": {
        "latitude": 39.812516,
        "longitude": -105.022519
      },
      "distanceMeters": 54318.2,
      "durationMs": 7879492,
      "drivingDurationMs": 6707531,
      "idlingDurationMs": 1171962,
      "fuelConsumedMl": 6905,
      "fuelConsumedGallons": 1.824,
      "maxSpeedMph": 69.0,
      "averageSpeedMph": 15.4,
      "safetyEvents": [
        {
          "type": "speeding",
          "startMs": 1749197520000,
          "maxSpeedMph": 69.0
        }
      ]
    },
    {
      "id": "trip_42031656_20250606_002",
      "vehicleId": "42031656",
      "driverId": "20000016",
      "startMs": 1749213660000,
      "endMs": 1749218774359,
      "startAddress": "69277 Amanda Garden",
      "endAddress": "77409 Hutchinson Street",
      "startCoords": {
        "latitude": 39.705845,
        "longitude": -104.979608
      },
      "endCoords": {
        "latitude": 39.777157,
        "longitude": -104.995527
      },
      "distanceMeters": 36655.7,
      "durationMs": 5114359,
      "drivingDurationMs": 4715722,
      "idlingDurationMs": 398638,
      "fuelConsumedMl": 4660,
      "fuelConsumedGallons": 1.231,
      "maxSpeedMph": 59.5,
      "averageSpeedMph": 16.0,
      "safetyEvents": []
    },
    {
      "id": "trip_42031656_20250606_003",
      "vehicleId": "42031656",
      "driverId": "20000016",
      "startMs": 1749223620000,
      "endMs": 1749229410568,
      "startAddress": "233 Shepherd Ports Suite 926",
      "endAddress": "73272 Anthony Gateway Suite 341",
      "startCoords": {
        "latitude": 39.796176,
        "longitude": -104.93777
      },
      "endCoords": {
        "latitude": 39.780453,
        "longitude": -104.98445
      },
      "distanceMeters": 29588.1,
      "durationMs": 5790568,
      "drivingDurationMs": 5512773,
      "idlingDurationMs": 277795,
      "fuelConsumedMl": 3763,
      "fuelConsumedGallons": 0.994,
      "maxSpeedMph": 47.2,
      "averageSpeedMph": 11.4,
      "safetyEvents": []
    },
    {
      "id": "trip_42031656_20250606_004",
      "vehicleId": "42031656",
      "driverId": "20000016",
      "startMs": 1749229440000,
      "endMs": 1749241491569,
      "startAddress": "13685 Wilson Fort Apt. 966",
      "endAddress": "381 Tyler Parkways Apt. 406",
      "startCoords": {
        "latitude": 39.742531,
        "longitude": -104.903995
      },
      "endCoords": {
        "latitude": 39.742543,
        "longitude": -105.07196
      },
      "distanceMeters": 64498.4,
      "durationMs": 12051570,
      "drivingDurationMs": 10210625,
      "idlingDurationMs": 1840945,
      "fuelConsumedMl": 8199,
      "fuelConsumedGallons": 2.166,
      "maxSpeedMph": 40.8,
      "averageSpeedMph": 12.0,
      "safetyEvents": []
    },
    {
      "id": "trip_42031656_20250607_001",
      "vehicleId": "42031656",
      "driverId": "20000011",
      "startMs": 1749296760000,
      "endMs": 1749308765713,
      "startAddress": "72787 Melissa Coves",
      "endAddress": "775 Anthony Manor",
      "startCoords": {
        "latitude": 39.73396,
        "longitude": -105.019793
      },
      "endCoords": {
        "latitude": 39.736654,
        "longitude": -105.002881
      },
      "distanceMeters": 77938.5,
      "durationMs": 12005714,
      "drivingDurationMs": 10085927,
      "idlingDurationMs": 1919787,
      "fuelConsumedMl": 9910,
      "fuelConsumedGallons": 2.618,
      "maxSpeedMph": 64.3,
      "averageSpeedMph": 14.5,
      "safetyEvents": []
    },
    {
      "id": "trip_42031656_20250607_002",
      "vehicleId": "42031656",
      "driverId": "20000011",
      "startMs": 1749301500000,
      "endMs": 1749306570896,
      "startAddress": "2560 Ellis Ranch",
      "endAddress": "488 Morgan Burg Apt. 173",
      "startCoords": {
        "latitude": 39.809079,
        "longitude": -105.064823
      },
      "endCoords": {
        "latitude": 39.695781,
        "longitude": -105.082771
      },
      "distanceMeters": 27306.0,
      "durationMs": 5070896,
      "drivingDurationMs": 4211875,
      "idlingDurationMs": 859021,
      "fuelConsumedMl": 3471,
      "fuelConsumedGallons": 0.917,
      "maxSpeedMph": 69.5,
      "averageSpeedMph": 12.0,
      "safetyEvents": [
        {
          "type": "speeding",
          "startMs": 1749303540000,
          "maxSpeedMph": 69.5
        }
      ]
    },
    {
      "id": "trip_42031656_20250608_001",
      "vehicleId": "42031656",
      "driverId": "20000020",
      "startMs": 1749377160000,
      "endMs": 1749386345160,
      "startAddress": "77178 Jason Way",
      "endAddress": "74889 Barber Island Suite 757",
      "startCoords": {
        "latitude": 39.703655,
        "longitude": -105.058754
      },
      "endCoords": {
        "latitude": 39.793169,
        "longitude": -105.028081
      },
      "distanceMeters": 43477.1,
      "durationMs": 9185161,
      "drivingDurationMs": 7910810,
      "idlingDurationMs": 1274351,
      "fuelConsumedMl": 5527,
      "fuelConsumedGallons": 1.46,
      "maxSpeedMph": 60.0,
      "averageSpeedMph": 10.6,
      "safetyEvents": []
    },
    {
      "id": "trip_42031656_20250609_001",
      "vehicleId": "42031656",
      "driverId": "20000008",
      "startMs": 1749461100000,
      "endMs": 1749470669046,
      "startAddress": "5405 Pugh Flats Apt. 216",
      "endAddress": "2419 Heather Port",
      "startCoords": {
        "latitude": 39.764045,
        "longitude": -105.049105
      },
      "endCoords": {
        "latitude": 39.760352,
        "longitude": -104.940704
      },
      "distanceMeters": 47286.9,
      "durationMs": 9569046,
      "drivingDurationMs": 8215437,
      "idlingDurationMs": 1353609,
      "fuelConsumedMl": 6011,
      "fuelConsumedGallons": 1.588,
      "maxSpeedMph": 42.4,
      "averageSpeedMph": 11.1,
      "safetyEvents": []
    },
    {
      "id": "trip_42031656_20250609_002",
      "vehicleId": "42031656",
      "driverId": "20000008",
      "startMs": 1749490740000,
      "endMs": 1749502800000,
      "startAddress": "374 Alicia Isle Apt. 156",
      "endAddress": "5196 Natasha Mill",
      "startCoords": {
        "latitude": 39.684664,
        "longitude": -104.959769
      },
      "endCoords": {
        "latitude": 39.809077,
        "longitude": -104.9652
      },
      "distanceMeters": 74194.7,
      "durationMs": 12060000,
      "drivingDurationMs": 11126911,
      "idlingDurationMs": 933089,
      "fuelConsumedMl": 9433,
      "fuelConsumedGallons": 2.492,
      "maxSpeedMph": 39.4,
      "averageSpeedMph": 13.8,
      "safetyEvents": []
    },
    {
      "id": "trip_42031656_20250609_003",
      "vehicleId": "42031656",
      "driverId": "20000008",
      "startMs": 1749459300000,
      "endMs": 1749474606124,
      "startAddress": "8586 Schneider Roads",
      "endAddress": "14854 Thompson Mountain Suite 758",
      "startCoords": {
        "latitude": 39.764562,
        "longitude": -104.964271
      },
      "endCoords": {
        "latitude": 39.805076,
        "longitude": -104.939094
      },
      "distanceMeters": 63011.4,
      "durationMs": 15306125,
      "drivingDurationMs": 12326900,
      "idlingDurationMs": 2979225,
      "fuelConsumedMl": 8010,
      "fuelConsumedGallons": 2.116,
      "maxSpeedMph": 28.9,
      "averageSpeedMph": 9.2,
      "safetyEvents": []
    },
    {
      "id": "trip_42031656_20250609_004",
      "vehicleId": "42031656",
      "driverId": "20000008",
      "startMs": 1749468240000,
      "endMs": 1749470929024,
      "startAddress": "702 Tara Crossing",
      "endAddress": "4258 Tony Crest",
      "startCoords": {
        "latitude": 39.822854,
        "longitude": -105.019031
      },
      "endCoords": {
        "latitude": 39.782637,
        "longitude": -104.991855
      },
      "distanceMeters": 20396.9,
      "durationMs": 2689024,
      "drivingDurationMs": 2413598,
      "idlingDurationMs": 275426,
      "fuelConsumedMl": 2593,
      "fuelConsumedGallons": 0.685,
      "maxSpeedMph": 57.2,
      "averageSpeedMph": 17.0,
      "safetyEvents": []
    },
    {
      "id": "trip_42031656_20250609_005",
      "vehicleId": "42031656",
      "driverId": "20000008",
      "startMs": 1749467820000,
      "endMs": 1749476836828,
      "startAddress": "84795 Campbell Key",
      "endAddress": "72236 King Pines",
      "startCoords": {
        "latitude": 39.77723,
        "longitude": -105.001068
      },
      "endCoords": {
        "latitude": 39.765607,
        "longitude": -105.06931
      },
      "distanceMeters": 56621.0,
      "durationMs": 9016829,
      "drivingDurationMs": 7857045,
      "idlingDurationMs": 1159784,
      "fuelConsumedMl": 7200,
      "fuelConsumedGallons": 1.902,
      "maxSpeedMph": 46.9,
      "averageSpeedMph": 14.0,
      "safetyEvents": []
    },
    {
      "id": "trip_42031656_20250609_006",
      "vehicleId": "42031656",
      "driverId": "20000008",
      "startMs": 1749473940000,
      "endMs": 1749486131949,
      "startAddress": "02756 Mcfarland Stream",
      "endAddress": "766 Charles Club",
      "startCoords": {
        "latitude": 39.80786,
        "longitude": -105.026037
      },
      "endCoords": {
        "latitude": 39.747058,
        "longitude": -104.967507
      },
      "distanceMeters": 63688.1,
      "durationMs": 12191949,
      "drivingDurationMs": 10877084,
      "idlingDurationMs": 1314865,
      "fuelConsumedMl": 8097,
      "fuelConsumedGallons": 2.139,
      "maxSpeedMph": 67.3,
      "averageSpeedMph": 11.7,
      "safetyEvents": [
        {
          "type": "speeding",
          "startMs": 1749482100000,
          "maxSpeedMph": 67.3
        }
      ]
    },
    {
      "id": "trip_42031656_20250610_001",
      "vehicleId": "42031656",
      "driverId": "20000012",
      "startMs": 1749580080000,
      "endMs": 1749581607128,
      "startAddress": "79529 Rodriguez Isle Apt. 144",
      "endAddress": "42441 Bell River Apt. 374",
      "startCoords": {
        "latitude": 39.735194,
        "longitude": -104.986119
      },
      "endCoords": {
        "latitude": 39.808134,
        "longitude": -104.923372
      },
      "distanceMeters": 7821.4,
      "durationMs": 1527129,
      "drivingDurationMs": 1324366,
      "idlingDurationMs": 202763,
      "fuelConsumedMl": 996,
      "fuelConsumedGallons": 0.263,
      "maxSpeedMph": 30.7,
      "averageSpeedMph": 11.5,
      "safetyEvents": []
    },
    {
      "id": "trip_42031656_20250610_002",
      "vehicleId": "42031656",
      "driverId": "20000012",
      "startMs": 1749558360000,
      "endMs": 1749560387097,
      "startAddress": "0612 Jennifer Inlet Apt. 795",
      "endAddress": "184 Morgan Village Suite 366",
      "startCoords": {
        "latitude": 39.810774,
        "longitude": -105.051002
      },
      "endCoords": {
        "latitude": 39.772956,
        "longitude": -105.036448
      },
      "distanceMeters": 10266.3,
      "durationMs": 2027098,
      "drivingDurationMs": 1643649,
      "idlingDurationMs": 383449,
      "fuelConsumedMl": 1306,
      "fuelConsumedGallons": 0.345,
      "maxSpeedMph": 34.0,
      "averageSpeedMph": 11.3,
      "safetyEvents": []
    },
    {
      "id": "trip_42031656_20250610_003",
      "vehicleId": "42031656",
      "driverId": "20000012",
      "startMs": 1749557880000,
      "endMs": 1749569101971,
      "startAddress": "091 Green Viaduct Suite 362",
      "endAddress": "06561 Lam River",
      "startCoords": {
        "latitude": 39.757687,
        "longitude": -104.926848
      },
      "endCoords": {
        "latitude": 39.787263,
        "longitude": -105.025295
      },
      "distanceMeters": 66737.8,
      "durationMs": 11221972,
      "drivingDurationMs": 9883441,
      "idlingDurationMs": 1338531,
      "fuelConsumedMl": 8487,
      "fuelConsumedGallons": 2.242,
      "maxSpeedMph": 48.9,
      "averageSpeedMph": 13.3,
      "safetyEvents": []
    },
    {
      "id": "trip_42031656_20250610_004",
      "vehicleId": "42031656",
      "driverId": "20000012",
      "startMs": 1749550740000,
      "endMs": 1749560267965,
      "startAddress": "10249 Thomas Corner",
      "endAddress": "19395 Lee Crossing",
      "startCoords": {
        "latitude": 39.773547,
        "longitude": -104.937897
      },
      "endCoords": {
        "latitude": 39.725983,
        "longitude": -105.063127
      },
      "distanceMeters": 65862.4,
      "durationMs": 9527965,
      "drivingDurationMs": 8274306,
      "idlingDurationMs": 1253659,
      "fuelConsumedMl": 8373,
      "fuelConsumedGallons": 2.212,
      "maxSpeedMph": 53.6,
      "averageSpeedMph": 15.5,
      "safetyEvents": []
    },
    {
      "id": "trip_42031656_20250611_001",
      "vehicleId": "42031656",
      "driverId": "20000008",
      "startMs": 1749638160000,
      "endMs": 1749641940693,
      "startAddress": "217 Beard Green Apt. 322",
      "endAddress": "44718 Julie Fort Suite 038",
      "startCoords": {
        "latitude": 39.702529,
        "longitude": -104.929276
      },
      "endCoords": {
        "latitude": 39.700566,
        "longitude": -105.037694
      },
      "distanceMeters": 19323.1,
      "durationMs": 3780693,
      "drivingDurationMs": 3402134,
      "idlingDurationMs": 378559,
      "fuelConsumedMl": 2457,
      "fuelConsumedGallons": 0.649,
      "maxSpeedMph": 54.1,
      "averageSpeedMph": 11.4,
      "safetyEvents": []
    },
    {
      "id": "trip_42031656_20250611_002",
      "vehicleId": "42031656",
      "driverId": "20000008",
      "startMs": 1749624780000,
      "endMs": 1749635322265,
      "startAddress": "080 Tran Plains Suite 209",
      "endAddress": "26610 Simpson Plaza Apt. 208",
      "startCoords": {
        "latitude": 39.729611,
        "longitude": -105.015441
      },
      "endCoords": {
        "latitude": 39.765134,
        "longitude": -104.966357
      },
      "distanceMeters": 82707.0,
      "durationMs": 10542265,
      "drivingDurationMs": 9372537,
      "idlingDurationMs": 1169728,
      "fuelConsumedMl": 10516,
      "fuelConsumedGallons": 2.778,
      "maxSpeedMph": 39.2,
      "averageSpeedMph": 17.5,
      "safetyEvents": []
    },
    {
      "id": "trip_42031656_20250611_003",
      "vehicleId": "42031656",
      "driverId": "20000008",
      "startMs": 1749634140000,
      "endMs": 1749635376126,
      "startAddress": "580 Burch Extension Suite 661",
      "endAddress": "3582 David Squares",
      "startCoords": {
        "latitude": 39.807276,
        "longitude": -105.013243
      },
      "endCoords": {
        "latitude": 39.687098,
        "longitude": -105.030937
      },
      "distanceMeters": 5349.0,
      "durationMs": 1236127,
      "drivingDurationMs": 1011899,
      "idlingDurationMs": 224228,
      "fuelConsumedMl": 681,
      "fuelConsumedGallons": 0.18,
      "maxSpeedMph": 42.1,
      "averageSpeedMph": 9.7,
      "safetyEvents": []
    },
    {
      "id": "trip_42031656_20250611_004",
      "vehicleId": "42031656",
      "driverId": "20000008",
      "startMs": 1749635940000,
      "endMs": 1749639814208,
      "startAddress": "1517 Jay Overpass Apt. 254",
      "endAddress": "539 Carlos Parkways Suite 926",
      "startCoords": {
        "latitude": 39.790718,
        "longitude": -105.072809
      },
      "endCoords": {
        "latitude": 39.740566,
        "longitude": -105.079348
      },
      "distanceMeters": 27663.6,
      "durationMs": 3874208,
      "drivingDurationMs": 3668272,
      "idlingDurationMs": 205936,
      "fuelConsumedMl": 3517,
      "fuelConsumedGallons": 0.929,
      "maxSpeedMph": 32.8,
      "averageSpeedMph": 16.0,
      "safetyEvents": []
    },
    {
      "id": "trip_42031656_20250612_001",
      "vehicleId": "42031656",
      "driverId": "20000022",
      "startMs": 1749749520000,
      "endMs": 1749757174058,
      "startAddress": "9767 Powell Circles",
      "endAddress": "03492 Timothy Causeway",
      "startCoords": {
        "latitude": 39.813735,
        "longitude": -105.040413
      },
      "endCoords": {
        "latitude": 39.738976,
        "longitude": -104.998529
      },
      "distanceMeters": 57042.4,
      "durationMs": 7654058,
      "drivingDurationMs": 6591865,
      "idlingDurationMs": 1062193,
      "fuelConsumedMl": 7253,
      "fuelConsumedGallons": 1.916,
      "maxSpeedMph": 64.9,
      "averageSpeedMph": 16.7,
      "safetyEvents": []
    },
    {
      "id": "trip_42031656_20250612_002",
      "vehicleId": "42031656",
      "driverId": "20000022",
      "startMs": 1749731400000,
      "endMs": 1749743490731,
      "startAddress": "6517 Perry Rapid Suite 485",
      "endAddress": "900 Anderson Wells",
      "startCoords": {
        "latitude": 39.748626,
        "longitude": -104.950862
      },
      "endCoords": {
        "latitude": 39.773404,
        "longitude": -104.972617
      },
      "distanceMeters": 54000.0,
      "durationMs": 12090731,
      "drivingDurationMs": 10709719,
      "idlingDurationMs": 1381012,
      "fuelConsumedMl": 6867,
      "fuelConsumedGallons": 1.814,
      "maxSpeedMph": 38.0,
      "averageSpeedMph": 10.0,
      "safetyEvents": []
    },
    {
      "id": "trip_42031656_20250613_001",
      "vehicleId": "42031656",
      "driverId": "20000005",
      "startMs": 1749817800000,
      "endMs": 1749825604962,
      "startAddress": "2419 Robert Shoal",
      "endAddress": "66031 Scott Ways",
      "startCoords": {
        "latitude": 39.751428,
        "longitude": -104.914945
      },
      "endCoords": {
        "latitude": 39.741945,
        "longitude": -104.987177
      },
      "distanceMeters": 46542.1,
      "durationMs": 7804962,
      "drivingDurationMs": 6349703,
      "idlingDurationMs": 1455259,
      "fuelConsumedMl": 5917,
      "fuelConsumedGallons": 1.563,
      "maxSpeedMph": 35.1,
      "averageSpeedMph": 13.3,
      "safetyEvents": []
    },
    {
      "id": "trip_42031656_20250613_002",
      "vehicleId": "42031656",
      "driverId": "20000005",
      "startMs": 1749832800000,
      "endMs": 1749838893711,
      "startAddress": "2613 Foster Ville",
      "endAddress": "11681 Regina Via",
      "startCoords": {
        "latitude": 39.788347,
        "longitude": -105.084817
      },
      "endCoords": {
        "latitude": 39.696333,
        "longitude": -105.052106
      },
      "distanceMeters": 45479.2,
      "durationMs": 6093712,
      "drivingDurationMs": 5233905,
      "idlingDurationMs": 859807,
      "fuelConsumedMl": 5784,
      "fuelConsumedGallons": 1.528,
      "maxSpeedMph": 29.3,
      "averageSpeedMph": 16.7,
      "safetyEvents": []
    },
    {
      "id": "trip_42031656_20250613_003",
      "vehicleId": "42031656",
      "driverId": null,
      "startMs": 1749823860000,
      "endMs": 1749836868259,
      "startAddress": "3613 Harris Square",
      "endAddress": "945 Webb Summit",
      "startCoords": {
        "latitude": 39.687568,
        "longitude": -105.038292
      },
      "endCoords": {
        "latitude": 39.78312,
        "longitude": -104.910839
      },
      "distanceMeters": 81231.1,
      "durationMs": 13008260,
      "drivingDurationMs": 11229725,
      "idlingDurationMs": 1778535,
      "fuelConsumedMl": 10327,
      "fuelConsumedGallons": 2.728,
      "maxSpeedMph": 68.0,
      "averageSpeedMph": 14.0,
      "safetyEvents": [
        {
          "type": "speeding",
          "startMs": 1749836700000,
          "maxSpeedMph": 68.0
        }
      ]
    },
    {
      "id": "trip_42031656_20250613_004",
      "vehicleId": "42031656",
      "driverId": "20000005",
      "startMs": 1749797580000,
      "endMs": 1749805069828,
      "startAddress": "0177 Philip Walk Suite 167",
      "endAddress": "5026 Timothy Cape",
      "startCoords": {
        "latitude": 39.75442,
        "longitude": -104.991473
      },
      "endCoords": {
        "latitude": 39.702491,
        "longitude": -104.974426
      },
      "distanceMeters": 39056.5,
      "durationMs": 7489829,
      "drivingDurationMs": 6604204,
      "idlingDurationMs": 885624,
      "fuelConsumedMl": 4966,
      "fuelConsumedGallons": 1.312,
      "maxSpeedMph": 40.8,
      "averageSpeedMph": 11.7,
      "safetyEvents": []
    },
    {
      "id": "trip_42031656_20250613_005",
      "vehicleId": "42031656",
      "driverId": "20000005",
      "startMs": 1749824640000,
      "endMs": 1749828503020,
      "startAddress": "35475 Taylor Greens",
      "endAddress": "633 Moore Port",
      "startCoords": {
        "latitude": 39.694275,
        "longitude": -104.919405
      },
      "endCoords": {
        "latitude": 39.687607,
        "longitude": -104.980673
      },
      "distanceMeters": 22868.9,
      "durationMs": 3863020,
      "drivingDurationMs": 3332995,
      "idlingDurationMs": 530025,
      "fuelConsumedMl": 2907,
      "fuelConsumedGallons": 0.768,
      "maxSpeedMph": 64.4,
      "averageSpeedMph": 13.2,
      "safetyEvents": []
    },
    {
      "id": "trip_42031656_20250614_001",
      "vehicleId": "42031656",
      "driverId": "20000015",
      "startMs": 1749907080000,
      "endMs": 1749922294481,
      "startAddress": "7728 Jenkins Ways Suite 520",
      "endAddress": "197 Anderson Harbors Apt. 305",
      "startCoords": {
        "latitude": 39.778095,
        "longitude": -104.935364
      },
      "endCoords": {
        "latitude": 39.724677,
        "longitude": -104.920138
      },
      "distanceMeters": 71393.1,
      "durationMs": 15214482,
      "drivingDurationMs": 13854534,
      "idlingDurationMs": 1359947,
      "fuelConsumedMl": 9077,
      "fuelConsumedGallons": 2.398,
      "maxSpeedMph": 64.6,
      "averageSpeedMph": 10.5,
      "safetyEvents": []
    },
    {
      "id": "trip_42031656_20250614_002",
      "vehicleId": "42031656",
      "driverId": "20000015",
      "startMs": 1749902280000,
      "endMs": 1749906230803,
      "startAddress": "00251 Potts Radial Suite 472",
      "endAddress": "689 Tanya Wells Apt. 648",
      "startCoords": {
        "latitude": 39.774085,
        "longitude": -105.023772
      },
      "endCoords": {
        "latitude": 39.723969,
        "longitude": -104.92611
      },
      "distanceMeters": 26486.8,
      "durationMs": 3950803,
      "drivingDurationMs": 3498425,
      "idlingDurationMs": 452378,
      "fuelConsumedMl": 3369,
      "fuelConsumedGallons": 0.89,
      "maxSpeedMph": 53.9,
      "averageSpeedMph": 15.0,
      "safetyEvents": []
    },
    {
      "id": "trip_42031656_20250614_003",
      "vehicleId": "42031656",
      "driverId": "20000015",
      "startMs": 1749925980000,
      "endMs": 1749934800000,
      "startAddress": "97539 Robert Union Suite 986",
      "endAddress": "08174 Reyes Fields",
      "startCoords": {
        "latitude": 39.826133,
        "longitude": -105.01057
      },
      "endCoords": {
        "latitude": 39.732722,
        "longitude": -104.982225
      },
      "distanceMeters": 66132.2,
      "durationMs": 8820000,
      "drivingDurationMs": 8550550,
      "idlingDurationMs": 269450,
      "fuelConsumedMl": 8407,
      "fuelConsumedGallons": 2.221,
      "maxSpeedMph": 64.7,
      "averageSpeedMph": 16.8,
      "safetyEvents": []
    },
    {
      "id": "trip_42031656_20250615_001",
      "vehicleId": "42031656",
      "driverId": "20000010",
      "startMs": 1749988020000,
      "endMs": 1749998283304,
      "startAddress": "761 Spencer Fork Apt. 139",
      "endAddress": "3691 Michele Turnpike Suite 309",
      "startCoords": {
        "latitude": 39.759285,
        "longitude": -104.969776
      },
      "endCoords": {
        "latitude": 39.804032,
        "longitude": -104.908122
      },
      "distanceMeters": 46199.3,
      "durationMs": 10263304,
      "drivingDurationMs": 8565423,
      "idlingDurationMs": 1697881,
      "fuelConsumedMl": 5875,
      "fuelConsumedGallons": 1.552,
      "maxSpeedMph": 39.6,
      "averageSpeedMph": 10.1,
      "safetyEvents": []
    },
    {
      "id": "trip_42031656_20250615_002",
      "vehicleId": "42031656",
      "driverId": "20000010",
      "startMs": 1749976440000,
      "endMs": 1749983670701,
      "startAddress": "53171 Bennett Ridges",
      "endAddress": "8812 Lopez Parks",
      "startCoords": {
        "latitude": 39.706091,
        "longitude": -104.930763
      },
      "endCoords": {
        "latitude": 39.750477,
        "longitude": -104.980556
      },
      "distanceMeters": 32586.0,
      "durationMs": 7230702,
      "drivingDurationMs": 6132346,
      "idlingDurationMs": 1098355,
      "fuelConsumedMl": 4141,
      "fuelConsumedGallons": 1.094,
      "maxSpeedMph": 43.1,
      "averageSpeedMph": 10.1,
      "safetyEvents": []
    },
    {
      "id": "trip_42031656_20250616_001",
      "vehicleId": "42031656",
      "driverId": "20000022",
      "startMs": 1750075680000,
      "endMs": 1750081715354,
      "startAddress": "3073 Cannon Mills Apt. 989",
      "endAddress": "23066 Chase Well",
      "startCoords": {
        "latitude": 39.818313,
        "longitude": -104.927911
      },
      "endCoords": {
        "latitude": 39.790692,
        "longitude": -104.899978
      },
      "distanceMeters": 45715.7,
      "durationMs": 6035355,
      "drivingDurationMs": 5171276,
      "idlingDurationMs": 864079,
      "fuelConsumedMl": 5811,
      "fuelConsumedGallons": 1.535,
      "maxSpeedMph": 71.2,
      "averageSpeedMph": 16.9,
      "safetyEvents": [
        {
          "type": "speeding",
          "startMs": 1750078740000,
          "maxSpeedMph": 71.2
        }
      ]
    },
    {
      "id": "trip_42031656_20250616_002",
      "vehicleId": "42031656",
      "driverId": "20000022",
      "startMs": 1750067520000,
      "endMs": 1750068729962,
      "startAddress": "28655 Meghan Street",
      "endAddress": "10576 Gregory Pass Suite 633",
      "startCoords": {
        "latitude": 39.717459,
        "longitude": -104.973514
      },
      "endCoords": {
        "latitude": 39.730798,
        "longitude": -104.917301
      },
      "distanceMeters": 6631.2,
      "durationMs": 1209962,
      "drivingDurationMs": 970633,
      "idlingDurationMs": 239329,
      "fuelConsumedMl": 844,
      "fuelConsumedGallons": 0.223,
      "maxSpeedMph": 35.8,
      "averageSpeedMph": 12.3,
      "safetyEvents": []
    },
    {
      "id": "trip_42031656_20250616_003",
      "vehicleId": "42031656",
      "driverId": "20000022",
      "startMs": 1750083840000,
      "endMs": 1750090683488,
      "startAddress": "5714 Jermaine Station",
      "endAddress": "6836 Greene Square Suite 870",
      "startCoords": {
        "latitude": 39.789312,
        "longitude": -104.987624
      },
      "endCoords": {
        "latitude": 39.742428,
        "longitude": -105.001259
      },
      "distanceMeters": 53523.4,
      "durationMs": 6843488,
      "drivingDurationMs": 6077602,
      "idlingDurationMs": 765886,
      "fuelConsumedMl": 6806,
      "fuelConsumedGallons": 1.798,
      "maxSpeedMph": 30.4,
      "averageSpeedMph": 17.5,
      "safetyEvents": []
    },
    {
      "id": "trip_42031656_20250616_004",
      "vehicleId": "42031656",
      "driverId": "20000022",
      "startMs": 1750085460000,
      "endMs": 1750099800877,
      "startAddress": "813 Perez Center Apt. 264",
      "endAddress": "4184 Morrison Curve",
      "startCoords": {
        "latitude": 39.789296,
        "longitude": -104.968949
      },
      "endCoords": {
        "latitude": 39.737852,
        "longitude": -104.918113
      },
      "distanceMeters": 76090.6,
      "durationMs": 14340877,
      "drivingDurationMs": 13005463,
      "idlingDurationMs": 1335414,
      "fuelConsumedMl": 9676,
      "fuelConsumedGallons": 2.556,
      "maxSpeedMph": 36.0,
      "averageSpeedMph": 11.9,
      "safetyEvents": []
    },
    {
      "id": "trip_42031656_20250617_001",
      "vehicleId": "42031656",
      "driverId": "20000011",
      "startMs": 1750173120000,
      "endMs": 1750183887350,
      "startAddress": "826 Martinez Rapids",
      "endAddress": "18527 Stark Village",
      "startCoords": {
        "latitude": 39.823513,
        "longitude": -104.90927
      },
      "endCoords": {
        "latitude": 39.775328,
        "longitude": -104.989552
      },
      "distanceMeters": 80673.5,
      "durationMs": 10767350,
      "drivingDurationMs": 9295616,
      "idlingDurationMs": 1471735,
      "fuelConsumedMl": 10258,
      "fuelConsumedGallons": 2.71,
      "maxSpeedMph": 59.3,
      "averageSpeedMph": 16.8,
      "safetyEvents": []
    },
    {
      "id": "trip_42031656_20250617_002",
      "vehicleId": "42031656",
      "driverId": "20000011",
      "startMs": 1750161900000,
      "endMs": 1750171418838,
      "startAddress": "7148 David Heights Suite 968",
      "endAddress": "3630 Jordan Curve",
      "startCoords": {
        "latitude": 39.812595,
        "longitude": -105.080834
      },
      "endCoords": {
        "latitude": 39.780584,
        "longitude": -105.028406
      },
      "distanceMeters": 65741.5,
      "durationMs": 9518838,
      "drivingDurationMs": 7942398,
      "idlingDurationMs": 1576440,
      "fuelConsumedMl": 8358,
      "fuelConsumedGallons": 2.208,
      "maxSpeedMph": 31.9,
      "averageSpeedMph": 15.4,
      "safetyEvents": []
    },
    {
      "id": "trip_42031656_20250617_003",
      "vehicleId": "42031656",
      "driverId": "20000011",
      "startMs": 1750185900000,
      "endMs": 1750194000000,
      "startAddress": "796 Laura Trace",
      "endAddress": "8388 Amber Glens",
      "startCoords": {
        "latitude": 39.801347,
        "longitude": -104.97943
      },
      "endCoords": {
        "latitude": 39.782384,
        "longitude": -104.972337
      },
      "distanceMeters": 40111.8,
      "durationMs": 8100000,
      "drivingDurationMs": 6638050,
      "idlingDurationMs": 1461950,
      "fuelConsumedMl": 5099,
      "fuelConsumedGallons": 1.347,
      "maxSpeedMph": 52.4,
      "averageSpeedMph": 11.1,
      "safetyEvents": []
    },
    {
      "id": "trip_42031656_20250617_004",
      "vehicleId": "42031656",
      "driverId": "20000011",
      "startMs": 1750160040000,
      "endMs": 1750169170615,
      "startAddress": "5863 Harris Lights",
      "endAddress": "030 Garcia Glens Apt. 025",
      "startCoords": {
        "latitude": 39.712213,
        "longitude": -104.91069
      },
      "endCoords": {
        "latitude": 39.697314,
        "longitude": -104.930802
      },
      "distanceMeters": 57487.6,
      "durationMs": 9130616,
      "drivingDurationMs": 7416128,
      "idlingDurationMs": 1714488,
      "fuelConsumedMl": 7310,
      "fuelConsumedGallons": 1.931,
      "maxSpeedMph": 69.3,
      "averageSpeedMph": 14.1,
      "safetyEvents": [
        {
          "type": "speeding",
          "startMs": 1750167600000,
          "maxSpeedMph": 69.3
        }
      ]
    },
    {
      "id": "trip_42031656_20250617_005",
      "vehicleId": "42031656",
      "driverId": "20000011",
      "startMs": 1750165800000,
      "endMs": 1750167381729,
      "startAddress": "27116 Callahan Views Suite 299",
      "endAddress": "125 Jackson Ranch",
      "startCoords": {
        "latitude": 39.690675,
        "longitude": -105.005711
      },
      "endCoords": {
        "latitude": 39.772931,
        "longitude": -105.071694
      },
      "distanceMeters": 10406.6,
      "durationMs": 1581730,
      "drivingDurationMs": 1347974,
      "idlingDurationMs": 233756,
      "fuelConsumedMl": 1325,
      "fuelConsumedGallons": 0.35,
      "maxSpeedMph": 71.9,
      "averageSpeedMph": 14.7,
      "safetyEvents": [
        {
          "type": "speeding",
          "startMs": 1750166880000,
          "maxSpeedMph": 71.9
        }
      ]
    },
    {
      "id": "trip_42031656_20250618_001",
      "vehicleId": "42031656",
      "driverId": "20000019",
      "startMs": 1750263480000,
      "endMs": 1750273675461,
      "startAddress": "7597 Alexander Park",
      "endAddress": "90320 Ayala Oval",
      "startCoords": {
        "latitude": 39.713766,
        "longitude": -105.066152
      },
      "endCoords": {
        "latitude": 39.686352,
        "longitude": -105.032746
      },
      "distanceMeters": 57925.2,
      "durationMs": 10195462,
      "drivingDurationMs": 9400170,
      "idlingDurationMs": 795292,
      "fuelConsumedMl": 7366,
      "fuelConsumedGallons": 1.946,
      "maxSpeedMph": 71.8,
      "averageSpeedMph": 12.7,
      "safetyEvents": [
        {
          "type": "speeding",
          "startMs": 1750270500000,
          "maxSpeedMph": 71.8
        }
      ]
    },
    {
      "id": "trip_42031656_20250618_002",
      "vehicleId": "42031656",
      "driverId": "20000019",
      "startMs": 1750240500000,
      "endMs": 1750247751622,
      "startAddress": "157 Smith Courts",
      "endAddress": "33095 Ashley Walks Suite 016",
      "startCoords": {
        "latitude": 39.759935,
        "longitude": -105.040081
      },
      "endCoords": {
        "latitude": 39.734373,
        "longitude": -105.027245
      },
      "distanceMeters": 43445.0,
      "durationMs": 7251622,
      "drivingDurationMs": 6868817,
      "idlingDurationMs": 382805,
      "fuelConsumedMl": 5523,
      "fuelConsumedGallons": 1.459,
      "maxSpeedMph": 72.0,
      "averageSpeedMph": 13.4,
      "safetyEvents": [
        {
          "type": "speeding",
          "startMs": 1750245060000,
          "maxSpeedMph": 72.0
        }
      ]
    },
    {
      "id": "trip_42031656_20250618_003",
      "vehicleId": "42031656",
      "driverId": "20000019",
      "startMs": 1750232520000,
      "endMs": 1750236018311,
      "startAddress": "537 Richard Camp",
      "endAddress": "05440 Copeland Station Suite 954",
      "startCoords": {
        "latitude": 39.782368,
        "longitude": -104.993152
      },
      "endCoords": {
        "latitude": 39.80226,
        "longitude": -105.08657
      },
      "distanceMeters": 19665.3,
      "durationMs": 3498311,
      "drivingDurationMs": 3038472,
      "idlingDurationMs": 459839,
      "fuelConsumedMl": 2502,
      "fuelConsumedGallons": 0.661,
      "maxSpeedMph": 61.0,
      "averageSpeedMph": 12.6,
      "safetyEvents": []
    },
    {
      "id": "trip_42031656_20250618_004",
      "vehicleId": "42031656",
      "driverId": "20000019",
      "startMs": 1750249380000,
      "endMs": 1750252872094,
      "startAddress": "97884 Christina Drive Apt. 518",
      "endAddress": "2593 Shannon Road Suite 624",
      "startCoords": {
        "latitude": 39.818564,
        "longitude": -104.991137
      },
      "endCoords": {
        "latitude": 39.733615,
        "longitude": -104.940415
      },
      "distanceMeters": 15431.7,
      "durationMs": 3492095,
      "drivingDurationMs": 2814379,
      "idlingDurationMs": 677716,
      "fuelConsumedMl": 1961,
      "fuelConsumedGallons": 0.518,
      "maxSpeedMph": 65.7,
      "averageSpeedMph": 9.9,
      "safetyEvents": [
        {
          "type": "speeding",
          "startMs": 1750249560000,
          "maxSpeedMph": 65.7
        }
      ]
    },
    {
      "id": "trip_42031656_20250619_001",
      "vehicleId": "42031656",
      "driverId": "20000013",
      "startMs": 1750340040000,
      "endMs": 1750342189710,
      "startAddress": "5180 Gary Drive",
      "endAddress": "253 Schultz Common",
      "startCoords": {
        "latitude": 39.790373,
        "longitude": -105.04209
      },
      "endCoords": {
        "latitude": 39.737553,
        "longitude": -104.915291
      },
      "distanceMeters": 13772.9,
      "durationMs": 2149710,
      "drivingDurationMs": 1911034,
      "idlingDurationMs": 238676,
      "fuelConsumedMl": 1753,
      "fuelConsumedGallons": 0.463,
      "maxSpeedMph": 70.5,
      "averageSpeedMph": 14.3,
      "safetyEvents": [
        {
          "type": "speeding",
          "startMs": 1750341120000,
          "maxSpeedMph": 70.5
        }
      ]
    },
    {
      "id": "trip_42031656_20250619_002",
      "vehicleId": "42031656",
      "driverId": "20000013",
      "startMs": 1750356540000,
      "endMs": 1750358547340,
      "startAddress": "075 Pollard Roads Suite 014",
      "endAddress": "6817 Timothy Union",
      "startCoords": {
        "latitude": 39.700721,
        "longitude": -105.050809
      },
      "endCoords": {
        "latitude": 39.823027,
        "longitude": -105.040871
      },
      "distanceMeters": 14149.9,
      "durationMs": 2007341,
      "drivingDurationMs": 1669134,
      "idlingDurationMs": 338207,
      "fuelConsumedMl": 1798,
      "fuelConsumedGallons": 0.475,
      "maxSpeedMph": 43.5,
      "averageSpeedMph": 15.8,
      "safetyEvents": []
    },
    {
      "id": "trip_42031656_20250619_003",
      "vehicleId": "42031656",
      "driverId": "20000013",
      "startMs": 1750325880000,
      "endMs": 1750330809916,
      "startAddress": "13027 Anderson Harbors",
      "endAddress": "274 Kyle Brooks Apt. 850",
      "startCoords": {
        "latitude": 39.805722,
        "longitude": -104.91474
      },
      "endCoords": {
        "latitude": 39.716177,
        "longitude": -105.035345
      },
      "distanceMeters": 32278.9,
      "durationMs": 4929916,
      "drivingDurationMs": 4284707,
      "idlingDurationMs": 645209,
      "fuelConsumedMl": 4103,
      "fuelConsumedGallons": 1.084,
      "maxSpeedMph": 55.7,
      "averageSpeedMph": 14.6,
      "safetyEvents": []
    },
    {
      "id": "trip_42031656_20250619_004",
      "vehicleId": "42031656",
      "driverId": "20000013",
      "startMs": 1750334100000,
      "endMs": 1750347547688,
      "startAddress": "67667 Deleon Club Suite 977",
      "endAddress": "297 Michelle Rue Apt. 955",
      "startCoords": {
        "latitude": 39.80826,
        "longitude": -104.973254
      },
      "endCoords": {
        "latitude": 39.708535,
        "longitude": -104.955828
      },
      "distanceMeters": 71386.3,
      "durationMs": 13447689,
      "drivingDurationMs": 11055554,
      "idlingDurationMs": 2392135,
      "fuelConsumedMl": 9077,
      "fuelConsumedGallons": 2.398,
      "maxSpeedMph": 35.3,
      "averageSpeedMph": 11.9,
      "safetyEvents": []
    },
    {
      "id": "trip_42031656_20250620_001",
      "vehicleId": "42031656",
      "driverId": "20000019",
      "startMs": 1750404600000,
      "endMs": 1750416157265,
      "startAddress": "7941 Madeline Gateway Apt. 400",
      "endAddress": "93108 Nguyen Creek Apt. 410",
      "startCoords": {
        "latitude": 39.754688,
        "longitude": -105.009142
      },
      "endCoords": {
        "latitude": 39.823774,
        "longitude": -105.035076
      },
      "distanceMeters": 78486.0,
      "durationMs": 11557266,
      "drivingDurationMs": 9401579,
      "idlingDurationMs": 2155687,
      "fuelConsumedMl": 9978,
      "fuelConsumedGallons": 2.636,
      "maxSpeedMph": 45.0,
      "averageSpeedMph": 15.2,
      "safetyEvents": []
    },
    {
      "id": "trip_42031656_20250620_002",
      "vehicleId": "42031656",
      "driverId": "20000019",
      "startMs": 1750436880000,
      "endMs": 1750443167537,
      "startAddress": "13055 Hall Inlet Suite 471",
      "endAddress": "2014 Jeffrey Fords Apt. 446",
      "startCoords": {
        "latitude": 39.70569,
        "longitude": -105.021921
      },
      "endCoords": {
        "latitude": 39.776788,
        "longitude": -104.961649
      },
      "distanceMeters": 34855.2,
      "durationMs": 6287537,
      "drivingDurationMs": 5066479,
      "idlingDurationMs": 1221059,
      "fuelConsumedMl": 4433,
      "fuelConsumedGallons": 1.171,
      "maxSpeedMph": 70.6,
      "averageSpeedMph": 12.4,
      "safetyEvents": [
        {
          "type": "speeding",
          "startMs": 1750442280000,
          "maxSpeedMph": 70.6
        }
      ]
    },
    {
      "id": "trip_42031656_20250620_003",
      "vehicleId": "42031656",
      "driverId": "20000019",
      "startMs": 1750407420000,
      "endMs": 1750415603558,
      "startAddress": "81266 Williams Locks Apt. 969",
      "endAddress": "5970 Bartlett Divide",
      "startCoords": {
        "latitude": 39.710236,
        "longitude": -105.078121
      },
      "endCoords": {
        "latitude": 39.692848,
        "longitude": -105.04191
      },
      "distanceMeters": 51316.2,
      "durationMs": 8183558,
      "drivingDurationMs": 7088051,
      "idlingDurationMs": 1095507,
      "fuelConsumedMl": 6526,
      "fuelConsumedGallons": 1.724,
      "maxSpeedMph": 38.8,
      "averageSpeedMph": 14.0,
      "safetyEvents": []
    },
    {
      "id": "trip_42031656_20250621_001",
      "vehicleId": "42031656",
      "driverId": "20000019",
      "startMs": 1750486440000,
      "endMs": 1750497165374,
      "startAddress": "86952 Gonzales View Apt. 636",
      "endAddress": "14194 Morse Pass",
      "startCoords": {
        "latitude": 39.806805,
        "longitude": -104.938309
      },
      "endCoords": {
        "latitude": 39.816601,
        "longitude": -104.996947
      },
      "distanceMeters": 82780.3,
      "durationMs": 10725375,
      "drivingDurationMs": 10214869,
      "idlingDurationMs": 510505,
      "fuelConsumedMl": 10523,
      "fuelConsumedGallons": 2.78,
      "maxSpeedMph": 40.0,
      "averageSpeedMph": 17.3,
      "safetyEvents": []
    },
    {
      "id": "trip_42031656_20250621_002",
      "vehicleId": "42031656",
      "driverId": "20000019",
      "startMs": 1750521240000,
      "endMs": 1750525840866,
      "startAddress": "754 Rose Ville",
      "endAddress": "00365 Hansen Orchard",
      "startCoords": {
        "latitude": 39.794445,
        "longitude": -105.035454
      },
      "endCoords": {
        "latitude": 39.734262,
        "longitude": -104.967053
      },
      "distanceMeters": 30623.8,
      "durationMs": 4600866,
      "drivingDurationMs": 4149271,
      "idlingDurationMs": 451595,
      "fuelConsumedMl": 3895,
      "fuelConsumedGallons": 1.029,
      "maxSpeedMph": 46.2,
      "averageSpeedMph": 14.9,
      "safetyEvents": []
    },
    {
      "id": "trip_42031656_20250621_003",
      "vehicleId": "42031656",
      "driverId": "20000019",
      "startMs": 1750489560000,
      "endMs": 1750500965548,
      "startAddress": "2482 Nelson Spurs",
      "endAddress": "83798 Lee Hills Apt. 149",
      "startCoords": {
        "latitude": 39.827845,
        "longitude": -105.012454
      },
      "endCoords": {
        "latitude": 39.767514,
        "longitude": -104.988549
      },
      "distanceMeters": 75486.2,
      "durationMs": 11405549,
      "drivingDurationMs": 9423631,
      "idlingDurationMs": 1981918,
      "fuelConsumedMl": 9596,
      "fuelConsumedGallons": 2.535,
      "maxSpeedMph": 63.3,
      "averageSpeedMph": 14.8,
      "safetyEvents": []
    },
    {
      "id": "trip_42031656_20250621_004",
      "vehicleId": "42031656",
      "driverId": "20000019",
      "startMs": 1750487400000,
      "endMs": 1750492604595,
      "startAddress": "72512 Chandler Ford",
      "endAddress": "2386 Andrew Ranch",
      "startCoords": {
        "latitude": 39.79349,
        "longitude": -104.907297
      },
      "endCoords": {
        "latitude": 39.781078,
        "longitude": -104.978861
      },
      "distanceMeters": 28138.1,
      "durationMs": 5204595,
      "drivingDurationMs": 4363178,
      "idlingDurationMs": 841417,
      "fuelConsumedMl": 3577,
      "fuelConsumedGallons": 0.945,
      "maxSpeedMph": 33.6,
      "averageSpeedMph": 12.1,
      "safetyEvents": []
    },
    {
      "id": "trip_42031656_20250622_001",
      "vehicleId": "42031656",
      "driverId": "20000018",
      "startMs": 1750600140000,
      "endMs": 1750608298687,
      "startAddress": "66317 Aaron Creek",
      "endAddress": "53021 John Ville",
      "startCoords": {
        "latitude": 39.727437,
        "longitude": -105.050144
      },
      "endCoords": {
        "latitude": 39.808584,
        "longitude": -104.980635
      },
      "distanceMeters": 35138.6,
      "durationMs": 8158687,
      "drivingDurationMs": 6627613,
      "idlingDurationMs": 1531074,
      "fuelConsumedMl": 4467,
      "fuelConsumedGallons": 1.18,
      "maxSpeedMph": 65.5,
      "averageSpeedMph": 9.6,
      "safetyEvents": [
        {
          "type": "speeding",
          "startMs": 1750603320000,
          "maxSpeedMph": 65.5
        }
      ]
    },
    {
      "id": "trip_42031656_20250623_001",
      "vehicleId": "42031656",
      "driverId": "20000021",
      "startMs": 1750670520000,
      "endMs": 1750672668988,
      "startAddress": "6217 Lee Rest Suite 051",
      "endAddress": "1154 Donald Shore Apt. 409",
      "startCoords": {
        "latitude": 39.757037,
        "longitude": -104.982244
      },
      "endCoords": {
        "latitude": 39.723076,
        "longitude": -105.0317
      },
      "distanceMeters": 10675.0,
      "durationMs": 2148989,
      "drivingDurationMs": 1799337,
      "idlingDurationMs": 349652,
      "fuelConsumedMl": 1359,
      "fuelConsumedGallons": 0.359,
      "maxSpeedMph": 67.1,
      "averageSpeedMph": 11.1,
      "safetyEvents": [
        {
          "type": "speeding",
          "startMs": 1750672140000,
          "maxSpeedMph": 67.1
        }
      ]
    },
    {
      "id": "trip_42031656_20250623_002",
      "vehicleId": "42031656",
      "driverId": "20000021",
      "startMs": 1750679820000,
      "endMs": 1750689253408,
      "startAddress": "50909 Wood Route",
      "endAddress": "689 Leslie Island",
      "startCoords": {
        "latitude": 39.823576,
        "longitude": -104.950256
      },
      "endCoords": {
        "latitude": 39.773644,
        "longitude": -105.054469
      },
      "distanceMeters": 57061.9,
      "durationMs": 9433408,
      "drivingDurationMs": 7677099,
      "idlingDurationMs": 1756309,
      "fuelConsumedMl": 7257,
      "fuelConsumedGallons": 1.917,
      "maxSpeedMph": 40.8,
      "averageSpeedMph": 13.5,
      "safetyEvents": []
    },
    {
      "id": "trip_42031656_20250623_003",
      "vehicleId": "42031656",
      "driverId": "20000021",
      "startMs": 1750660260000,
      "endMs": 1750663475844,
      "startAddress": "60679 Alicia Parks Apt. 255",
      "endAddress": "878 Ethan Rue Suite 620",
      "startCoords": {
        "latitude": 39.751963,
        "longitude": -104.979392
      },
      "endCoords": {
        "latitude": 39.701523,
        "longitude": -105.011283
      },
      "distanceMeters": 24869.5,
      "durationMs": 3215844,
      "drivingDurationMs": 2996456,
      "idlingDurationMs": 219388,
      "fuelConsumedMl": 3161,
      "fuelConsumedGallons": 0.835,
      "maxSpeedMph": 40.9,
      "averageSpeedMph": 17.3,
      "safetyEvents": []
    },
    {
      "id": "trip_42031656_20250623_004",
      "vehicleId": "42031656",
      "driverId": "20000021",
      "startMs": 1750698840000,
      "endMs": 1750711850189,
      "startAddress": "1451 Amber Valleys Suite 882",
      "endAddress": "796 Bell Centers",
      "startCoords": {
        "latitude": 39.825904,
        "longitude": -105.04739
      },
      "endCoords": {
        "latitude": 39.807796,
        "longitude": -105.023896
      },
      "distanceMeters": 76810.5,
      "durationMs": 13010190,
      "drivingDurationMs": 11153992,
      "idlingDurationMs": 1856197,
      "fuelConsumedMl": 9766,
      "fuelConsumedGallons": 2.58,
      "maxSpeedMph": 32.8,
      "averageSpeedMph": 13.2,
      "safetyEvents": []
    },
    {
      "id": "trip_42031656_20250623_005",
      "vehicleId": "42031656",
      "driverId": "20000021",
      "startMs": 1750684260000,
      "endMs": 1750699815232,
      "startAddress": "9359 Elizabeth Vista",
      "endAddress": "9357 Jennifer Row Apt. 581",
      "startCoords": {
        "latitude": 39.69068,
        "longitude": -105.031194
      },
      "endCoords": {
        "latitude": 39.796666,
        "longitude": -104.959032
      },
      "distanceMeters": 84492.6,
      "durationMs": 15555233,
      "drivingDurationMs": 14753862,
      "idlingDurationMs": 801371,
      "fuelConsumedMl": 10743,
      "fuelConsumedGallons": 2.838,
      "maxSpeedMph": 35.0,
      "averageSpeedMph": 12.2,
      "safetyEvents": []
    },
    {
      "id": "trip_42031656_20250624_001",
      "vehicleId": "42031656",
      "driverId": "20000012",
      "startMs": 1750789680000,
      "endMs": 1750793544357,
      "startAddress": "34052 May Common Suite 144",
      "endAddress": "47083 Mckinney Fields",
      "startCoords": {
        "latitude": 39.780821,
        "longitude": -105.002823
      },
      "endCoords": {
        "latitude": 39.713121,
        "longitude": -104.984413
      },
      "distanceMeters": 18200.1,
      "durationMs": 3864357,
      "drivingDurationMs": 3216116,
      "idlingDurationMs": 648241,
      "fuelConsumedMl": 2313,
      "fuelConsumedGallons": 0.611,
      "maxSpeedMph": 67.7,
      "averageSpeedMph": 10.5,
      "safetyEvents": [
        {
          "type": "speeding",
          "startMs": 1750790700000,
          "maxSpeedMph": 67.7
        }
      ]
    },
    {
      "id": "trip_42031656_20250624_002",
      "vehicleId": "42031656",
      "driverId": null,
      "startMs": 1750747680000,
      "endMs": 1750750236439,
      "startAddress": "963 Julie Glen",
      "endAddress": "64153 Boyd Rapids Suite 604",
      "startCoords": {
        "latitude": 39.701516,
        "longitude": -104.99969
      },
      "endCoords": {
        "latitude": 39.776499,
        "longitude": -105.042799
      },
      "distanceMeters": 12585.2,
      "durationMs": 2556439,
      "drivingDurationMs": 2215005,
      "idlingDurationMs": 341434,
      "fuelConsumedMl": 1601,
      "fuelConsumedGallons": 0.423,
      "maxSpeedMph": 49.7,
      "averageSpeedMph": 11.0,
      "safetyEvents": []
    },
    {
      "id": "trip_42031656_20250625_001",
      "vehicleId": "42031656",
      "driverId": "20000006",
      "startMs": 1750835400000,
      "endMs": 1750840850689,
      "startAddress": "1805 Renee Cliffs",
      "endAddress": "363 Johnson Divide",
      "startCoords": {
        "latitude": 39.752528,
        "longitude": -104.946577
      },
      "endCoords": {
        "latitude": 39.720174,
        "longitude": -105.043363
      },
      "distanceMeters": 31528.1,
      "durationMs": 5450689,
      "drivingDurationMs": 5073858,
      "idlingDurationMs": 376832,
      "fuelConsumedMl": 4009,
      "fuelConsumedGallons": 1.059,
      "maxSpeedMph": 60.3,
      "averageSpeedMph": 12.9,
      "safetyEvents": []
    },
    {
      "id": "trip_42031656_20250625_002",
      "vehicleId": "42031656",
      "driverId": "20000006",
      "startMs": 1750863240000,
      "endMs": 1750869673543,
      "startAddress": "0159 Pierce Ways Apt. 006",
      "endAddress": "87296 Kimberly Glen Apt. 646",
      "startCoords": {
        "latitude": 39.787013,
        "longitude": -105.073336
      },
      "endCoords": {
        "latitude": 39.711569,
        "longitude": -105.075677
      },
      "distanceMeters": 37875.2,
      "durationMs": 6433544,
      "drivingDurationMs": 5258820,
      "idlingDurationMs": 1174724,
      "fuelConsumedMl": 4815,
      "fuelConsumedGallons": 1.272,
      "maxSpeedMph": 71.5,
      "averageSpeedMph": 13.2,
      "safetyEvents": [
        {
          "type": "speeding",
          "startMs": 1750868100000,
          "maxSpeedMph": 71.5
        }
      ]
    },
    {
      "id": "trip_42031656_20250625_003",
      "vehicleId": "42031656",
      "driverId": "20000006",
      "startMs": 1750864020000,
      "endMs": 1750865829687,
      "startAddress": "69073 Price Flats",
      "endAddress": "3229 Ramirez Drive",
      "startCoords": {
        "latitude": 39.713613,
        "longitude": -104.900073
      },
      "endCoords": {
        "latitude": 39.753698,
        "longitude": -104.984773
      },
      "distanceMeters": 11235.6,
      "durationMs": 1809688,
      "drivingDurationMs": 1551566,
      "idlingDurationMs": 258122,
      "fuelConsumedMl": 1427,
      "fuelConsumedGallons": 0.377,
      "maxSpeedMph": 62.8,
      "averageSpeedMph": 13.9,
      "safetyEvents": []
    },
    {
      "id": "trip_42031656_20250625_004",
      "vehicleId": "42031656",
      "driverId": "20000006",
      "startMs": 1750849800000,
      "endMs": 1750851541063,
      "startAddress": "0620 Bryan Club Suite 945",
      "endAddress": "7221 Donald Vista",
      "startCoords": {
        "latitude": 39.803038,
        "longitude": -104.922013
      },
      "endCoords": {
        "latitude": 39.697203,
        "longitude": -105.037264
      },
      "distanceMeters": 7922.2,
      "durationMs": 1741064,
      "drivingDurationMs": 1530991,
      "idlingDurationMs": 210073,
      "fuelConsumedMl": 1007,
      "fuelConsumedGallons": 0.266,
      "maxSpeedMph": 39.7,
      "averageSpeedMph": 10.2,
      "safetyEvents": []
    },
    {
      "id": "trip_42031656_20250626_001",
      "vehicleId": "42031656",
      "driverId": "20000001",
      "startMs": 1750927380000,
      "endMs": 1750940648311,
      "startAddress": "981 Natalie Harbor",
      "endAddress": "25721 Megan Grove",
      "startCoords": {
        "latitude": 39.775907,
        "longitude": -105.021375
      },
      "endCoords": {
        "latitude": 39.80519,
        "longitude": -104.972773
      },
      "distanceMeters": 69116.3,
      "durationMs": 13268311,
      "drivingDurationMs": 13053814,
      "idlingDurationMs": 214498,
      "fuelConsumedMl": 8786,
      "fuelConsumedGallons": 2.321,
      "maxSpeedMph": 48.0,
      "averageSpeedMph": 11.7,
      "safetyEvents": []
    },
    {
      "id": "trip_42031656_20250626_002",
      "vehicleId": "42031656",
      "driverId": "20000001",
      "startMs": 1750947360000,
      "endMs": 1750950447555,
      "startAddress": "542 Tyrone Causeway",
      "endAddress": "512 Thomas Trail",
      "startCoords": {
        "latitude": 39.763924,
        "longitude": -105.023349
      },
      "endCoords": {
        "latitude": 39.689115,
        "longitude": -105.03649
      },
      "distanceMeters": 15780.6,
      "durationMs": 3087556,
      "drivingDurationMs": 2486315,
      "idlingDurationMs": 601241,
      "fuelConsumedMl": 2006,
      "fuelConsumedGallons": 0.53,
      "maxSpeedMph": 30.7,
      "averageSpeedMph": 11.4,
      "safetyEvents": []
    },
    {
      "id": "trip_42031656_20250627_001",
      "vehicleId": "42031656",
      "driverId": "20000022",
      "startMs": 1751047800000,
      "endMs": 1751058000000,
      "startAddress": "549 Brian Inlet",
      "endAddress": "37371 Baker Stream Apt. 845",
      "startCoords": {
        "latitude": 39.700345,
        "longitude": -105.01993
      },
      "endCoords": {
        "latitude": 39.784477,
        "longitude": -105.079554
      },
      "distanceMeters": 59010.9,
      "durationMs": 10200000,
      "drivingDurationMs": 9697493,
      "idlingDurationMs": 502507,
      "fuelConsumedMl": 7503,
      "fuelConsumedGallons": 1.982,
      "maxSpeedMph": 69.6,
      "averageSpeedMph": 12.9,
      "safetyEvents": [
        {
          "type": "speeding",
          "startMs": 1751052900000,
          "maxSpeedMph": 69.6
        }
      ]
    },
    {
      "id": "trip_42031656_20250627_002",
      "vehicleId": "42031656",
      "driverId": "20000022",
      "startMs": 1751022060000,
      "endMs": 1751025150648,
      "startAddress": "914 Donald Vista Suite 095",
      "endAddress": "0859 Robert Mountain Apt. 148",
      "startCoords": {
        "latitude": 39.807634,
        "longitude": -104.983818
      },
      "endCoords": {
        "latitude": 39.757062,
        "longitude": -104.908515
      },
      "distanceMeters": 23158.4,
      "durationMs": 3090649,
      "drivingDurationMs": 2632252,
      "idlingDurationMs": 458397,
      "fuelConsumedMl": 2945,
      "fuelConsumedGallons": 0.778,
      "maxSpeedMph": 62.0,
      "averageSpeedMph": 16.8,
      "safetyEvents": []
    },
    {
      "id": "trip_42031656_20250627_003",
      "vehicleId": "42031656",
      "driverId": "20000022",
      "startMs": 1751044800000,
      "endMs": 1751047635602,
      "startAddress": "6063 Anthony Skyway",
      "endAddress": "33732 Keith Trafficway Suite 897",
      "startCoords": {
        "latitude": 39.760469,
        "longitude": -105.033595
      },
      "endCoords": {
        "latitude": 39.787764,
        "longitude": -104.90661
      },
      "distanceMeters": 17554.5,
      "durationMs": 2835603,
      "drivingDurationMs": 2639584,
      "idlingDurationMs": 196019,
      "fuelConsumedMl": 2233,
      "fuelConsumedGallons": 0.59,
      "maxSpeedMph": 67.0,
      "averageSpeedMph": 13.8,
      "safetyEvents": [
        {
          "type": "speeding",
          "startMs": 1751046300000,
          "maxSpeedMph": 67.0
        }
      ]
    },
    {
      "id": "trip_42031656_20250627_004",
      "vehicleId": "42031656",
      "driverId": "20000022",
      "startMs": 1751047800000,
      "endMs": 1751058000000,
      "startAddress": "1853 Alan Gardens Apt. 960",
      "endAddress": "27060 Stanton Heights Suite 199",
      "startCoords": {
        "latitude": 39.764705,
        "longitude": -104.994773
      },
      "endCoords": {
        "latitude": 39.80979,
        "longitude": -104.959422
      },
      "distanceMeters": 57304.9,
      "durationMs": 10200000,
      "drivingDurationMs": 9518142,
      "idlingDurationMs": 681858,
      "fuelConsumedMl": 7287,
      "fuelConsumedGallons": 1.925,
      "maxSpeedMph": 66.7,
      "averageSpeedMph": 12.6,
      "safetyEvents": [
        {
          "type": "speeding",
          "startMs": 1751051580000,
          "maxSpeedMph": 66.7
        }
      ]
    },
    {
      "id": "trip_42031656_20250627_005",
      "vehicleId": "42031656",
      "driverId": "20000022",
      "startMs": 1751016540000,
      "endMs": 1751022283607,
      "startAddress": "463 Bradley Manor Apt. 825",
      "endAddress": "916 Perry Wall",
      "startCoords": {
        "latitude": 39.740333,
        "longitude": -104.95134
      },
      "endCoords": {
        "latitude": 39.75142,
        "longitude": -105.008082
      },
      "distanceMeters": 32641.9,
      "durationMs": 5743608,
      "drivingDurationMs": 5458906,
      "idlingDurationMs": 284701,
      "fuelConsumedMl": 4149,
      "fuelConsumedGallons": 1.096,
      "maxSpeedMph": 28.8,
      "averageSpeedMph": 12.7,
      "safetyEvents": []
    },
    {
      "id": "trip_42031656_20250628_001",
      "vehicleId": "42031656",
      "driverId": "20000013",
      "startMs": 1751133420000,
      "endMs": 1751134655952,
      "startAddress": "90693 Jose Dam",
      "endAddress": "9901 Kendra Stravenue Suite 124",
      "startCoords": {
        "latitude": 39.734551,
        "longitude": -104.95477
      },
      "endCoords": {
        "latitude": 39.744914,
        "longitude": -104.95055
      },
      "distanceMeters": 8120.6,
      "durationMs": 1235953,
      "drivingDurationMs": 1012000,
      "idlingDurationMs": 223953,
      "fuelConsumedMl": 1033,
      "fuelConsumedGallons": 0.273,
      "maxSpeedMph": 61.2,
      "averageSpeedMph": 14.7,
      "safetyEvents": []
    },
    {
      "id": "trip_42031656_20250629_001",
      "vehicleId": "42031656",
      "driverId": "20000008",
      "startMs": 1751214420000,
      "endMs": 1751220128972,
      "startAddress": "23112 Ryan Freeway",
      "endAddress": "851 Emily Tunnel",
      "startCoords": {
        "latitude": 39.790012,
        "longitude": -105.051692
      },
      "endCoords": {
        "latitude": 39.740237,
        "longitude": -105.052393
      },
      "distanceMeters": 40543.4,
      "durationMs": 5708973,
      "drivingDurationMs": 4791985,
      "idlingDurationMs": 916988,
      "fuelConsumedMl": 5156,
      "fuelConsumedGallons": 1.362,
      "maxSpeedMph": 46.3,
      "averageSpeedMph": 15.9,
      "safetyEvents": []
    },
    {
      "id": "trip_42031656_20250629_002",
      "vehicleId": "42031656",
      "driverId": "20000008",
      "startMs": 1751196180000,
      "endMs": 1751202124562,
      "startAddress": "915 Holmes Corners Apt. 988",
      "endAddress": "065 Carrie Land Suite 926",
      "startCoords": {
        "latitude": 39.703544,
        "longitude": -105.050112
      },
      "endCoords": {
        "latitude": 39.770325,
        "longitude": -105.000853
      },
      "distanceMeters": 40307.3,
      "durationMs": 5944563,
      "drivingDurationMs": 5240197,
      "idlingDurationMs": 704365,
      "fuelConsumedMl": 5125,
      "fuelConsumedGallons": 1.354,
      "maxSpeedMph": 38.9,
      "averageSpeedMph": 15.2,
      "safetyEvents": []
    },
    {
      "id": "trip_42031656_20250630_001",
      "vehicleId": "42031656",
      "driverId": "20000019",
      "startMs": 1751277900000,
      "endMs": 1751287100964,
      "startAddress": "60483 Katrina Brook",
      "endAddress": "114 Duncan Plains Suite 543",
      "startCoords": {
        "latitude": 39.72889,
        "longitude": -105.008974
      },
      "endCoords": {
        "latitude": 39.793184,
        "longitude": -104.954195
      },
      "distanceMeters": 44154.3,
      "durationMs": 9200965,
      "drivingDurationMs": 7585387,
      "idlingDurationMs": 1615578,
      "fuelConsumedMl": 5614,
      "fuelConsumedGallons": 1.483,
      "maxSpeedMph": 31.3,
      "averageSpeedMph": 10.7,
      "safetyEvents": []
    },
    {
      "id": "trip_42031656_20250630_002",
      "vehicleId": "42031656",
      "driverId": "20000019",
      "startMs": 1751282400000,
      "endMs": 1751289956816,
      "startAddress": "2040 Christopher Springs",
      "endAddress": "639 Smith Way",
      "startCoords": {
        "latitude": 39.784566,
        "longitude": -104.946706
      },
      "endCoords": {
        "latitude": 39.710162,
        "longitude": -104.963931
      },
      "distanceMeters": 46359.5,
      "durationMs": 7556816,
      "drivingDurationMs": 6442600,
      "idlingDurationMs": 1114216,
      "fuelConsumedMl": 5894,
      "fuelConsumedGallons": 1.557,
      "maxSpeedMph": 62.6,
      "averageSpeedMph": 13.7,
      "safetyEvents": []
    },
    {
      "id": "trip_42031656_20250630_003",
      "vehicleId": "42031656",
      "driverId": "20000019",
      "startMs": 1751267280000,
      "endMs": 1751281574991,
      "startAddress": "0198 Cruz Rest Apt. 579",
      "endAddress": "520 Elizabeth Mount",
      "startCoords": {
        "latitude": 39.757094,
        "longitude": -104.900642
      },
      "endCoords": {
        "latitude": 39.770094,
        "longitude": -105.019809
      },
      "distanceMeters": 67941.3,
      "durationMs": 14294991,
      "drivingDurationMs": 12508413,
      "idlingDurationMs": 1786578,
      "fuelConsumedMl": 8638,
      "fuelConsumedGallons": 2.282,
      "maxSpeedMph": 59.1,
      "averageSpeedMph": 10.6,
      "safetyEvents": []
    },
    {
      "id": "trip_42031656_20250630_004",
      "vehicleId": "42031656",
      "driverId": "20000019",
      "startMs": 1751265840000,
      "endMs": 1751269736640,
      "startAddress": "5280 Tyler Corner",
      "endAddress": "36459 David Junctions",
      "startCoords": {
        "latitude": 39.797878,
        "longitude": -105.086892
      },
      "endCoords": {
        "latitude": 39.702048,
        "longitude": -105.015422
      },
      "distanceMeters": 26311.9,
      "durationMs": 3896641,
      "drivingDurationMs": 3502638,
      "idlingDurationMs": 394003,
      "fuelConsumedMl": 3346,
      "fuelConsumedGallons": 0.884,
      "maxSpeedMph": 32.0,
      "averageSpeedMph": 15.1,
      "safetyEvents": []
    }
  ]
}