{
  "vehicleId": "44439084",
  "vehicleName": "DEN-VAN-01",
  "month": "2025_06",
  "pagination": {
    "endCursor": "trip_44439084_20250630_004",
    "hasNextPage": false
  },
  "trips": [
    {
      "id": "trip_44439084_20250601_001",
      "vehicleId": "44439084",
      "driverId": "20000002",
      "startMs": 1748780460000,
      "endMs": 1748784666586,
      "startAddress": "460 Tyler Crossing",
      "endAddress": "98219 Ramos Islands",
      "startCoords": {
        "latitude": 39.72717,
        "longitude": -104.903528
      },
      "endCoords": {
        "latitude": 39.820015,
        "longitude": -105.075823
      },
      "distanceMeters": 22077.5,
      "durationMs": 4206586,
      "drivingDurationMs": 4005340,
      "idlingDurationMs": 201246,
      "fuelConsumedMl": 2809,
      "fuelConsumedGallons": 0.742,
      "maxSpeedMph": 54.0,
      "averageSpeedMph": 11.7,
      "safetyEvents": []
    },
    {
      "id": "trip_44439084_20250601_002",
      "vehicleId": "44439084",
      "driverId": "20000002",
      "startMs": 1748775300000,
      "endMs": 1748778000328,
      "startAddress": "84767 Deborah Extensions Apt. 436",
      "endAddress": "54423 Thompson Divide Suite 595",
      "startCoords": {
        "latitude": 39.724706,
        "longitude": -105.044368
      },
      "endCoords": {
        "latitude": 39.786827,
        "longitude": -105.023349
      },
      "distanceMeters": 12198.5,
      "durationMs": 2700328,
      "drivingDurationMs": 2284970,
      "idlingDurationMs": 415358,
      "fuelConsumedMl": 1552,
      "fuelConsumedGallons": 0.41,
      "maxSpeedMph": 65.8,
      "averageSpeedMph": 10.1,
      "safetyEvents": [
        {
          "type": "speeding",
          "startMs": 1748776860000,
          "maxSpeedMph": 65.8
        }
      ]
    },
    {
      "id": "trip_44439084_20250601_003",
      "vehicleId": "44439084",
      "driverId": "20000002",
      "startMs": 1748786220000,
      "endMs": 1748791796770,
      "startAddress": "6109 Jessica Mission Apt. 652",
      "endAddress": "6871 Douglas Rapids Suite 459",
      "startCoords": {
        "latitude": 39.690826,
        "longitude": -104.986671
      },
      "endCoords": {
        "latitude": 39.728869,
        "longitude": -104.941736
      },
      "distanceMeters": 38869.2,
      "durationMs": 5576771,
      "drivingDurationMs": 4667436,
      "idlingDurationMs": 909335,
      "fuelConsumedMl": 4944,
      "fuelConsumedGallons": 1.306,
      "maxSpeedMph": 57.4,
      "averageSpeedMph": 15.6,
      "safetyEvents": []
    },
    {
      "id": "trip_44439084_20250601_004",
      "vehicleId": "44439084",
      "driverId": "20000002",
      "startMs": 1748789760000,
      "endMs": 1748793475591,
      "startAddress": "174 Emily Views",
      "endAddress": "398 Clark Light",
      "startCoords": {
        "latitude": 39.779857,
        "longitude": -105.005499
      },
      "endCoords": {
        "latitude": 39.731585,
        "longitude": -105.029879
      },
      "distanceMeters": 27705.0,
      "durationMs": 3715591,
      "drivingDurationMs": 3255061,
      "idlingDurationMs": 460530,
      "fuelConsumedMl": 3524,
      "fuelConsumedGallons": 0.931,
      "maxSpeedMph": 62.5,
      "averageSpeedMph": 16.7,
      "safetyEvents": []
    },
    {
      "id": "trip_44439084_20250602_001",
      "vehicleId": "44439084",
      "driverId": "20000015",
      "startMs": 1748869980000,
      "endMs": 1748872599843,
      "startAddress": "92635 Tina Station",
      "endAddress": "66324 Kimberly Terrace Apt. 959",
      "startCoords": {
        "latitude": 39.693585,
        "longitude": -104.982676
      },
      "endCoords": {
        "latitude": 39.74186,
        "longitude": -104.908356
      },
      "distanceMeters": 11679.5,
      "durationMs": 2619844,
      "drivingDurationMs": 2151542,
      "idlingDurationMs": 468302,
      "fuelConsumedMl": 1484,
      "fuelConsumedGallons": 0.392,
      "maxSpeedMph": 45.1,
      "averageSpeedMph": 10.0,
      "safetyEvents": []
    },
    {
      "id": "trip_44439084_20250602_002",
      "vehicleId": "44439084",
      "driverId": "20000015",
      "startMs": 1748881980000,
      "endMs": 1748887627536,
      "startAddress": "8698 Robbins Fork",
      "endAddress": "70127 Cheryl Pass Apt. 065",
      "startCoords": {
        "latitude": 39.792529,
        "longitude": -104.916776
      },
      "endCoords": {
        "latitude": 39.784425,
        "longitude": -105.030932
      },
      "distanceMeters": 42067.3,
      "durationMs": 5647537,
      "drivingDurationMs": 4932049,
      "idlingDurationMs": 715488,
      "fuelConsumedMl": 5349,
      "fuelConsumedGallons": 1.413,
      "maxSpeedMph": 53.7,
      "averageSpeedMph": 16.7,
      "safetyEvents": []
    },
    {
      "id": "trip_44439084_20250602_003",
      "vehicleId": "44439084",
      "driverId": "20000015",
      "startMs": 1748869500000,
      "endMs": 1748872230068,
      "startAddress": "84190 Lewis Springs",
      "endAddress": "2896 Lorraine Mills Suite 446",
      "startCoords": {
        "latitude": 39.768033,
        "longitude": -105.056687
      },
      "endCoords": {
        "latitude": 39.713072,
        "longitude": -104.937702
      },
      "distanceMeters": 20799.2,
      "durationMs": 2730069,
      "drivingDurationMs": 2422044,
      "idlingDurationMs": 308024,
      "fuelConsumedMl": 2646,
      "fuelConsumedGallons": 0.699,
      "maxSpeedMph": 49.8,
      "averageSpeedMph": 17.0,
      "safetyEvents": []
    },
    {
      "id": "trip_44439084_20250603_001",
      "vehicleId": "44439084",
      "driverId": "20000012",
      "startMs": 1748935500000,
      "endMs": 1748946206552,
      "startAddress": "579 Black Light Suite 546",
      "endAddress": "3929 Edward Gardens Apt. 276",
      "startCoords": {
        "latitude": 39.723507,
        "longitude": -104.921599
      },
      "endCoords": {
        "latitude": 39.729599,
        "longitude": -104.919506
      },
      "distanceMeters": 60004.9,
      "durationMs": 10706552,
      "drivingDurationMs": 8632942,
      "idlingDurationMs": 2073610,
      "fuelConsumedMl": 7628,
      "fuelConsumedGallons": 2.015,
      "maxSpeedMph": 55.0,
      "averageSpeedMph": 12.5,
      "safetyEvents": []
    },
    {
      "id": "trip_44439084_20250603_002",
      "vehicleId": "44439084",
      "driverId": "20000012",
      "startMs": 1748949120000,
      "endMs": 1748951310159,
      "startAddress": "4595 Carter Junctions",
      "endAddress": "110 Jesus Lock",
      "startCoords": {
        "latitude": 39.753171,
        "longitude": -105.042658
      },
      "endCoords": {
        "latitude": 39.814821,
        "longitude": -104.954084
      },
      "distanceMeters": 10708.9,
      "durationMs": 2190159,
      "drivingDurationMs": 1998597,
      "idlingDurationMs": 191562,
      "fuelConsumedMl": 1363,
      "fuelConsumedGallons": 0.36,
      "maxSpeedMph": 34.2,
      "averageSpeedMph": 10.9,
      "safetyEvents": []
    },
    {
      "id": "trip_44439084_20250603_003",
      "vehicleId": "44439084",
      "driverId": "20000012",
      "startMs": 1748936760000,
      "endMs": 1748938670105,
      "startAddress": "189 Melissa Loop",
      "endAddress": "110 Mitchell Pines Suite 457",
      "startCoords": {
        "latitude": 39.744847,
        "longitude": -105.025964
      },
      "endCoords": {
        "latitude": 39.704187,
        "longitude": -105.069942
      },
      "distanceMeters": 9524.5,
      "durationMs": 1910106,
      "drivingDurationMs": 1579696,
      "idlingDurationMs": 330410,
      "fuelConsumedMl": 1211,
      "fuelConsumedGallons": 0.32,
      "maxSpeedMph": 41.0,
      "averageSpeedMph": 11.2,
      "safetyEvents": []
    },
    {
      "id": "trip_44439084_20250604_001",
      "vehicleId": "44439084",
      "driverId": "20000009",
      "startMs": 1749041580000,
      "endMs": 1749043467205,
      "startAddress": "254 Lowe Parks Suite 034",
      "endAddress": "73198 Nelson Station",
      "startCoords": {
        "latitude": 39.756611,
        "longitude": -105.044721
      },
      "endCoords": {
        "latitude": 39.778884,
        "longitude": -105.044824
      },
      "distanceMeters": 9927.7,
      "durationMs": 1887206,
      "drivingDurationMs": 1516828,
      "idlingDurationMs": 370377,
      "fuelConsumedMl": 1261,
      "fuelConsumedGallons": 0.333,
      "maxSpeedMph": 37.1,
      "averageSpeedMph": 11.8,
      "safetyEvents": []
    },
    {
      "id": "trip_44439084_20250604_002",
      "vehicleId": "44439084",
      "driverId": "20000009",
      "startMs": 1749021840000,
      "endMs": 1749035756990,
      "startAddress": "08108 Lorraine Shores",
      "endAddress": "379 Thomas Shoals",
      "startCoords": {
        "latitude": 39.808794,
        "longitude": -105.038399
      },
      "endCoords": {
        "latitude": 39.717482,
        "longitude": -105.043702
      },
      "distanceMeters": 74923.2,
      "durationMs": 13916991,
      "drivingDurationMs": 11429180,
      "idlingDurationMs": 2487811,
      "fuelConsumedMl": 9524,
      "fuelConsumedGallons": 2.516,
      "maxSpeedMph": 70.2,
      "averageSpeedMph": 12.0,
      "safetyEvents": [
        {
          "type": "speeding",
          "startMs": 1749029940000,
          "maxSpeedMph": 70.2
        }
      ]
    },
    {
      "id": "trip_44439084_20250604_003",
      "vehicleId": "44439084",
      "driverId": "20000009",
      "startMs": 1749036960000,
      "endMs": 1749043281058,
      "startAddress": "0973 Krista Inlet",
      "endAddress": "11098 Michael Ways Apt. 254",
      "startCoords": {
        "latitude": 39.805535,
        "longitude": -104.924536
      },
      "endCoords": {
        "latitude": 39.687058,
        "longitude": -105.044031
      },
      "distanceMeters": 42293.6,
      "durationMs": 6321058,
      "drivingDurationMs": 5611486,
      "idlingDurationMs": 709573,
      "fuelConsumedMl": 5379,
      "fuelConsumedGallons": 1.421,
      "maxSpeedMph": 39.3,
      "averageSpeedMph": 15.0,
      "safetyEvents": []
    },
    {
      "id": "trip_44439084_20250604_004",
      "vehicleId": "44439084",
      "driverId": "20000009",
      "startMs": 1749054060000,
      "endMs": 1749061086628,
      "startAddress": "804 Eric Corner",
      "endAddress": "6294 Rivera Green Suite 881",
      "startCoords": {
        "latitude": 39.700692,
        "longitude": -105.0254
      },
      "endCoords": {
        "latitude": 39.786356,
        "longitude": -104.994145
      },
      "distanceMeters": 46882.2,
      "durationMs": 7026629,
      "drivingDurationMs": 6252000,
      "idlingDurationMs": 774629,
      "fuelConsumedMl": 5962,
      "fuelConsumedGallons": 1.575,
      "maxSpeedMph": 55.5,
      "averageSpeedMph": 14.9,
      "safetyEvents": []
    },
    {
      "id": "trip_44439084_20250605_001",
      "vehicleId": "44439084",
      "driverId": "20000017",
      "startMs": 1749113880000,
      "endMs": 1749115279086,
      "startAddress": "326 Shelby Estates Apt. 061",
      "endAddress": "5082 Diane Mountains",
      "startCoords": {
        "latitude": 39.778897,
        "longitude": -104.994434
      },
      "endCoords": {
        "latitude": 39.787878,
        "longitude": -105.029591
      },
      "distanceMeters": 7034.3,
      "durationMs": 1399087,
      "drivingDurationMs": 1187386,
      "idlingDurationMs": 211700,
      "fuelConsumedMl": 893,
      "fuelConsumedGallons": 0.236,
      "maxSpeedMph": 69.8,
      "averageSpeedMph": 11.2,
      "safetyEvents": [
        {
          "type": "speeding",
          "startMs": 1749114120000,
          "maxSpeedMph": 69.8
        }
      ]
    },
    {
      "id": "trip_44439084_20250605_002",
      "vehicleId": "44439084",
      "driverId": "20000017",
      "startMs": 1749113100000,
      "endMs": 1749125720920,
      "startAddress": "321 Stanley Forks Apt. 219",
      "endAddress": "92296 Todd Path Suite 150",
      "startCoords": {
        "latitude": 39.7498,
        "longitude": -104.936309
      },
      "endCoords": {
        "latitude": 39.703043,
        "longitude": -105.027049
      },
      "distanceMeters": 74350.2,
      "durationMs": 12620920,
      "drivingDurationMs": 10553090,
      "idlingDurationMs": 2067830,
      "fuelConsumedMl": 9452,
      "fuelConsumedGallons": 2.497,
      "maxSpeedMph": 48.0,
      "averageSpeedMph": 13.2,
      "safetyEvents": []
    },
    {
      "id": "trip_44439084_20250605_003",
      "vehicleId": "44439084",
      "driverId": "20000017",
      "startMs": 1749138960000,
      "endMs": 1749149713943,
      "startAddress": "2495 Martin Shoal Apt. 521",
      "endAddress": "72517 Watson Shoal",
      "startCoords": {
        "latitude": 39.770107,
        "longitude": -105.044861
      },
      "endCoords": {
        "latitude": 39.825181,
        "longitude": -104.955407
      },
      "distanceMeters": 59482.4,
      "durationMs": 10753943,
      "drivingDurationMs": 8729731,
      "idlingDurationMs": 2024212,
      "fuelConsumedMl": 7563,
      "fuelConsumedGallons": 1.998,
      "maxSpeedMph": 42.2,
      "averageSpeedMph": 12.4,
      "safetyEvents": []
    },
    {
      "id": "trip_44439084_20250605_004",
      "vehicleId": "44439084",
      "driverId": "20000017",
      "startMs": 1749132060000,
      "endMs": 1749133496690,
      "startAddress": "191 David Lodge Apt. 594",
      "endAddress": "42876 Jacqueline Street",
      "startCoords": {
        "latitude": 39.713296,
        "longitude": -105.004695
      },
      "endCoords": {
        "latitude": 39.786067,
        "longitude": -104.922983
      },
      "distanceMeters": 9168.4,
      "durationMs": 1436690,
      "drivingDurationMs": 1204980,
      "idlingDurationMs": 231710,
      "fuelConsumedMl": 1166,
      "fuelConsumedGallons": 0.308,
      "maxSpeedMph": 49.6,
      "averageSpeedMph": 14.3,
      "safetyEvents": []
    },
    {
      "id": "trip_44439084_20250606_001",
      "vehicleId": "44439084",
      "driverId": "20000009",
      "startMs": 1749225660000,
      "endMs": 1749235175590,
      "startAddress": "712 Erin Landing",
      "endAddress": "355 Anthony Parkway Suite 342",
      "startCoords": {
        "latitude": 39.693921,
        "longitude": -104.956073
      },
      "endCoords": {
        "latitude": 39.755359,
        "longitude": -104.960335
      },
      "distanceMeters": 56907.3,
      "durationMs": 9515591,
      "drivingDurationMs": 8697667,
      "idlingDurationMs": 817924,
      "fuelConsumedMl": 7234,
      "fuelConsumedGallons": 1.911,
      "maxSpeedMph": 71.2,
      "averageSpeedMph": 13.4,
      "safetyEvents": [
        {
          "type": "speeding",
          "startMs": 1749230760000,
          "maxSpeedMph": 71.2
        }
      ]
    },
    {
      "id": "trip_44439084_20250606_002",
      "vehicleId": "44439084",
      "driverId": null,
      "startMs": 1749211500000,
      "endMs": 1749220923857,
      "startAddress": "262 John Ranch",
      "endAddress": "80422 Michael Locks",
      "startCoords": {
        "latitude": 39.814554,
        "longitude": -104.980327
      },
      "endCoords": {
        "latitude": 39.721908,
        "longitude": -104.92258
      },
      "distanceMeters": 63475.6,
      "durationMs": 9423857,
      "drivingDurationMs": 8038167,
      "idlingDurationMs": 1385690,
      "fuelConsumedMl": 8070,
      "fuelConsumedGallons": 2.132,
      "maxSpeedMph": 44.2,
      "averageSpeedMph": 15.1,
      "safetyEvents": []
    },
    {
      "id": "trip_44439084_20250606_003",
      "vehicleId": "44439084",
      "driverId": "20000009",
      "startMs": 1749190260000,
      "endMs": 1749198691120,
      "startAddress": "2469 Reed Mill Apt. 606",
      "endAddress": "017 Simon Road",
      "startCoords": {
        "latitude": 39.737717,
        "longitude": -104.95555
      },
      "endCoords": {
        "latitude": 39.70728,
        "longitude": -104.964979
      },
      "distanceMeters": 65649.9,
      "durationMs": 8431120,
      "drivingDurationMs": 7636990,
      "idlingDurationMs": 794130,
      "fuelConsumedMl": 8347,
      "fuelConsumedGallons": 2.205,
      "maxSpeedMph": 70.9,
      "averageSpeedMph": 17.4,
      "safetyEvents": [
        {
          "type": "speeding",
          "startMs": 1749191220000,
          "maxSpeedMph": 70.9
        }
      ]
    },
    {
      "id": "trip_44439084_20250606_004",
      "vehicleId": "44439084",
      "driverId": "20000009",
      "startMs": 1749192720000,
      "endMs": 1749204505484,
      "startAddress": "94189 Hansen Shoal Suite 601",
      "endAddress": "157 Glenn Lock Apt. 622",
      "startCoords": {
        "latitude": 39.779892,
        "longitude": -104.908614
      },
      "endCoords": {
        "latitude": 39.707529,
        "longitude": -104.997981
      },
      "distanceMeters": 74668.1,
      "durationMs": 11785484,
      "drivingDurationMs": 9447072,
      "idlingDurationMs": 2338413,
      "fuelConsumedMl": 9494,
      "fuelConsumedGallons": 2.508,
      "maxSpeedMph": 35.5,
      "averageSpeedMph": 14.2,
      "safetyEvents": []
    },
    {
      "id": "trip_44439084_20250607_001",
      "vehicleId": "44439084",
      "driverId": "20000009",
      "startMs": 1749308100000,
      "endMs": 1749313140401,
      "startAddress": "45560 David Valleys Suite 039",
      "endAddress": "0371 Elizabeth Courts Suite 193",
      "startCoords": {
        "latitude": 39.748194,
        "longitude": -104.937884
      },
      "endCoords": {
        "latitude": 39.689061,
        "longitude": -104.968308
      },
      "distanceMeters": 31833.9,
      "durationMs": 5040402,
      "drivingDurationMs": 4236444,
      "idlingDurationMs": 803957,
      "fuelConsumedMl": 4047,
      "fuelConsumedGallons": 1.069,
      "maxSpeedMph": 53.2,
      "averageSpeedMph": 14.1,
      "safetyEvents": []
    },
    {
      "id": "trip_44439084_20250607_002",
      "vehicleId": "44439084",
      "driverId": "20000009",
      "startMs": 1749297660000,
      "endMs": 1749301729679,
      "startAddress": "71076 Alexander Falls",
      "endAddress": "363 John Course",
      "startCoords": {
        "latitude": 39.737082,
        "longitude": -105.044129
      },
      "endCoords": {
        "latitude": 39.711391,
        "longitude": -104.998503
      },
      "distanceMeters": 24278.0,
      "durationMs": 4069679,
      "drivingDurationMs": 3417220,
      "idlingDurationMs": 652459,
      "fuelConsumedMl": 3085,
      "fuelConsumedGallons": 0.815,
      "maxSpeedMph": 68.7,
      "averageSpeedMph": 13.3,
      "safetyEvents": [
        {
          "type": "speeding",
          "startMs": 1749299040000,
          "maxSpeedMph": 68.7
        }
      ]
    },
    {
      "id": "trip_44439084_20250607_003",
      "vehicleId": "44439084",
      "driverId": "20000009",
      "startMs": 1749300060000,
      "endMs": 1749302424421,
      "startAddress": "169 Robert Place Suite 161",
      "endAddress": "05557 Erik Wall",
      "startCoords": {
        "latitude": 39.776726,
        "longitude": -105.010848
      },
      "endCoords": {
        "latitude": 39.696792,
        "longitude": -105.006643
      },
      "distanceMeters": 15055.7,
      "durationMs": 2364422,
      "drivingDurationMs": 2047156,
      "idlingDurationMs": 317266,
      "fuelConsumedMl": 1915,
      "fuelConsumedGallons": 0.506,
      "maxSpeedMph": 30.0,
      "averageSpeedMph": 14.2,
      "safetyEvents": []
    },
    {
      "id": "trip_44439084_20250607_004",
      "vehicleId": "44439084",
      "driverId": "20000009",
      "startMs": 1749319680000,
      "endMs": 1749322476170,
      "startAddress": "9523 Malone Bridge Suite 374",
      "endAddress": "7953 George Stravenue",
      "startCoords": {
        "latitude": 39.803011,
        "longitude": -104.979326
      },
      "endCoords": {
        "latitude": 39.755925,
        "longitude": -105.011962
      },
      "distanceMeters": 14188.7,
      "durationMs": 2796170,
      "drivingDurationMs": 2417094,
      "idlingDurationMs": 379077,
      "fuelConsumedMl": 1806,
      "fuelConsumedGallons": 0.477,
      "maxSpeedMph": 69.8,
      "averageSpeedMph": 11.4,
      "safetyEvents": [
        {
          "type": "speeding",
          "startMs": 1749320520000,
          "maxSpeedMph": 69.8
        }
      ]
    },
    {
      "id": "trip_44439084_20250608_001",
      "vehicleId": "44439084",
      "driverId": "20000007",
      "startMs": 1749391860000,
      "endMs": 1749394357650,
      "startAddress": "98812 Wilson Bypass",
      "endAddress": "845 Nicole Spur",
      "startCoords": {
        "latitude": 39.768415,
        "longitude": -105.021688
      },
      "endCoords": {
        "latitude": 39.709479,
        "longitude": -105.050934
      },
      "distanceMeters": 12125.6,
      "durationMs": 2497651,
      "drivingDurationMs": 2086895,
      "idlingDurationMs": 410756,
      "fuelConsumedMl": 1541,
      "fuelConsumedGallons": 0.407,
      "maxSpeedMph": 60.4,
      "averageSpeedMph": 10.9,
      "safetyEvents": []
    },
    {
      "id": "trip_44439084_20250609_001",
      "vehicleId": "44439084",
      "driverId": "20000015",
      "startMs": 1749478620000,
      "endMs": 1749490033257,
      "startAddress": "78202 Willis Forks",
      "endAddress": "5889 Butler Turnpike Apt. 960",
      "startCoords": {
        "latitude": 39.748263,
        "longitude": -104.907718
      },
      "endCoords": {
        "latitude": 39.774377,
        "longitude": -104.916516
      },
      "distanceMeters": 79262.6,
      "durationMs": 11413258,
      "drivingDurationMs": 10072028,
      "idlingDurationMs": 1341230,
      "fuelConsumedMl": 10077,
      "fuelConsumedGallons": 2.662,
      "maxSpeedMph": 52.9,
      "averageSpeedMph": 15.5,
      "safetyEvents": []
    },
    {
      "id": "trip_44439084_20250609_002",
      "vehicleId": "44439084",
      "driverId": "20000015",
      "startMs": 1749455280000,
      "endMs": 1749464783253,
      "startAddress": "6903 Wright Meadow",
      "endAddress": "42860 Zachary Cliff",
      "startCoords": {
        "latitude": 39.733661,
        "longitude": -104.97879
      },
      "endCoords": {
        "latitude": 39.774054,
        "longitude": -105.07325
      },
      "distanceMeters": 72059.3,
      "durationMs": 9503254,
      "drivingDurationMs": 8911345,
      "idlingDurationMs": 591908,
      "fuelConsumedMl": 9161,
      "fuelConsumedGallons": 2.42,
      "maxSpeedMph": 34.7,
      "averageSpeedMph": 17.0,
      "safetyEvents": []
    },
    {
      "id": "trip_44439084_20250610_001",
      "vehicleId": "44439084",
      "driverId": "20000009",
      "startMs": 1749563880000,
      "endMs": 1749576932267,
      "startAddress": "57597 Julia Neck Suite 690",
      "endAddress": "1999 James Center",
      "startCoords": {
        "latitude": 39.781983,
        "longitude": -105.029132
      },
      "endCoords": {
        "latitude": 39.722658,
        "longitude": -105.024724
      },
      "distanceMeters": 70958.8,
      "durationMs": 13052267,
      "drivingDurationMs": 10956450,
      "idlingDurationMs": 2095817,
      "fuelConsumedMl": 9021,
      "fuelConsumedGallons": 2.383,
      "maxSpeedMph": 28.4,
      "averageSpeedMph": 12.2,
      "safetyEvents": []
    },
    {
      "id": "trip_44439084_20250610_002",
      "vehicleId": "44439084",
      "driverId": "20000009",
      "startMs": 1749581220000,
      "endMs": 1749589200000,
      "startAddress": "24380 Bill Lodge",
      "endAddress": "3399 Jessica River Apt. 445",
      "startCoords": {
        "latitude": 39.813479,
        "longitude": -104.965143
      },
      "endCoords": {
        "latitude": 39.705501,
        "longitude": -105.063356
      },
      "distanceMeters": 52626.7,
      "durationMs": 7980000,
      "drivingDurationMs": 6770795,
      "idlingDurationMs": 1209205,
      "fuelConsumedMl": 6693,
      "fuelConsumedGallons": 1.768,
      "maxSpeedMph": 31.1,
      "averageSpeedMph": 14.8,
      "safetyEvents": []
    },
    {
      "id": "trip_44439084_20250610_003",
      "vehicleId": "44439084",
      "driverId": "20000009",
      "startMs": 1749556680000,
      "endMs": 1749559613848,
      "startAddress": "02871 William Motorway",
      "endAddress": "672 Morgan Plains",
      "startCoords": {
        "latitude": 39.756476,
        "longitude": -105.057082
      },
      "endCoords": {
        "latitude": 39.728626,
        "longitude": -105.017203
      },
      "distanceMeters": 14294.0,
      "durationMs": 2933848,
      "drivingDurationMs": 2415631,
      "idlingDurationMs": 518218,
      "fuelConsumedMl": 1817,
      "fuelConsumedGallons": 0.48,
      "maxSpeedMph": 36.7,
      "averageSpeedMph": 10.9,
      "safetyEvents": []
    },
    {
      "id": "trip_44439084_20250610_004",
      "vehicleId": "44439084",
      "driverId": null,
      "startMs": 1749564540000,
      "endMs": 1749572004320,
      "startAddress": "1983 Kevin Cliff",
      "endAddress": "1119 Donna Mission Suite 295",
      "startCoords": {
        "latitude": 39.800296,
        "longitude": -104.975726
      },
      "endCoords": {
        "latitude": 39.815262,
        "longitude": -104.98392
      },
      "distanceMeters": 55303.3,
      "durationMs": 7464321,
      "drivingDurationMs": 7270197,
      "idlingDurationMs": 194124,
      "fuelConsumedMl": 7033,
      "fuelConsumedGallons": 1.858,
      "maxSpeedMph": 64.4,
      "averageSpeedMph": 16.6,
      "safetyEvents": []
    },
    {
      "id": "trip_44439084_20250611_001",
      "vehicleId": "44439084",
      "driverId": "20000010",
      "startMs": 1749660900000,
      "endMs": 1749661764610,
      "startAddress": "9855 Paul Ramp",
      "endAddress": "9025 Alicia Wall",
      "startCoords": {
        "latitude": 39.73892,
        "longitude": -105.061274
      },
      "endCoords": {
        "latitude": 39.78483,
        "longitude": -105.032378
      },
      "distanceMeters": 5360.5,
      "durationMs": 864610,
      "drivingDurationMs": 686112,
      "idlingDurationMs": 178498,
      "fuelConsumedMl": 681,
      "fuelConsumedGallons": 0.18,
      "maxSpeedMph": 57.6,
      "averageSpeedMph": 13.9,
      "safetyEvents": []
    },
    {
      "id": "trip_44439084_20250611_002",
      "vehicleId": "44439084",
      "driverId": "20000010",
      "startMs": 1749633420000,
      "endMs": 1749637874875,
      "startAddress": "42389 Bennett Track",
      "endAddress": "69327 Mathews Spurs Suite 221",
      "startCoords": {
        "latitude": 39.756735,
        "longitude": -105.047201
      },
      "endCoords": {
        "latitude": 39.773495,
        "longitude": -105.073965
      },
      "distanceMeters": 32701.1,
      "durationMs": 4454875,
      "drivingDurationMs": 3793858,
      "idlingDurationMs": 661018,
      "fuelConsumedMl": 4156,
      "fuelConsumedGallons": 1.098,
      "maxSpeedMph": 33.5,
      "averageSpeedMph": 16.4,
      "safetyEvents": []
    },
    {
      "id": "trip_44439084_20250611_003",
      "vehicleId": "44439084",
      "driverId": null,
      "startMs": 1749633300000,
      "endMs": 1749634301659,
      "startAddress": "0313 Michael Glens",
      "endAddress": "158 Tara Parkways",
      "startCoords": {
        "latitude": 39.719495,
        "longitude": -105.057667
      },
      "endCoords": {
        "latitude": 39.767192,
        "longitude": -105.072876
      },
      "distanceMeters": 5477.5,
      "durationMs": 1001659,
      "drivingDurationMs": 815220,
      "idlingDurationMs": 186439,
      "fuelConsumedMl": 697,
      "fuelConsumedGallons": 0.184,
      "maxSpeedMph": 38.3,
      "averageSpeedMph": 12.2,
      "safetyEvents": []
    },
    {
      "id": "trip_44439084_20250611_004",
      "vehicleId": "44439084",
      "driverId": "20000010",
      "startMs": 1749631740000,
      "endMs": 1749636775612,
      "startAddress": "1122 Stewart Station",
      "endAddress": "6038 Valencia Drives Suite 848",
      "startCoords": {
        "latitude": 39.74098,
        "longitude": -104.960337
      },
      "endCoords": {
        "latitude": 39.742468,
        "longitude": -105.003563
      },
      "distanceMeters": 38899.7,
      "durationMs": 5035613,
      "drivingDurationMs": 4837087,
      "idlingDurationMs": 198526,
      "fuelConsumedMl": 4948,
      "fuelConsumedGallons": 1.307,
      "maxSpeedMph": 62.8,
      "averageSpeedMph": 17.3,
      "safetyEvents": []
    },
    {
      "id": "trip_44439084_20250612_001",
      "vehicleId": "44439084",
      "driverId": "20000004",
      "startMs": 1749742980000,
      "endMs": 1749749051748,
      "startAddress": "676 Vega Locks Suite 268",
      "endAddress": "00143 Hamilton Cape Suite 430",
      "startCoords": {
        "latitude": 39.818998,
        "longitude": -105.021798
      },
      "endCoords": {
        "latitude": 39.818172,
        "longitude": -105.036546
      },
      "distanceMeters": 43869.7,
      "durationMs": 6071748,
      "drivingDurationMs": 5108907,
      "idlingDurationMs": 962841,
      "fuelConsumedMl": 5576,
      "fuelConsumedGallons": 1.473,
      "maxSpeedMph": 60.2,
      "averageSpeedMph": 16.2,
      "safetyEvents": []
    },
    {
      "id": "trip_44439084_20250612_002",
      "vehicleId": "44439084",
      "driverId": "20000004",
      "startMs": 1749716880000,
      "endMs": 1749727387416,
      "startAddress": "11509 Kyle Spurs",
      "endAddress": "9395 Hogan Tunnel",
      "startCoords": {
        "latitude": 39.75492,
        "longitude": -104.907002
      },
      "endCoords": {
        "latitude": 39.744592,
        "longitude": -104.995303
      },
      "distanceMeters": 52787.4,
      "durationMs": 10507417,
      "drivingDurationMs": 8718715,
      "idlingDurationMs": 1788702,
      "fuelConsumedMl": 6712,
      "fuelConsumedGallons": 1.773,
      "maxSpeedMph": 30.5,
      "averageSpeedMph": 11.2,
      "safetyEvents": []
    },
    {
      "id": "trip_44439084_20250612_003",
      "vehicleId": "44439084",
      "driverId": "20000004",
      "startMs": 1749744120000,
      "endMs": 1749752426833,
      "startAddress": "4464 Daniel Skyway",
      "endAddress": "796 Smith Expressway",
      "startCoords": {
        "latitude": 39.752582,
        "longitude": -105.067444
      },
      "endCoords": {
        "latitude": 39.69315,
        "longitude": -105.025625
      },
      "distanceMeters": 62047.3,
      "durationMs": 8306834,
      "drivingDurationMs": 7265521,
      "idlingDurationMs": 1041313,
      "fuelConsumedMl": 7889,
      "fuelConsumedGallons": 2.084,
      "maxSpeedMph": 61.7,
      "averageSpeedMph": 16.7,
      "safetyEvents": []
    },
    {
      "id": "trip_44439084_20250613_001",
      "vehicleId": "44439084",
      "driverId": "20000014",
      "startMs": 1749810720000,
      "endMs": 1749817779121,
      "startAddress": "409 William Fall Suite 829",
      "endAddress": "0110 Paul Mountain",
      "startCoords": {
        "latitude": 39.701344,
        "longitude": -105.072919
      },
      "endCoords": {
        "latitude": 39.774086,
        "longitude": -104.943758
      },
      "distanceMeters": 36283.4,
      "durationMs": 7059121,
      "drivingDurationMs": 6064515,
      "idlingDurationMs": 994606,
      "fuelConsumedMl": 4614,
      "fuelConsumedGallons": 1.219,
      "maxSpeedMph": 52.4,
      "averageSpeedMph": 11.5,
      "safetyEvents": []
    },
    {
      "id": "trip_44439084_20250613_002",
      "vehicleId": "44439084",
      "driverId": "20000014",
      "startMs": 1749825480000,
      "endMs": 1749828073399,
      "startAddress": "01563 Olivia Route",
      "endAddress": "49111 Hernandez Island",
      "startCoords": {
        "latitude": 39.728368,
        "longitude": -105.034299
      },
      "endCoords": {
        "latitude": 39.742672,
        "longitude": -105.054524
      },
      "distanceMeters": 15450.6,
      "durationMs": 2593400,
      "drivingDurationMs": 2243949,
      "idlingDurationMs": 349451,
      "fuelConsumedMl": 1965,
      "fuelConsumedGallons": 0.519,
      "maxSpeedMph": 45.1,
      "averageSpeedMph": 13.3,
      "safetyEvents": []
    },
    {
      "id": "trip_44439084_20250613_003",
      "vehicleId": "44439084",
      "driverId": "20000014",
      "startMs": 1749818820000,
      "endMs": 1749828981548,
      "startAddress": "883 Dennis Spurs",
      "endAddress": "035 Sanchez Roads Apt. 205",
      "startCoords": {
        "latitude": 39.75756,
        "longitude": -105.032325
      },
      "endCoords": {
        "latitude": 39.712534,
        "longitude": -105.012343
      },
      "distanceMeters": 45723.1,
      "durationMs": 10161548,
      "drivingDurationMs": 8682331,
      "idlingDurationMs": 1479217,
      "fuelConsumedMl": 5814,
      "fuelConsumedGallons": 1.536,
      "maxSpeedMph": 65.9,
      "averageSpeedMph": 10.1,
      "safetyEvents": [
        {
          "type": "speeding",
          "startMs": 1749823680000,
          "maxSpeedMph": 65.9
        }
      ]
    },
    {
      "id": "trip_44439084_20250614_001",
      "vehicleId": "44439084",
      "driverId": "20000012",
      "startMs": 1749923160000,
      "endMs": 1749928978196,
      "startAddress": "4013 Alison Terrace Apt. 100",
      "endAddress": "2670 Michelle Harbor Apt. 311",
      "startCoords": {
        "latitude": 39.749351,
        "longitude": -104.931668
      },
      "endCoords": {
        "latitude": 39.734816,
        "longitude": -105.034436
      },
      "distanceMeters": 40158.6,
      "durationMs": 5818196,
      "drivingDurationMs": 4688705,
      "idlingDurationMs": 1129492,
      "fuelConsumedMl": 5107,
      "fuelConsumedGallons": 1.349,
      "maxSpeedMph": 56.1,
      "averageSpeedMph": 15.4,
      "safetyEvents": []
    },
    {
      "id": "trip_44439084_20250614_002",
      "vehicleId": "44439084",
      "driverId": "20000012",
      "startMs": 1749918360000,
      "endMs": 1749927909728,
      "startAddress": "511 Benjamin Ramp Apt. 656",
      "endAddress": "241 Reeves Glen",
      "startCoords": {
        "latitude": 39.693566,
        "longitude": -105.016812
      },
      "endCoords": {
        "latitude": 39.744333,
        "longitude": -105.001351
      },
      "distanceMeters": 77515.8,
      "durationMs": 9549728,
      "drivingDurationMs": 8965391,
      "idlingDurationMs": 584338,
      "fuelConsumedMl": 9857,
      "fuelConsumedGallons": 2.604,
      "maxSpeedMph": 42.5,
      "averageSpeedMph": 18.2,
      "safetyEvents": []
    },
    {
      "id": "trip_44439084_20250614_003",
      "vehicleId": "44439084",
      "driverId": "20000012",
      "startMs": 1749913020000,
      "endMs": 1749914305775,
      "startAddress": "370 Molly Loop Apt. 788",
      "endAddress": "5340 Randolph Circles Apt. 814",
      "startCoords": {
        "latitude": 39.741768,
        "longitude": -104.968841
      },
      "endCoords": {
        "latitude": 39.820626,
        "longitude": -104.938455
      },
      "distanceMeters": 8020.8,
      "durationMs": 1285775,
      "drivingDurationMs": 1068343,
      "idlingDurationMs": 217432,
      "fuelConsumedMl": 1018,
      "fuelConsumedGallons": 0.269,
      "maxSpeedMph": 53.5,
      "averageSpeedMph": 14.0,
      "safetyEvents": []
    },
    {
      "id": "trip_44439084_20250614_004",
      "vehicleId": "44439084",
      "driverId": "20000012",
      "startMs": 1749881100000,
      "endMs": 1749888979432,
      "startAddress": "126 Cindy Dale",
      "endAddress": "630 Sandra Gateway Suite 345",
      "startCoords": {
        "latitude": 39.758549,
        "longitude": -105.021383
      },
      "endCoords": {
        "latitude": 39.717209,
        "longitude": -104.931017
      },
      "distanceMeters": 65086.8,
      "durationMs": 7879432,
      "drivingDurationMs": 7364712,
      "idlingDurationMs": 514720,
      "fuelConsumedMl": 8275,
      "fuelConsumedGallons": 2.186,
      "maxSpeedMph": 66.4,
      "averageSpeedMph": 18.5,
      "safetyEvents": [
        {
          "type": "speeding",
          "startMs": 1749884760000,
          "maxSpeedMph": 66.4
        }
      ]
    },
    {
      "id": "trip_44439084_20250615_001",
      "vehicleId": "44439084",
      "driverId": "20000002",
      "startMs": 1749982200000,
      "endMs": 1749997950990,
      "startAddress": "2848 Javier Village Suite 722",
      "endAddress": "59841 Dawn Center Apt. 008",
      "startCoords": {
        "latitude": 39.809594,
        "longitude": -104.926173
      },
      "endCoords": {
        "latitude": 39.771583,
        "longitude": -104.960649
      },
      "distanceMeters": 75231.6,
      "durationMs": 15750991,
      "drivingDurationMs": 14519394,
      "idlingDurationMs": 1231596,
      "fuelConsumedMl": 9566,
      "fuelConsumedGallons": 2.527,
      "maxSpeedMph": 29.2,
      "averageSpeedMph": 10.7,
      "safetyEvents": []
    },
    {
      "id": "trip_44439084_20250615_002",
      "vehicleId": "44439084",
      "driverId": "20000002",
      "startMs": 1750003980000,
      "endMs": 1750016079321,
      "startAddress": "709 Elizabeth Cliffs",
      "endAddress": "81752 Moore View",
      "startCoords": {
        "latitude": 39.761668,
        "longitude": -104.966547
      },
      "endCoords": {
        "latitude": 39.804543,
        "longitude": -105.049568
      },
      "distanceMeters": 75567.1,
      "durationMs": 12099321,
      "drivingDurationMs": 11081202,
      "idlingDurationMs": 1018119,
      "fuelConsumedMl": 9607,
      "fuelConsumedGallons": 2.538,
      "maxSpeedMph": 38.8,
      "averageSpeedMph": 14.0,
      "safetyEvents": []
    },
    {
      "id": "trip_44439084_20250616_001",
      "vehicleId": "44439084",
      "driverId": "20000010",
      "startMs": 1750082640000,
      "endMs": 1750098304842,
      "startAddress": "410 Angela Groves Suite 031",
      "endAddress": "943 Rangel Courts Apt. 548",
      "startCoords": {
        "latitude": 39.743045,
        "longitude": -104.955431
      },
      "endCoords": {
        "latitude": 39.75328,
        "longitude": -105.00113
      },
      "distanceMeters": 72886.9,
      "durationMs": 15664842,
      "drivingDurationMs": 12859603,
      "idlingDurationMs": 2805239,
      "fuelConsumedMl": 9267,
      "fuelConsumedGallons": 2.448,
      "maxSpeedMph": 44.3,
      "averageSpeedMph": 10.4,
      "safetyEvents": []
    },
    {
      "id": "trip_44439084_20250616_002",
      "vehicleId": "44439084",
      "driverId": "20000010",
      "startMs": 1750097820000,
      "endMs": 1750100159509,
      "startAddress": "52195 Ricardo Road Apt. 027",
      "endAddress": "570 Chavez Knolls Apt. 041",
      "startCoords": {
        "latitude": 39.693656,
        "longitude": -104.930443
      },
      "endCoords": {
        "latitude": 39.740247,
        "longitude": -104.990379
      },
      "distanceMeters": 9970.2,
      "durationMs": 2339510,
      "drivingDurationMs": 1952655,
      "idlingDurationMs": 386855,
      "fuelConsumedMl": 1268,
      "fuelConsumedGallons": 0.335,
      "maxSpeedMph": 38.2,
      "averageSpeedMph": 9.5,
      "safetyEvents": []
    },
    {
      "id": "trip_44439084_20250616_003",
      "vehicleId": "44439084",
      "driverId": "20000010",
      "startMs": 1750074780000,
      "endMs": 1750078134401,
      "startAddress": "16925 Burton Plaza Suite 863",
      "endAddress": "740 White Islands",
      "startCoords": {
        "latitude": 39.755682,
        "longitude": -105.009199
      },
      "endCoords": {
        "latitude": 39.787447,
        "longitude": -105.085278
      },
      "distanceMeters": 25936.1,
      "durationMs": 3354402,
      "drivingDurationMs": 3157331,
      "idlingDurationMs": 197071,
      "fuelConsumedMl": 3297,
      "fuelConsumedGallons": 0.871,
      "maxSpeedMph": 68.9,
      "averageSpeedMph": 17.3,
      "safetyEvents": [
        {
          "type": "speeding",
          "startMs": 1750074900000,
          "maxSpeedMph": 68.9
        }
      ]
    },
    {
      "id": "trip_44439084_20250616_004",
      "vehicleId": "44439084",
      "driverId": "20000010",
      "startMs": 1750065900000,
      "endMs": 1750069784304,
      "startAddress": "606 Reyes Neck",
      "endAddress": "2780 Michael Rapids",
      "startCoords": {
        "latitude": 39.725052,
        "longitude": -104.903485
      },
      "endCoords": {
        "latitude": 39.755135,
        "longitude": -104.947678
      },
      "distanceMeters": 30444.3,
      "durationMs": 3884305,
      "drivingDurationMs": 3604837,
      "idlingDurationMs": 279468,
      "fuelConsumedMl": 3872,
      "fuelConsumedGallons": 1.023,
      "maxSpeedMph": 67.6,
      "averageSpeedMph": 17.5,
      "safetyEvents": [
        {
          "type": "speeding",
          "startMs": 1750066740000,
          "maxSpeedMph": 67.6
        }
      ]
    },
    {
      "id": "trip_44439084_20250616_005",
      "vehicleId": "44439084",
      "driverId": "20000010",
      "startMs": 1750073580000,
      "endMs": 1750080616445,
      "startAddress": "21723 Coleman Expressway",
      "endAddress": "8789 Kristen Land Suite 136",
      "startCoords": {
        "latitude": 39.688922,
        "longitude": -105.005048
      },
      "endCoords": {
        "latitude": 39.694884,
        "longitude": -105.056567
      },
      "distanceMeters": 47996.5,
      "durationMs": 7036445,
      "drivingDurationMs": 6767529,
      "idlingDurationMs": 268917,
      "fuelConsumedMl": 6102,
      "fuelConsumedGallons": 1.612,
      "maxSpeedMph": 50.4,
      "averageSpeedMph": 15.3,
      "safetyEvents": []
    },
    {
      "id": "trip_44439084_20250616_006",
      "vehicleId": "44439084",
      "driverId": "20000010",
      "startMs": 1750061700000,
      "endMs": 1750067196166,
      "startAddress": "914 Renee Extension Apt. 337",
      "endAddress": "38325 Berg Tunnel Apt. 959",
      "startCoords": {
        "latitude": 39.686231,
        "longitude": -105.001505
      },
      "endCoords": {
        "latitude": 39.778441,
        "longitude": -104.928946
      },
      "distanceMeters": 30041.0,
      "durationMs": 5496167,
      "drivingDurationMs": 5257592,
      "idlingDurationMs": 238575,
      "fuelConsumedMl": 3819,
      "fuelConsumedGallons": 1.009,
      "maxSpeedMph": 37.7,
      "averageSpeedMph": 12.2,
      "safetyEvents": []
    },
    {
      "id": "trip_44439084_20250617_001",
      "vehicleId": "44439084",
      "driverId": "20000007",
      "startMs": 1750176840000,
      "endMs": 1750189410842,
      "startAddress": "026 Ashley Glen Apt. 683",
      "endAddress": "71712 Zachary Lane Suite 662",
      "startCoords": {
        "latitude": 39.79566,
        "longitude": -104.956873
      },
      "endCoords": {
        "latitude": 39.763537,
        "longitude": -104.913622
      },
      "distanceMeters": 83357.5,
      "durationMs": 12570842,
      "drivingDurationMs": 10869280,
      "idlingDurationMs": 1701563,
      "fuelConsumedMl": 10599,
      "fuelConsumedGallons": 2.8,
      "maxSpeedMph": 38.4,
      "averageSpeedMph": 14.8,
      "safetyEvents": []
    },
    {
      "id": "trip_44439084_20250617_002",
      "vehicleId": "44439084",
      "driverId": "20000007",
      "startMs": 1750165740000,
      "endMs": 1750168874574,
      "startAddress": "97155 Anderson Hill",
      "endAddress": "31489 Anthony Views",
      "startCoords": {
        "latitude": 39.806506,
        "longitude": -105.06454
      },
      "endCoords": {
        "latitude": 39.708827,
        "longitude": -105.056856
      },
      "distanceMeters": 25407.9,
      "durationMs": 3134574,
      "drivingDurationMs": 2939798,
      "idlingDurationMs": 194776,
      "fuelConsumedMl": 3229,
      "fuelConsumedGallons": 0.853,
      "maxSpeedMph": 46.8,
      "averageSpeedMph": 18.1,
      "safetyEvents": []
    },
    {
      "id": "trip_44439084_20250617_003",
      "vehicleId": "44439084",
      "driverId": "20000007",
      "startMs": 1750142040000,
      "endMs": 1750143355475,
      "startAddress": "912 Tina Ports",
      "endAddress": "664 Steele Green Apt. 239",
      "startCoords": {
        "latitude": 39.781006,
        "longitude": -105.029254
      },
      "endCoords": {
        "latitude": 39.804763,
        "longitude": -105.068071
      },
      "distanceMeters": 7041.7,
      "durationMs": 1315475,
      "drivingDurationMs": 1064386,
      "idlingDurationMs": 251089,
      "fuelConsumedMl": 897,
      "fuelConsumedGallons": 0.237,
      "maxSpeedMph": 68.2,
      "averageSpeedMph": 12.0,
      "safetyEvents": [
        {
          "type": "speeding",
          "startMs": 1750142400000,
          "maxSpeedMph": 68.2
        }
      ]
    },
    {
      "id": "trip_44439084_20250617_004",
      "vehicleId": "44439084",
      "driverId": "20000007",
      "startMs": 1750171140000,
      "endMs": 1750175924840,
      "startAddress": "6711 Davis Run",
      "endAddress": "174 Vincent Squares Apt. 489",
      "startCoords": {
        "latitude": 39.810147,
        "longitude": -105.008252
      },
      "endCoords": {
        "latitude": 39.808411,
        "longitude": -104.901678
      },
      "distanceMeters": 35360.6,
      "durationMs": 4784840,
      "drivingDurationMs": 4588569,
      "idlingDurationMs": 196271,
      "fuelConsumedMl": 4497,
      "fuelConsumedGallons": 1.188,
      "maxSpeedMph": 52.3,
      "averageSpeedMph": 16.5,
      "safetyEvents": []
    },
    {
      "id": "trip_44439084_20250618_001",
      "vehicleId": "44439084",
      "driverId": "20000018",
      "startMs": 1750268100000,
      "endMs": 1750277012946,
      "startAddress": "93823 Castro Fork",
      "endAddress": "31426 Schwartz Mount",
      "startCoords": {
        "latitude": 39.751384,
        "longitude": -105.061834
      },
      "endCoords": {
        "latitude": 39.732934,
        "longitude": -105.052042
      },
      "distanceMeters": 68777.5,
      "durationMs": 8912947,
      "drivingDurationMs": 8095970,
      "idlingDurationMs": 816977,
      "fuelConsumedMl": 8744,
      "fuelConsumedGallons": 2.31,
      "maxSpeedMph": 67.2,
      "averageSpeedMph": 17.3,
      "safetyEvents": [
        {
          "type": "speeding",
          "startMs": 1750271700000,
          "maxSpeedMph": 67.2
        }
      ]
    },
    {
      "id": "trip_44439084_20250618_002",
      "vehicleId": "44439084",
      "driverId": "20000018",
      "startMs": 1750262160000,
      "endMs": 1750271468390,
      "startAddress": "557 White Brooks Suite 898",
      "endAddress": "42068 Harris Junctions",
      "startCoords": {
        "latitude": 39.753796,
        "longitude": -104.972123
      },
      "endCoords": {
        "latitude": 39.699904,
        "longitude": -104.915203
      },
      "distanceMeters": 52891.1,
      "durationMs": 9308390,
      "drivingDurationMs": 8012772,
      "idlingDurationMs": 1295619,
      "fuelConsumedMl": 6723,
      "fuelConsumedGallons": 1.776,
      "maxSpeedMph": 41.9,
      "averageSpeedMph": 12.7,
      "safetyEvents": []
    },
    {
      "id": "trip_44439084_20250619_001",
      "vehicleId": "44439084",
      "driverId": "20000021",
      "startMs": 1750355340000,
      "endMs": 1750362642867,
      "startAddress": "845 David Lock",
      "endAddress": "26354 Johnson Valleys Apt. 125",
      "startCoords": {
        "latitude": 39.800012,
        "longitude": -105.032501
      },
      "endCoords": {
        "latitude": 39.688211,
        "longitude": -105.024612
      },
      "distanceMeters": 44829.0,
      "durationMs": 7302868,
      "drivingDurationMs": 6246052,
      "idlingDurationMs": 1056816,
      "fuelConsumedMl": 5701,
      "fuelConsumedGallons": 1.506,
      "maxSpeedMph": 37.9,
      "averageSpeedMph": 13.7,
      "safetyEvents": []
    },
    {
      "id": "trip_44439084_20250619_002",
      "vehicleId": "44439084",
      "driverId": "20000021",
      "startMs": 1750353420000,
      "endMs": 1750356157806,
      "startAddress": "140 Taylor Groves Apt. 937",
      "endAddress": "3063 Brenda Stravenue Suite 630",
      "startCoords": {
        "latitude": 39.700481,
        "longitude": -105.02396
      },
      "endCoords": {
        "latitude": 39.713603,
        "longitude": -104.999006
      },
      "distanceMeters": 14213.9,
      "durationMs": 2737806,
      "drivingDurationMs": 2369075,
      "idlingDurationMs": 368731,
      "fuelConsumedMl": 1806,
      "fuelConsumedGallons": 0.477,
      "maxSpeedMph": 33.1,
      "averageSpeedMph": 11.6,
      "safetyEvents": []
    },
    {
      "id": "trip_44439084_20250619_003",
      "vehicleId": "44439084",
      "driverId": "20000021",
      "startMs": 1750348260000,
      "endMs": 1750355966033,
      "startAddress": "5269 Pace Passage",
      "endAddress": "6823 Stokes Fall Apt. 365",
      "startCoords": {
        "latitude": 39.75975,
        "longitude": -105.025547
      },
      "endCoords": {
        "latitude": 39.68834,
        "longitude": -105.072516
      },
      "distanceMeters": 53266.7,
      "durationMs": 7706034,
      "drivingDurationMs": 7304571,
      "idlingDurationMs": 401463,
      "fuelConsumedMl": 6772,
      "fuelConsumedGallons": 1.789,
      "maxSpeedMph": 32.9,
      "averageSpeedMph": 15.5,
      "safetyEvents": []
    },
    {
      "id": "trip_44439084_20250619_004",
      "vehicleId": "44439084",
      "driverId": "20000021",
      "startMs": 1750330380000,
      "endMs": 1750334589449,
      "startAddress": "6138 Gail Mount",
      "endAddress": "626 Lane Plains Apt. 373",
      "startCoords": {
        "latitude": 39.689146,
        "longitude": -105.067981
      },
      "endCoords": {
        "latitude": 39.741916,
        "longitude": -104.924147
      },
      "distanceMeters": 29476.0,
      "durationMs": 4209449,
      "drivingDurationMs": 3507379,
      "idlingDurationMs": 702070,
      "fuelConsumedMl": 3748,
      "fuelConsumedGallons": 0.99,
      "maxSpeedMph": 65.9,
      "averageSpeedMph": 15.7,
      "safetyEvents": [
        {
          "type": "speeding",
          "startMs": 1750333800000,
          "maxSpeedMph": 65.9
        }
      ]
    },
    {
      "id": "trip_44439084_20250620_001",
      "vehicleId": "44439084",
      "driverId": "20000001",
      "startMs": 1750406940000,
      "endMs": 1750408325354,
      "startAddress": "92299 Randolph Valleys Suite 131",
      "endAddress": "75489 Kenneth Parkway Suite 613",
      "startCoords": {
        "latitude": 39.706603,
        "longitude": -104.993877
      },
      "endCoords": {
        "latitude": 39.74763,
        "longitude": -105.059697
      },
      "distanceMeters": 8359.6,
      "durationMs": 1385354,
      "drivingDurationMs": 1153402,
      "idlingDurationMs": 231952,
      "fuelConsumedMl": 1064,
      "fuelConsumedGallons": 0.281,
      "maxSpeedMph": 66.0,
      "averageSpeedMph": 13.5,
      "safetyEvents": [
        {
          "type": "speeding",
          "startMs": 1750408080000,
          "maxSpeedMph": 66.0
        }
      ]
    },
    {
      "id": "trip_44439084_20250620_002",
      "vehicleId": "44439084",
      "driverId": "20000001",
      "startMs": 1750440840000,
      "endMs": 1750443225768,
      "startAddress": "009 Alvarez Mall",
      "endAddress": "0057 Aaron Mountain Suite 393",
      "startCoords": {
        "latitude": 39.718773,
        "longitude": -104.96018
      },
      "endCoords": {
        "latitude": 39.755571,
        "longitude": -105.029277
      },
      "distanceMeters": 12098.1,
      "durationMs": 2385769,
      "drivingDurationMs": 2092415,
      "idlingDurationMs": 293353,
      "fuelConsumedMl": 1537,
      "fuelConsumedGallons": 0.406,
      "maxSpeedMph": 42.3,
      "averageSpeedMph": 11.3,
      "safetyEvents": []
    },
    {
      "id": "trip_44439084_20250620_003",
      "vehicleId": "44439084",
      "driverId": "20000001",
      "startMs": 1750420980000,
      "endMs": 1750423540055,
      "startAddress": "1295 Haley Place Suite 392",
      "endAddress": "16283 Jenkins Estates",
      "startCoords": {
        "latitude": 39.714307,
        "longitude": -105.032424
      },
      "endCoords": {
        "latitude": 39.73587,
        "longitude": -105.045179
      },
      "distanceMeters": 17338.1,
      "durationMs": 2560056,
      "drivingDurationMs": 2231367,
      "idlingDurationMs": 328689,
      "fuelConsumedMl": 2203,
      "fuelConsumedGallons": 0.582,
      "maxSpeedMph": 57.8,
      "averageSpeedMph": 15.1,
      "safetyEvents": []
    },
    {
      "id": "trip_44439084_20250620_004",
      "vehicleId": "44439084",
      "driverId": "20000001",
      "startMs": 1750428540000,
      "endMs": 1750437098148,
      "startAddress": "0846 Trujillo Loop Apt. 966",
      "endAddress": "5189 Ramirez Streets Suite 436",
      "startCoords": {
        "latitude": 39.746169,
        "longitude": -104.996927
      },
      "endCoords": {
        "latitude": 39.751556,
        "longitude": -104.988591
      },
      "distanceMeters": 54492.8,
      "durationMs": 8558149,
      "drivingDurationMs": 6909066,
      "idlingDurationMs": 1649083,
      "fuelConsumedMl": 6927,
      "fuelConsumedGallons": 1.83,
      "maxSpeedMph": 65.4,
      "averageSpeedMph": 14.2,
      "safetyEvents": [
        {
          "type": "speeding",
          "startMs": 1750435620000,
          "maxSpeedMph": 65.4
        }
      ]
    },
    {
      "id": "trip_44439084_20250620_005",
      "vehicleId": "44439084",
      "driverId": "20000001",
      "startMs": 1750408440000,
      "endMs": 1750419415717,
      "startAddress": "32013 Courtney Ramp Suite 987",
      "endAddress": "5540 Kristy Landing Suite 532",
      "startCoords": {
        "latitude": 39.769741,
        "longitude": -105.067404
      },
      "endCoords": {
        "latitude": 39.700918,
        "longitude": -105.081265
      },
      "distanceMeters": 79018.7,
      "durationMs": 10975717,
      "drivingDurationMs": 10748770,
      "idlingDurationMs": 226947,
      "fuelConsumedMl": 10046,
      "fuelConsumedGallons": 2.654,
      "maxSpeedMph": 40.5,
      "averageSpeedMph": 16.1,
      "safetyEvents": []
    },
    {
      "id": "trip_44439084_20250621_001",
      "vehicleId": "44439084",
      "driverId": "20000011",
      "startMs": 1750504440000,
      "endMs": 1750508361593,
      "startAddress": "1933 Jeffrey Rest Apt. 655",
      "endAddress": "39518 Smith Trail Apt. 618",
      "startCoords": {
        "latitude": 39.794863,
        "longitude": -104.99407
      },
      "endCoords": {
        "latitude": 39.797815,
        "longitude": -104.987633
      },
      "distanceMeters": 30093.5,
      "durationMs": 3921594,
      "drivingDurationMs": 3496186,
      "idlingDurationMs": 425408,
      "fuelConsumedMl": 3827,
      "fuelConsumedGallons": 1.011,
      "maxSpeedMph": 49.4,
      "averageSpeedMph": 17.2,
      "safetyEvents": []
    },
    {
      "id": "trip_44439084_20250621_002",
      "vehicleId": "44439084",
      "driverId": "20000011",
      "startMs": 1750486380000,
      "endMs": 1750497211387,
      "startAddress": "010 Calhoun Cliffs Apt. 753",
      "endAddress": "5266 Troy Park",
      "startCoords": {
        "latitude": 39.804379,
        "longitude": -104.943545
      },
      "endCoords": {
        "latitude": 39.757614,
        "longitude": -105.048057
      },
      "distanceMeters": 84031.9,
      "durationMs": 10831388,
      "drivingDurationMs": 9829967,
      "idlingDurationMs": 1001421,
      "fuelConsumedMl": 10682,
      "fuelConsumedGallons": 2.822,
      "maxSpeedMph": 32.4,
      "averageSpeedMph": 17.4,
      "safetyEvents": []
    },
    {
      "id": "trip_44439084_20250622_001",
      "vehicleId": "44439084",
      "driverId": "20000021",
      "startMs": 1750592460000,
      "endMs": 1750594906270,
      "startAddress": "7858 Matthew Lake Apt. 524",
      "endAddress": "0275 Justin Stream Suite 217",
      "startCoords": {
        "latitude": 39.806804,
        "longitude": -105.020352
      },
      "endCoords": {
        "latitude": 39.75019,
        "longitude": -104.921233
      },
      "distanceMeters": 15261.5,
      "durationMs": 2446270,
      "drivingDurationMs": 1975736,
      "idlingDurationMs": 470534,
      "fuelConsumedMl": 1942,
      "fuelConsumedGallons": 0.513,
      "maxSpeedMph": 29.2,
      "averageSpeedMph": 14.0,
      "safetyEvents": []
    },
    {
      "id": "trip_44439084_20250622_002",
      "vehicleId": "44439084",
      "driverId": "20000021",
      "startMs": 1750592700000,
      "endMs": 1750601860297,
      "startAddress": "9054 Barbara Fort",
      "endAddress": "2296 Nicole Crossroad",
      "startCoords": {
        "latitude": 39.717371,
        "longitude": -104.9014
      },
      "endCoords": {
        "latitude": 39.701769,
        "longitude": -105.044148
      },
      "distanceMeters": 66836.9,
      "durationMs": 9160297,
      "drivingDurationMs": 7546312,
      "idlingDurationMs": 1613985,
      "fuelConsumedMl": 8498,
      "fuelConsumedGallons": 2.245,
      "maxSpeedMph": 34.4,
      "averageSpeedMph": 16.3,
      "safetyEvents": []
    },
    {
      "id": "trip_44439084_20250623_001",
      "vehicleId": "44439084",
      "driverId": "20000020",
      "startMs": 1750676640000,
      "endMs": 1750685208018,
      "startAddress": "42415 Eric Estate",
      "endAddress": "9671 Kimberly Parkway",
      "startCoords": {
        "latitude": 39.698838,
        "longitude": -105.014927
      },
      "endCoords": {
        "latitude": 39.807824,
        "longitude": -105.054837
      },
      "distanceMeters": 55014.6,
      "durationMs": 8568019,
      "drivingDurationMs": 6942215,
      "idlingDurationMs": 1625804,
      "fuelConsumedMl": 6995,
      "fuelConsumedGallons": 1.848,
      "maxSpeedMph": 69.2,
      "averageSpeedMph": 14.4,
      "safetyEvents": [
        {
          "type": "speeding",
          "startMs": 1750680660000,
          "maxSpeedMph": 69.2
        }
      ]
    },
    {
      "id": "trip_44439084_20250623_002",
      "vehicleId": "44439084",
      "driverId": "20000020",
      "startMs": 1750686840000,
      "endMs": 1750700254873,
      "startAddress": "802 Haley Turnpike",
      "endAddress": "1817 Campbell Pass Suite 457",
      "startCoords": {
        "latitude": 39.807103,
        "longitude": -104.955595
      },
      "endCoords": {
        "latitude": 39.764125,
        "longitude": -104.919422
      },
      "distanceMeters": 82512.1,
      "durationMs": 13414873,
      "drivingDurationMs": 11165835,
      "idlingDurationMs": 2249038,
      "fuelConsumedMl": 10489,
      "fuelConsumedGallons": 2.771,
      "maxSpeedMph": 41.0,
      "averageSpeedMph": 13.8,
      "safetyEvents": []
    },
    {
      "id": "trip_44439084_20250623_003",
      "vehicleId": "44439084",
      "driverId": "20000020",
      "startMs": 1750675440000,
      "endMs": 1750677456980,
      "startAddress": "373 Frederick Wells Suite 290",
      "endAddress": "94690 Jason Locks",
      "startCoords": {
        "latitude": 39.710712,
        "longitude": -105.083928
      },
      "endCoords": {
        "latitude": 39.761345,
        "longitude": -104.980858
      },
      "distanceMeters": 13697.3,
      "durationMs": 2016981,
      "drivingDurationMs": 1709031,
      "idlingDurationMs": 307949,
      "fuelConsumedMl": 1741,
      "fuelConsumedGallons": 0.46,
      "maxSpeedMph": 46.2,
      "averageSpeedMph": 15.2,
      "safetyEvents": []
    },
    {
      "id": "trip_44439084_20250623_004",
      "vehicleId": "44439084",
      "driverId": "20000020",
      "startMs": 1750670100000,
      "endMs": 1750673128529,
      "startAddress": "5398 Charles Port",
      "endAddress": "908 Steven Radial",
      "startCoords": {
        "latitude": 39.823705,
        "longitude": -104.922483
      },
      "endCoords": {
        "latitude": 39.698154,
        "longitude": -104.899589
      },
      "distanceMeters": 23440.6,
      "durationMs": 3028530,
      "drivingDurationMs": 2743156,
      "idlingDurationMs": 285374,
      "fuelConsumedMl": 2979,
      "fuelConsumedGallons": 0.787,
      "maxSpeedMph": 37.7,
      "averageSpeedMph": 17.3,
      "safetyEvents": []
    },
    {
      "id": "trip_44439084_20250623_005",
      "vehicleId": "44439084",
      "driverId": "20000020",
      "startMs": 1750676220000,
      "endMs": 1750682371776,
      "startAddress": "04333 Hooper Mill",
      "endAddress": "817 Flynn Walks",
      "startCoords": {
        "latitude": 39.695139,
        "longitude": -105.037538
      },
      "endCoords": {
        "latitude": 39.807229,
        "longitude": -104.904583
      },
      "distanceMeters": 48380.9,
      "durationMs": 6151777,
      "drivingDurationMs": 5807548,
      "idlingDurationMs": 344229,
      "fuelConsumedMl": 6151,
      "fuelConsumedGallons": 1.625,
      "maxSpeedMph": 37.4,
      "averageSpeedMph": 17.6,
      "safetyEvents": []
    },
    {
      "id": "trip_44439084_20250624_001",
      "vehicleId": "44439084",
      "driverId": "20000006",
      "startMs": 1750789680000,
      "endMs": 1750798700449,
      "startAddress": "518 Browning Mills",
      "endAddress": "9283 Blake Motorway Apt. 081",
      "startCoords": {
        "latitude": 39.736797,
        "longitude": -104.931431
      },
      "endCoords": {
        "latitude": 39.806274,
        "longitude": -105.081388
      },
      "distanceMeters": 47354.9,
      "durationMs": 9020450,
      "drivingDurationMs": 7866850,
      "idlingDurationMs": 1153600,
      "fuelConsumedMl": 6023,
      "fuelConsumedGallons": 1.591,
      "maxSpeedMph": 32.1,
      "averageSpeedMph": 11.7,
      "safetyEvents": []
    },
    {
      "id": "trip_44439084_20250624_002",
      "vehicleId": "44439084",
      "driverId": "20000006",
      "startMs": 1750753020000,
      "endMs": 1750762381557,
      "startAddress": "53950 Wolf Divide",
      "endAddress": "3889 Brown Inlet",
      "startCoords": {
        "latitude": 39.727226,
        "longitude": -105.084473
      },
      "endCoords": {
        "latitude": 39.812514,
        "longitude": -104.972201
      },
      "distanceMeters": 76501.7,
      "durationMs": 9361557,
      "drivingDurationMs": 9045177,
      "idlingDurationMs": 316380,
      "fuelConsumedMl": 9729,
      "fuelConsumedGallons": 2.57,
      "maxSpeedMph": 57.6,
      "averageSpeedMph": 18.3,
      "safetyEvents": []
    },
    {
      "id": "trip_44439084_20250624_003",
      "vehicleId": "44439084",
      "driverId": "20000006",
      "startMs": 1750785000000,
      "endMs": 1750796459307,
      "startAddress": "143 Guerra Gateway Suite 519",
      "endAddress": "711 Jennifer Path",
      "startCoords": {
        "latitude": 39.7707,
        "longitude": -105.045303
      },
      "endCoords": {
        "latitude": 39.827869,
        "longitude": -104.943788
      },
      "distanceMeters": 72166.1,
      "durationMs": 11459308,
      "drivingDurationMs": 10534282,
      "idlingDurationMs": 925026,
      "fuelConsumedMl": 9176,
      "fuelConsumedGallons": 2.424,
      "maxSpeedMph": 62.9,
      "averageSpeedMph": 14.1,
      "safetyEvents": []
    },
    {
      "id": "trip_44439084_20250625_001",
      "vehicleId": "44439084",
      "driverId": "20000019",
      "startMs": 1750838580000,
      "endMs": 1750849136869,
      "startAddress": "07185 Hernandez Alley",
      "endAddress": "316 Philip Road",
      "startCoords": {
        "latitude": 39.792832,
        "longitude": -105.053298
      },
      "endCoords": {
        "latitude": 39.815847,
        "longitude": -105.015982
      },
      "distanceMeters": 68905.0,
      "durationMs": 10556869,
      "drivingDurationMs": 10018611,
      "idlingDurationMs": 538258,
      "fuelConsumedMl": 8759,
      "fuelConsumedGallons": 2.314,
      "maxSpeedMph": 31.3,
      "averageSpeedMph": 14.6,
      "safetyEvents": []
    },
    {
      "id": "trip_44439084_20250625_002",
      "vehicleId": "44439084",
      "driverId": "20000019",
      "startMs": 1750838640000,
      "endMs": 1750851887263,
      "startAddress": "820 Brittany Junction Apt. 076",
      "endAddress": "164 Pham Pike Suite 013",
      "startCoords": {
        "latitude": 39.765328,
        "longitude": -105.023432
      },
      "endCoords": {
        "latitude": 39.798675,
        "longitude": -104.990623
      },
      "distanceMeters": 80384.1,
      "durationMs": 13247263,
      "drivingDurationMs": 12823793,
      "idlingDurationMs": 423470,
      "fuelConsumedMl": 10221,
      "fuelConsumedGallons": 2.7,
      "maxSpeedMph": 47.7,
      "averageSpeedMph": 13.6,
      "safetyEvents": []
    },
    {
      "id": "trip_44439084_20250625_003",
      "vehicleId": "44439084",
      "driverId": "20000019",
      "startMs": 1750865400000,
      "endMs": 1750876621537,
      "startAddress": "894 Luis Rue",
      "endAddress": "5385 Megan Manor Apt. 447",
      "startCoords": {
        "latitude": 39.784185,
        "longitude": -105.083736
      },
      "endCoords": {
        "latitude": 39.797246,
        "longitude": -105.012684
      },
      "distanceMeters": 79989.9,
      "durationMs": 11221537,
      "drivingDurationMs": 10328693,
      "idlingDurationMs": 892844,
      "fuelConsumedMl": 10171,
      "fuelConsumedGallons": 2.687,
      "maxSpeedMph": 57.1,
      "averageSpeedMph": 15.9,
      "safetyEvents": []
    },
    {
      "id": "trip_44439084_20250625_004",
      "vehicleId": "44439084",
      "driverId": "20000019",
      "startMs": 1750832880000,
      "endMs": 1750846879160,
      "startAddress": "15467 Nicole Manor Apt. 214",
      "endAddress": "66084 Hunter Expressway",
      "startCoords": {
        "latitude": 39.740594,
        "longitude": -104.992938
      },
      "endCoords": {
        "latitude": 39.816232,
        "longitude": -105.006871
      },
      "distanceMeters": 80727.2,
      "durationMs": 13999161,
      "drivingDurationMs": 13325893,
      "idlingDurationMs": 673268,
      "fuelConsumedMl": 10262,
      "fuelConsumedGallons": 2.711,
      "maxSpeedMph": 45.9,
      "averageSpeedMph": 12.9,
      "safetyEvents": []
    },
    {
      "id": "trip_44439084_20250625_005",
      "vehicleId": "44439084",
      "driverId": "20000019",
      "startMs": 1750856820000,
      "endMs": 1750870154309,
      "startAddress": "74010 Christopher Roads",
      "endAddress": "838 Davis Ville Suite 688",
      "startCoords": {
        "latitude": 39.68472,
        "longitude": -104.90108
      },
      "endCoords": {
        "latitude": 39.725532,
        "longitude": -105.005294
      },
      "distanceMeters": 76238.5,
      "durationMs": 13334310,
      "drivingDurationMs": 12731217,
      "idlingDurationMs": 603093,
      "fuelConsumedMl": 9694,
      "fuelConsumedGallons": 2.561,
      "maxSpeedMph": 71.4,
      "averageSpeedMph": 12.8,
      "safetyEvents": [
        {
          "type": "speeding",
          "startMs": 1750862820000,
          "maxSpeedMph": 71.4
        }
      ]
    },
    {
      "id": "trip_44439084_20250625_006",
      "vehicleId": "44439084",
      "driverId": "20000019",
      "startMs": 1750851360000,
      "endMs": 1750857941470,
      "startAddress": "26314 Tim Street",
      "endAddress": "740 Jefferson Prairie",
      "startCoords": {
        "latitude": 39.77242,
        "longitude": -105.029016
      },
      "endCoords": {
        "latitude": 39.71005,
        "longitude": -105.056525
      },
      "distanceMeters": 43291.0,
      "durationMs": 6581470,
      "drivingDurationMs": 6248337,
      "idlingDurationMs": 333133,
      "fuelConsumedMl": 5504,
      "fuelConsumedGallons": 1.454,
      "maxSpeedMph": 70.1,
      "averageSpeedMph": 14.7,
      "safetyEvents": [
        {
          "type": "speeding",
          "startMs": 1750855920000,
          "maxSpeedMph": 70.1
        }
      ]
    },
    {
      "id": "trip_44439084_20250626_001",
      "vehicleId": "44439084",
      "driverId": "20000018",
      "startMs": 1750953900000,
      "endMs": 1750964721957,
      "startAddress": "4964 Davis Street Apt. 419",
      "endAddress": "33518 Huffman Lock",
      "startCoords": {
        "latitude": 39.816224,
        "longitude": -104.940568
      },
      "endCoords": {
        "latitude": 39.742144,
        "longitude": -105.083052
      },
      "distanceMeters": 68413.0,
      "durationMs": 10821958,
      "drivingDurationMs": 9439450,
      "idlingDurationMs": 1382507,
      "fuelConsumedMl": 8699,
      "fuelConsumedGallons": 2.298,
      "maxSpeedMph": 39.8,
      "averageSpeedMph": 14.1,
      "safetyEvents": []
    },
    {
      "id": "trip_44439084_20250626_002",
      "vehicleId": "44439084",
      "driverId": "20000018",
      "startMs": 1750948200000,
      "endMs": 1750955794593,
      "startAddress": "283 Rice Center",
      "endAddress": "15733 Angela Crest Suite 214",
      "startCoords": {
        "latitude": 39.746521,
        "longitude": -104.992129
      },
      "endCoords": {
        "latitude": 39.727536,
        "longitude": -104.921212
      },
      "distanceMeters": 50380.7,
      "durationMs": 7594593,
      "drivingDurationMs": 7212164,
      "idlingDurationMs": 382429,
      "fuelConsumedMl": 6405,
      "fuelConsumedGallons": 1.692,
      "maxSpeedMph": 28.0,
      "averageSpeedMph": 14.8,
      "safetyEvents": []
    },
    {
      "id": "trip_44439084_20250626_003",
      "vehicleId": "44439084",
      "driverId": "20000018",
      "startMs": 1750958340000,
      "endMs": 1750965658259,
      "startAddress": "855 Thomas Mission Apt. 556",
      "endAddress": "000 Butler Field",
      "startCoords": {
        "latitude": 39.739812,
        "longitude": -105.017741
      },
      "endCoords": {
        "latitude": 39.797164,
        "longitude": -105.083331
      },
      "distanceMeters": 37440.0,
      "durationMs": 7318259,
      "drivingDurationMs": 6485426,
      "idlingDurationMs": 832833,
      "fuelConsumedMl": 4762,
      "fuelConsumedGallons": 1.258,
      "maxSpeedMph": 61.4,
      "averageSpeedMph": 11.4,
      "safetyEvents": []
    },
    {
      "id": "trip_44439084_20250626_004",
      "vehicleId": "44439084",
      "driverId": "20000018",
      "startMs": 1750952400000,
      "endMs": 1750968338814,
      "startAddress": "99408 Brown Extension",
      "endAddress": "8444 Franklin Streets Suite 537",
      "startCoords": {
        "latitude": 39.822333,
        "longitude": -104.976488
      },
      "endCoords": {
        "latitude": 39.794765,
        "longitude": -105.029574
      },
      "distanceMeters": 81382.8,
      "durationMs": 15938815,
      "drivingDurationMs": 15516465,
      "idlingDurationMs": 422349,
      "fuelConsumedMl": 10346,
      "fuelConsumedGallons": 2.733,
      "maxSpeedMph": 57.0,
      "averageSpeedMph": 11.4,
      "safetyEvents": []
    },
    {
      "id": "trip_44439084_20250626_005",
      "vehicleId": "44439084",
      "driverId": "20000018",
      "startMs": 1750949340000,
      "endMs": 1750958580103,
      "startAddress": "509 Nicholas Corner",
      "endAddress": "0451 Rodriguez Land",
      "startCoords": {
        "latitude": 39.792123,
        "longitude": -104.950989
      },
      "endCoords": {
        "latitude": 39.702537,
        "longitude": -104.975388
      },
      "distanceMeters": 71900.8,
      "durationMs": 9240104,
      "drivingDurationMs": 8128767,
      "idlingDurationMs": 1111337,
      "fuelConsumedMl": 9142,
      "fuelConsumedGallons": 2.415,
      "maxSpeedMph": 60.5,
      "averageSpeedMph": 17.4,
      "safetyEvents": []
    },
    {
      "id": "trip_44439084_20250627_001",
      "vehicleId": "44439084",
      "driverId": "20000014",
      "startMs": 1751038740000,
      "endMs": 1751047662226,
      "startAddress": "26081 Joyce Inlet",
      "endAddress": "846 Thomas Route Suite 707",
      "startCoords": {
        "latitude": 39.77501,
        "longitude": -104.907816
      },
      "endCoords": {
        "latitude": 39.707478,
        "longitude": -105.075514
      },
      "distanceMeters": 53490.1,
      "durationMs": 8922227,
      "drivingDurationMs": 7546135,
      "idlingDurationMs": 1376092,
      "fuelConsumedMl": 6802,
      "fuelConsumedGallons": 1.797,
      "maxSpeedMph": 70.7,
      "averageSpeedMph": 13.4,
      "safetyEvents": [
        {
          "type": "speeding",
          "startMs": 1751038980000,
          "maxSpeedMph": 70.7
        }
      ]
    },
    {
      "id": "trip_44439084_20250627_002",
      "vehicleId": "44439084",
      "driverId": "20000014",
      "startMs": 1751021280000,
      "endMs": 1751025597366,
      "startAddress": "222 Martin Neck",
      "endAddress": "935 Lee Path Apt. 622",
      "startCoords": {
        "latitude": 39.712249,
        "longitude": -105.017884
      },
      "endCoords": {
        "latitude": 39.808922,
        "longitude": -104.976793
      },
      "distanceMeters": 31167.1,
      "durationMs": 4317366,
      "drivingDurationMs": 3721103,
      "idlingDurationMs": 596263,
      "fuelConsumedMl": 3963,
      "fuelConsumedGallons": 1.047,
      "maxSpeedMph": 37.1,
      "averageSpeedMph": 16.1,
      "safetyEvents": []
    },
    {
      "id": "trip_44439084_20250627_003",
      "vehicleId": "44439084",
      "driverId": "20000014",
      "startMs": 1751004480000,
      "endMs": 1751015294485,
      "startAddress": "92589 Wilkinson Point Apt. 859",
      "endAddress": "64658 Garcia Lights Suite 395",
      "startCoords": {
        "latitude": 39.821215,
        "longitude": -104.9827
      },
      "endCoords": {
        "latitude": 39.764505,
        "longitude": -105.027614
      },
      "distanceMeters": 75346.4,
      "durationMs": 10814486,
      "drivingDurationMs": 9321226,
      "idlingDurationMs": 1493260,
      "fuelConsumedMl": 9581,
      "fuelConsumedGallons": 2.531,
      "maxSpeedMph": 44.6,
      "averageSpeedMph": 15.6,
      "safetyEvents": []
    },
    {
      "id": "trip_44439084_20250627_004",
      "vehicleId": "44439084",
      "driverId": "20000014",
      "startMs": 1751046960000,
      "endMs": 1751057424374,
      "startAddress": "2007 Rich Unions",
      "endAddress": "90493 Crawford Harbors Apt. 364",
      "startCoords": {
        "latitude": 39.698105,
        "longitude": -104.958554
      },
      "endCoords": {
        "latitude": 39.789606,
        "longitude": -105.021839
      },
      "distanceMeters": 48429.3,
      "durationMs": 10464375,
      "drivingDurationMs": 9565932,
      "idlingDurationMs": 898442,
      "fuelConsumedMl": 6159,
      "fuelConsumedGallons": 1.627,
      "maxSpeedMph": 62.4,
      "averageSpeedMph": 10.4,
      "safetyEvents": []
    },
    {
      "id": "trip_44439084_20250627_005",
      "vehicleId": "44439084",
      "driverId": "20000014",
      "startMs": 1751017320000,
      "endMs": 1751027074071,
      "startAddress": "11275 Meghan Parkway",
      "endAddress": "7701 Annette Roads Suite 965",
      "startCoords": {
        "latitude": 39.707809,
        "longitude": -105.023277
      },
      "endCoords": {
        "latitude": 39.697337,
        "longitude": -105.044719
      },
      "distanceMeters": 54516.1,
      "durationMs": 9754071,
      "drivingDurationMs": 7827709,
      "idlingDurationMs": 1926362,
      "fuelConsumedMl": 6931,
      "fuelConsumedGallons": 1.831,
      "maxSpeedMph": 66.7,
      "averageSpeedMph": 12.5,
      "safetyEvents": [
        {
          "type": "speeding",
          "startMs": 1751022720000,
          "maxSpeedMph": 66.7
        }
      ]
    },
    {
      "id": "trip_44439084_20250627_006",
      "vehicleId": "44439084",
      "driverId": "20000014",
      "startMs": 1751025300000,
      "endMs": 1751036680504,
      "startAddress": "52507 Jacqueline Forges",
      "endAddress": "2717 Anderson Valleys Suite 443",
      "startCoords": {
        "latitude": 39.698022,
        "longitude": -105.026564
      },
      "endCoords": {
        "latitude": 39.802284,
        "longitude": -104.913075
      },
      "distanceMeters": 53522.9,
      "durationMs": 11380505,
      "drivingDurationMs": 9759460,
      "idlingDurationMs": 1621045,
      "fuelConsumedMl": 6806,
      "fuelConsumedGallons": 1.798,
      "maxSpeedMph": 51.4,
      "averageSpeedMph": 10.5,
      "safetyEvents": []
    },
    {
      "id": "trip_44439084_20250628_001",
      "vehicleId": "44439084",
      "driverId": null,
      "startMs": 1751122500000,
      "endMs": 1751132560544,
      "startAddress": "1364 Gray Prairie",
      "endAddress": "9028 Jessica Extensions Apt. 959",
      "startCoords": {
        "latitude": 39.717589,
        "longitude": -104.953238
      },
      "endCoords": {
        "latitude": 39.780302,
        "longitude": -104.957135
      },
      "distanceMeters": 65094.0,
      "durationMs": 10060544,
      "drivingDurationMs": 9596779,
      "idlingDurationMs": 463765,
      "fuelConsumedMl": 8275,
      "fuelConsumedGallons": 2.186,
      "maxSpeedMph": 34.6,
      "averageSpeedMph": 14.5,
      "safetyEvents": []
    },
    {
      "id": "trip_44439084_20250629_001",
      "vehicleId": "44439084",
      "driverId": "20000002",
      "startMs": 1751199540000,
      "endMs": 1751202472968,
      "startAddress": "8980 Samantha Neck Apt. 428",
      "endAddress": "721 Jillian Expressway",
      "startCoords": {
        "latitude": 39.739923,
        "longitude": -105.080038
      },
      "endCoords": {
        "latitude": 39.72247,
        "longitude": -104.955326
      },
      "distanceMeters": 14747.9,
      "durationMs": 2932969,
      "drivingDurationMs": 2355594,
      "idlingDurationMs": 577375,
      "fuelConsumedMl": 1874,
      "fuelConsumedGallons": 0.495,
      "maxSpeedMph": 50.9,
      "averageSpeedMph": 11.2,
      "safetyEvents": []
    },
    {
      "id": "trip_44439084_20250630_001",
      "vehicleId": "44439084",
      "driverId": "20000002",
      "startMs": 1751273640000,
      "endMs": 1751287248306,
      "startAddress": "89484 Emily Prairie",
      "endAddress": "2449 Scott Pine",
      "startCoords": {
        "latitude": 39.79567,
        "longitude": -104.971941
      },
      "endCoords": {
        "latitude": 39.695726,
        "longitude": -105.05271
      },
      "distanceMeters": 78990.4,
      "durationMs": 13608307,
      "drivingDurationMs": 11333536,
      "idlingDurationMs": 2274770,
      "fuelConsumedMl": 10043,
      "fuelConsumedGallons": 2.653,
      "maxSpeedMph": 31.6,
      "averageSpeedMph": 13.0,
      "safetyEvents": []
    },
    {
      "id": "trip_44439084_20250630_002",
      "vehicleId": "44439084",
      "driverId": "20000002",
      "startMs": 1751293740000,
      "endMs": 1751307473350,
      "startAddress": "90475 Nguyen Squares Suite 203",
      "endAddress": "779 Rangel Lights Apt. 739",
      "startCoords": {
        "latitude": 39.792483,
        "longitude": -105.068667
      },
      "endCoords": {
        "latitude": 39.729055,
        "longitude": -105.04749
      },
      "distanceMeters": 70957.6,
      "durationMs": 13733351,
      "drivingDurationMs": 12419203,
      "idlingDurationMs": 1314148,
      "fuelConsumedMl": 9021,
      "fuelConsumedGallons": 2.383,
      "maxSpeedMph": 33.5,
      "averageSpeedMph": 11.6,
      "safetyEvents": []
    },
    {
      "id": "trip_44439084_20250630_003",
      "vehicleId": "44439084",
      "driverId": "20000002",
      "startMs": 1751272560000,
      "endMs": 1751280467465,
      "startAddress": "2845 Penny Walks Apt. 026",
      "endAddress": "803 Erica Prairie Apt. 828",
      "startCoords": {
        "latitude": 39.809958,
        "longitude": -104.998516
      },
      "endCoords": {
        "latitude": 39.719959,
        "longitude": -104.96322
      },
      "distanceMeters": 49204.6,
      "durationMs": 7907466,
      "drivingDurationMs": 6371237,
      "idlingDurationMs": 1536229,
      "fuelConsumedMl": 6257,
      "fuelConsumedGallons": 1.653,
      "maxSpeedMph": 36.6,
      "averageSpeedMph": 13.9,
      "safetyEvents": []
    },
    {
      "id": "trip_44439084_20250630_004",
      "vehicleId": "44439084",
      "driverId": "20000002",
      "startMs": 1751282760000,
      "endMs": 1751297853342,
      "startAddress": "6139 Tiffany Gardens",
      "endAddress": "3805 Sanchez Parks",
      "startCoords": {
        "latitude": 39.727893,
        "longitude": -104.997179
      },
      "endCoords": {
        "latitude": 39.726949,
        "longitude": -105.048314
      },
      "distanceMeters": 83402.5,
      "durationMs": 15093343,
      "drivingDurationMs": 12132804,
      "idlingDurationMs": 2960539,
      "fuelConsumedMl": 10603,
      "fuelConsumedGallons": 2.801,
      "maxSpeedMph": 66.2,
      "averageSpeedMph": 12.4,
      "safetyEvents": [
        {
          "type": "speeding",
          "startMs": 1751283000000,
          "maxSpeedMph": 66.2
        }
      ]
    }
  ]
}