{
  "vehicleId": "44439084",
  "vehicleName": "DEN-VAN-01",
  "month": "2025_06",
  "pagination": {
    "endCursor": "trip_44439084_20250630_25655",
    "hasNextPage": false
  },
  "trips": [
    {
      "id": "trip_44439084_20250601_21590",
      "vehicleId": "44439084",
      "driverId": "20000002",
      "startMs": 1748750467000,
      "endMs": 1748753254000,
      "startAddress": "5084 Daniel Road Apt. 907",
      "endAddress": "502 Allison Landing",
      "startCoords": {
        "latitude": 39.818266,
        "longitude": -104.977464
      },
      "endCoords": {
        "latitude": 39.685713,
        "longitude": -105.068311
      },
      "distanceMeters": 12780.2,
      "durationMs": 2787000,
      "drivingDurationMs": 2236503,
      "idlingDurationMs": 550497,
      "fuelConsumedMl": 1624,
      "fuelConsumedGallons": 0.429,
      "maxSpeedMph": 32.7,
      "averageSpeedMph": 10.3,
      "safetyEvents": []
    },
    {
      "id": "trip_44439084_20250601_21618",
      "vehicleId": "44439084",
      "driverId": "20000012",
      "startMs": 1748774875000,
      "endMs": 1748777335000,
      "startAddress": "69198 John Vista",
      "endAddress": "6461 Bell Port Apt. 607",
      "startCoords": {
        "latitude": 39.737932,
        "longitude": -104.94759
      },
      "endCoords": {
        "latitude": 39.756258,
        "longitude": -105.014761
      },
      "distanceMeters": 13645.6,
      "durationMs": 2460000,
      "drivingDurationMs": 2062605,
      "idlingDurationMs": 397395,
      "fuelConsumedMl": 1734,
      "fuelConsumedGallons": 0.458,
      "maxSpeedMph": 38.5,
      "averageSpeedMph": 12.4,
      "safetyEvents": []
    },
    {
      "id": "trip_44439084_20250601_21649",
      "vehicleId": "44439084",
      "driverId": "20000021",
      "startMs": 1748799066000,
      "endMs": 1748801466000,
      "startAddress": "340 Hall Summit Apt. 654",
      "endAddress": "05846 Stevens Dale",
      "startCoords": {
        "latitude": 39.729497,
        "longitude": -104.951044
      },
      "endCoords": {
        "latitude": 39.792794,
        "longitude": -105.022605
      },
      "distanceMeters": 11093.3,
      "durationMs": 2400000,
      "drivingDurationMs": 1806950,
      "idlingDurationMs": 593050,
      "fuelConsumedMl": 1412,
      "fuelConsumedGallons": 0.373,
      "maxSpeedMph": 26.8,
      "averageSpeedMph": 10.3,
      "safetyEvents": []
    },
    {
      "id": "trip_44439084_20250602_21677",
      "vehicleId": "44439084",
      "driverId": "20000020",
      "startMs": 1748825805000,
      "endMs": 1748827485000,
      "startAddress": "49335 Donald Curve Apt. 694",
      "endAddress": "8239 Carney Mall Apt. 908",
      "startCoords": {
        "latitude": 39.783594,
        "longitude": -104.941441
      },
      "endCoords": {
        "latitude": 39.827538,
        "longitude": -105.013814
      },
      "distanceMeters": 7240.0,
      "durationMs": 1680000,
      "drivingDurationMs": 1264192,
      "idlingDurationMs": 415808,
      "fuelConsumedMl": 920,
      "fuelConsumedGallons": 0.243,
      "maxSpeedMph": 29.1,
      "averageSpeedMph": 9.6,
      "safetyEvents": []
    },
    {
      "id": "trip_44439084_20250602_21711",
      "vehicleId": "44439084",
      "driverId": "20000001",
      "startMs": 1748858371000,
      "endMs": 1748861671000,
      "startAddress": "498 Brown Island",
      "endAddress": "875 Harper Ports Suite 631",
      "startCoords": {
        "latitude": 39.818167,
        "longitude": -104.960177
      },
      "endCoords": {
        "latitude": 39.781491,
        "longitude": -104.965106
      },
      "distanceMeters": 20003.6,
      "durationMs": 3300000,
      "drivingDurationMs": 2695330,
      "idlingDurationMs": 604670,
      "fuelConsumedMl": 2544,
      "fuelConsumedGallons": 0.672,
      "maxSpeedMph": 37.4,
      "averageSpeedMph": 13.6,
      "safetyEvents": []
    },
    {
      "id": "trip_44439084_20250602_21737",
      "vehicleId": "44439084",
      "driverId": "20000013",
      "startMs": 1748873262000,
      "endMs": 1748877721000,
      "startAddress": "727 Ariana Street Suite 958",
      "endAddress": "7060 Meyers Forge",
      "startCoords": {
        "latitude": 39.721979,
        "longitude": -104.914647
      },
      "endCoords": {
        "latitude": 39.770704,
        "longitude": -104.940111
      },
      "distanceMeters": 28505.2,
      "durationMs": 4459000,
      "drivingDurationMs": 3715402,
      "idlingDurationMs": 743598,
      "fuelConsumedMl": 3623,
      "fuelConsumedGallons": 0.957,
      "maxSpeedMph": 29.2,
      "averageSpeedMph": 14.3,
      "safetyEvents": []
    },
    {
      "id": "trip_44439084_20250602_21767",
      "vehicleId": "44439084",
      "driverId": "20000009",
      "startMs": 1748886157000,
      "endMs": 1748891213000,
      "startAddress": "3622 Wheeler Lodge",
      "endAddress": "1346 Davis Rue Apt. 349",
      "startCoords": {
        "latitude": 39.818228,
        "longitude": -104.996009
      },
      "endCoords": {
        "latitude": 39.792451,
        "longitude": -104.965194
      },
      "distanceMeters": 32653.9,
      "durationMs": 5056000,
      "drivingDurationMs": 4092807,
      "idlingDurationMs": 963193,
      "fuelConsumedMl": 4153,
      "fuelConsumedGallons": 1.097,
      "maxSpeedMph": 28.3,
      "averageSpeedMph": 14.4,
      "safetyEvents": []
    },
    {
      "id": "trip_44439084_20250602_21796",
      "vehicleId": "44439084",
      "driverId": "20000017",
      "startMs": 1748905613000,
      "endMs": 1748907473000,
      "startAddress": "00846 Jordan Bypass",
      "endAddress": "33594 Campbell Locks",
      "startCoords": {
        "latitude": 39.722042,
        "longitude": -104.9314
      },
      "endCoords": {
        "latitude": 39.78199,
        "longitude": -104.955096
      },
      "distanceMeters": 8865.4,
      "durationMs": 1860000,
      "drivingDurationMs": 1586388,
      "idlingDurationMs": 273612,
      "fuelConsumedMl": 1128,
      "fuelConsumedGallons": 0.298,
      "maxSpeedMph": 38.2,
      "averageSpeedMph": 10.7,
      "safetyEvents": []
    },
    {
      "id": "trip_44439084_20250603_21825",
      "vehicleId": "44439084",
      "driverId": "20000012",
      "startMs": 1748924266000,
      "endMs": 1748926546000,
      "startAddress": "66220 Avery Dale",
      "endAddress": "4213 Larsen Rapid Apt. 586",
      "startCoords": {
        "latitude": 39.720377,
        "longitude": -104.903584
      },
      "endCoords": {
        "latitude": 39.714404,
        "longitude": -104.973554
      },
      "distanceMeters": 11487.5,
      "durationMs": 2280000,
      "drivingDurationMs": 1770332,
      "idlingDurationMs": 509668,
      "fuelConsumedMl": 1461,
      "fuelConsumedGallons": 0.386,
      "maxSpeedMph": 26.6,
      "averageSpeedMph": 11.3,
      "safetyEvents": []
    },
    {
      "id": "trip_44439084_20250603_21854",
      "vehicleId": "44439084",
      "driverId": "20000021",
      "startMs": 1748939897000,
      "endMs": 1748963735000,
      "startAddress": "7439 Anderson Corners",
      "endAddress": "910 Jones Trail Apt. 919",
      "startCoords": {
        "latitude": 39.761388,
        "longitude": -104.934648
      },
      "endCoords": {
        "latitude": 39.717507,
        "longitude": -105.083084
      },
      "distanceMeters": 147150.1,
      "durationMs": 23838000,
      "drivingDurationMs": 17883368,
      "idlingDurationMs": 5954632,
      "fuelConsumedMl": 18707,
      "fuelConsumedGallons": 4.942,
      "maxSpeedMph": 28.7,
      "averageSpeedMph": 13.8,
      "safetyEvents": []
    },
    {
      "id": "trip_44439084_20250603_21896",
      "vehicleId": "44439084",
      "driverId": "20000020",
      "startMs": 1748964000000,
      "endMs": 1748965740000,
      "startAddress": "472 Christopher Roads",
      "endAddress": "29242 Murray Oval Apt. 087",
      "startCoords": {
        "latitude": 39.711942,
        "longitude": -105.074311
      },
      "endCoords": {
        "latitude": 39.753292,
        "longitude": -104.90029
      },
      "distanceMeters": 9510.2,
      "durationMs": 1740000,
      "drivingDurationMs": 1355028,
      "idlingDurationMs": 384972,
      "fuelConsumedMl": 1208,
      "fuelConsumedGallons": 0.319,
      "maxSpeedMph": 35.3,
      "averageSpeedMph": 12.2,
      "safetyEvents": []
    },
    {
      "id": "trip_44439084_20250603_21931",
      "vehicleId": "44439084",
      "driverId": "20000011",
      "startMs": 1748984152000,
      "endMs": 1748986432000,
      "startAddress": "5430 Soto Road Apt. 627",
      "endAddress": "539 Danielle Drives Suite 168",
      "startCoords": {
        "latitude": 39.733788,
        "longitude": -105.022366
      },
      "endCoords": {
        "latitude": 39.720113,
        "longitude": -105.028873
      },
      "distanceMeters": 11506.3,
      "durationMs": 2280000,
      "drivingDurationMs": 1903257,
      "idlingDurationMs": 376743,
      "fuelConsumedMl": 1461,
      "fuelConsumedGallons": 0.386,
      "maxSpeedMph": 36.8,
      "averageSpeedMph": 11.3,
      "safetyEvents": []
    },
    {
      "id": "trip_44439084_20250604_21963",
      "vehicleId": "44439084",
      "driverId": "20000009",
      "startMs": 1749000706000,
      "endMs": 1749003988000,
      "startAddress": "00521 Victor Walk",
      "endAddress": "183 King Point",
      "startCoords": {
        "latitude": 39.73893,
        "longitude": -104.920089
      },
      "endCoords": {
        "latitude": 39.767957,
        "longitude": -104.942508
      },
      "distanceMeters": 16807.6,
      "durationMs": 3282000,
      "drivingDurationMs": 2626033,
      "idlingDurationMs": 655967,
      "fuelConsumedMl": 2139,
      "fuelConsumedGallons": 0.565,
      "maxSpeedMph": 29.4,
      "averageSpeedMph": 11.5,
      "safetyEvents": []
    },
    {
      "id": "trip_44439084_20250604_21994",
      "vehicleId": "44439084",
      "driverId": "20000010",
      "startMs": 1749024126000,
      "endMs": 1749025506000,
      "startAddress": "237 King Trail Apt. 056",
      "endAddress": "694 Kim Passage Apt. 156",
      "startCoords": {
        "latitude": 39.776026,
        "longitude": -105.076592
      },
      "endCoords": {
        "latitude": 39.807161,
        "longitude": -104.971253
      },
      "distanceMeters": 6231.2,
      "durationMs": 1380000,
      "drivingDurationMs": 1038343,
      "idlingDurationMs": 341657,
      "fuelConsumedMl": 791,
      "fuelConsumedGallons": 0.209,
      "maxSpeedMph": 26.9,
      "averageSpeedMph": 10.1,
      "safetyEvents": []
    },
    {
      "id": "trip_44439084_20250604_22024",
      "vehicleId": "44439084",
      "driverId": "20000008",
      "startMs": 1749036723000,
      "endMs": 1749038223000,
      "startAddress": "31321 Robinson Mews",
      "endAddress": "37154 Margaret Glen",
      "startCoords": {
        "latitude": 39.776086,
        "longitude": -105.066555
      },
      "endCoords": {
        "latitude": 39.693923,
        "longitude": -105.065962
      },
      "distanceMeters": 7697.0,
      "durationMs": 1500000,
      "drivingDurationMs": 1246736,
      "idlingDurationMs": 253264,
      "fuelConsumedMl": 980,
      "fuelConsumedGallons": 0.259,
      "maxSpeedMph": 26.0,
      "averageSpeedMph": 11.5,
      "safetyEvents": []
    },
    {
      "id": "trip_44439084_20250604_22051",
      "vehicleId": "44439084",
      "driverId": "20000015",
      "startMs": 1749051321000,
      "endMs": 1749053301000,
      "startAddress": "144 Mays Parkway Suite 035",
      "endAddress": "729 Matthew Park Apt. 281",
      "startCoords": {
        "latitude": 39.807652,
        "longitude": -105.060695
      },
      "endCoords": {
        "latitude": 39.717197,
        "longitude": -105.02004
      },
      "distanceMeters": 12951.0,
      "durationMs": 1980000,
      "drivingDurationMs": 1507202,
      "idlingDurationMs": 472798,
      "fuelConsumedMl": 1647,
      "fuelConsumedGallons": 0.435,
      "maxSpeedMph": 39.3,
      "averageSpeedMph": 14.6,
      "safetyEvents": []
    },
    {
      "id": "trip_44439084_20250604_22081",
      "vehicleId": "44439084",
      "driverId": "20000012",
      "startMs": 1749065914000,
      "endMs": 1749078696000,
      "startAddress": "40628 Alyssa Glens",
      "endAddress": "87451 Lawson Shores Apt. 798",
      "startCoords": {
        "latitude": 39.711095,
        "longitude": -105.017983
      },
      "endCoords": {
        "latitude": 39.688866,
        "longitude": -104.922224
      },
      "distanceMeters": 75346.0,
      "durationMs": 12782000,
      "drivingDurationMs": 10635666,
      "idlingDurationMs": 2146334,
      "fuelConsumedMl": 9581,
      "fuelConsumedGallons": 2.531,
      "maxSpeedMph": 39.4,
      "averageSpeedMph": 13.2,
      "safetyEvents": []
    },
    {
      "id": "trip_44439084_20250605_22107",
      "vehicleId": "44439084",
      "driverId": "20000018",
      "startMs": 1749083334000,
      "endMs": 1749098072000,
      "startAddress": "75980 Daniel Hollow",
      "endAddress": "787 Tammy Shoals Apt. 449",
      "startCoords": {
        "latitude": 39.82427,
        "longitude": -104.97383
      },
      "endCoords": {
        "latitude": 39.768518,
        "longitude": -105.002241
      },
      "distanceMeters": 72601.7,
      "durationMs": 14738000,
      "drivingDurationMs": 11148327,
      "idlingDurationMs": 3589673,
      "fuelConsumedMl": 9233,
      "fuelConsumedGallons": 2.439,
      "maxSpeedMph": 36.2,
      "averageSpeedMph": 11.0,
      "safetyEvents": []
    },
    {
      "id": "trip_44439084_20250605_22134",
      "vehicleId": "44439084",
      "driverId": "20000010",
      "startMs": 1749106810000,
      "endMs": 1749109390000,
      "startAddress": "1426 Wilkerson Villages",
      "endAddress": "353 Susan Walk Apt. 366",
      "startCoords": {
        "latitude": 39.701082,
        "longitude": -104.916091
      },
      "endCoords": {
        "latitude": 39.722649,
        "longitude": -105.015778
      },
      "distanceMeters": 16736.2,
      "durationMs": 2580000,
      "drivingDurationMs": 2012542,
      "idlingDurationMs": 567458,
      "fuelConsumedMl": 2127,
      "fuelConsumedGallons": 0.562,
      "maxSpeedMph": 30.9,
      "averageSpeedMph": 14.5,
      "safetyEvents": []
    },
    {
      "id": "trip_44439084_20250605_22164",
      "vehicleId": "44439084",
      "driverId": "20000020",
      "startMs": 1749121466000,
      "endMs": 1749132802000,
      "startAddress": "406 Kelly Port Apt. 790",
      "endAddress": "70125 Michael Lake",
      "startCoords": {
        "latitude": 39.812674,
        "longitude": -105.083978
      },
      "endCoords": {
        "latitude": 39.813201,
        "longitude": -105.056808
      },
      "distanceMeters": 75165.8,
      "durationMs": 11336000,
      "drivingDurationMs": 9854292,
      "idlingDurationMs": 1481708,
      "fuelConsumedMl": 9558,
      "fuelConsumedGallons": 2.525,
      "maxSpeedMph": 26.1,
      "averageSpeedMph": 14.8,
      "safetyEvents": []
    },
    {
      "id": "trip_44439084_20250605_22193",
      "vehicleId": "44439084",
      "driverId": "20000010",
      "startMs": 1749135201000,
      "endMs": 1749137537000,
      "startAddress": "609 Andrews Point",
      "endAddress": "5167 Kayla Avenue",
      "startCoords": {
        "latitude": 39.713224,
        "longitude": -104.927392
      },
      "endCoords": {
        "latitude": 39.70429,
        "longitude": -104.981618
      },
      "distanceMeters": 12454.8,
      "durationMs": 2336000,
      "drivingDurationMs": 2085657,
      "idlingDurationMs": 250343,
      "fuelConsumedMl": 1582,
      "fuelConsumedGallons": 0.418,
      "maxSpeedMph": 34.3,
      "averageSpeedMph": 11.9,
      "safetyEvents": []
    },
    {
      "id": "trip_44439084_20250605_22225",
      "vehicleId": "44439084",
      "driverId": "20000021",
      "startMs": 1749153277000,
      "endMs": 1749160224000,
      "startAddress": "825 Sandra Wells",
      "endAddress": "34974 Elizabeth Road",
      "startCoords": {
        "latitude": 39.756536,
        "longitude": -105.023194
      },
      "endCoords": {
        "latitude": 39.745129,
        "longitude": -104.997362
      },
      "distanceMeters": 49420.6,
      "durationMs": 6947000,
      "drivingDurationMs": 5643087,
      "idlingDurationMs": 1303913,
      "fuelConsumedMl": 6284,
      "fuelConsumedGallons": 1.66,
      "maxSpeedMph": 27.7,
      "averageSpeedMph": 15.9,
      "safetyEvents": []
    },
    {
      "id": "trip_44439084_20250606_22254",
      "vehicleId": "44439084",
      "driverId": "20000012",
      "startMs": 1749170716000,
      "endMs": 1749172816000,
      "startAddress": "853 Krista Crossing Suite 155",
      "endAddress": "8624 Danielle Plains Suite 714",
      "startCoords": {
        "latitude": 39.779998,
        "longitude": -104.994564
      },
      "endCoords": {
        "latitude": 39.757393,
        "longitude": -105.029978
      },
      "distanceMeters": 14004.4,
      "durationMs": 2100000,
      "drivingDurationMs": 1888374,
      "idlingDurationMs": 211626,
      "fuelConsumedMl": 1779,
      "fuelConsumedGallons": 0.47,
      "maxSpeedMph": 31.7,
      "averageSpeedMph": 14.9,
      "safetyEvents": []
    },
    {
      "id": "trip_44439084_20250606_22284",
      "vehicleId": "44439084",
      "driverId": "20000021",
      "startMs": 1749194699000,
      "endMs": 1749202568000,
      "startAddress": "491 Miller Hollow Suite 693",
      "endAddress": "55841 Alexis Circle Suite 003",
      "startCoords": {
        "latitude": 39.730629,
        "longitude": -105.05585
      },
      "endCoords": {
        "latitude": 39.704891,
        "longitude": -104.956094
      },
      "distanceMeters": 32085.6,
      "durationMs": 7869000,
      "drivingDurationMs": 6124577,
      "idlingDurationMs": 1744423,
      "fuelConsumedMl": 4081,
      "fuelConsumedGallons": 1.078,
      "maxSpeedMph": 30.9,
      "averageSpeedMph": 9.1,
      "safetyEvents": []
    },
    {
      "id": "trip_44439084_20250606_22312",
      "vehicleId": "44439084",
      "driverId": "20000001",
      "startMs": 1749211877000,
      "endMs": 1749217658000,
      "startAddress": "407 Wilson Summit Suite 074",
      "endAddress": "571 Kimberly Harbor",
      "startCoords": {
        "latitude": 39.827786,
        "longitude": -104.919413
      },
      "endCoords": {
        "latitude": 39.707958,
        "longitude": -105.042954
      },
      "distanceMeters": 34475.5,
      "durationMs": 5781000,
      "drivingDurationMs": 5166245,
      "idlingDurationMs": 614755,
      "fuelConsumedMl": 4384,
      "fuelConsumedGallons": 1.158,
      "maxSpeedMph": 34.7,
      "averageSpeedMph": 13.3,
      "safetyEvents": []
    },
    {
      "id": "trip_44439084_20250606_22341",
      "vehicleId": "44439084",
      "driverId": "20000001",
      "startMs": 1749223354000,
      "endMs": 1749233724000,
      "startAddress": "608 Williams Landing Apt. 145",
      "endAddress": "343 April Motorway",
      "startCoords": {
        "latitude": 39.713983,
        "longitude": -105.060212
      },
      "endCoords": {
        "latitude": 39.779644,
        "longitude": -105.026542
      },
      "distanceMeters": 55822.4,
      "durationMs": 10370000,
      "drivingDurationMs": 9100031,
      "idlingDurationMs": 1269969,
      "fuelConsumedMl": 7098,
      "fuelConsumedGallons": 1.875,
      "maxSpeedMph": 31.3,
      "averageSpeedMph": 12.0,
      "safetyEvents": []
    },
    {
      "id": "trip_44439084_20250606_22371",
      "vehicleId": "44439084",
      "driverId": "20000002",
      "startMs": 1749240017000,
      "endMs": 1749245267000,
      "startAddress": "2635 Kristen Mountains",
      "endAddress": "90069 Wendy Burgs Suite 366",
      "startCoords": {
        "latitude": 39.778923,
        "longitude": -104.900939
      },
      "endCoords": {
        "latitude": 39.760276,
        "longitude": -104.961697
      },
      "distanceMeters": 34429.1,
      "durationMs": 5250000,
      "drivingDurationMs": 4345722,
      "idlingDurationMs": 904278,
      "fuelConsumedMl": 4376,
      "fuelConsumedGallons": 1.156,
      "maxSpeedMph": 26.3,
      "averageSpeedMph": 14.7,
      "safetyEvents": []
    },
    {
      "id": "trip_44439084_20250607_22398",
      "vehicleId": "44439084",
      "driverId": "20000004",
      "startMs": 1749255574000,
      "endMs": 1749266581000,
      "startAddress": "179 Green Rapid",
      "endAddress": "4295 Jonathan Dam Apt. 090",
      "startCoords": {
        "latitude": 39.699677,
        "longitude": -105.006974
      },
      "endCoords": {
        "latitude": 39.816274,
        "longitude": -105.042392
      },
      "distanceMeters": 56055.8,
      "durationMs": 11007000,
      "drivingDurationMs": 8783386,
      "idlingDurationMs": 2223614,
      "fuelConsumedMl": 7128,
      "fuelConsumedGallons": 1.883,
      "maxSpeedMph": 38.9,
      "averageSpeedMph": 11.4,
      "safetyEvents": []
    },
    {
      "id": "trip_44439084_20250607_22427",
      "vehicleId": "44439084",
      "driverId": "20000021",
      "startMs": 1749272413000,
      "endMs": 1749274153000,
      "startAddress": "338 Nicholas Highway",
      "endAddress": "5670 Gonzalez Park Apt. 542",
      "startCoords": {
        "latitude": 39.766843,
        "longitude": -105.036318
      },
      "endCoords": {
        "latitude": 39.812451,
        "longitude": -105.029673
      },
      "distanceMeters": 13581.1,
      "durationMs": 1740000,
      "drivingDurationMs": 1539433,
      "idlingDurationMs": 200567,
      "fuelConsumedMl": 1726,
      "fuelConsumedGallons": 0.456,
      "maxSpeedMph": 33.0,
      "averageSpeedMph": 17.5,
      "safetyEvents": []
    },
    {
      "id": "trip_44439084_20250607_22455",
      "vehicleId": "44439084",
      "driverId": "20000008",
      "startMs": 1749290415000,
      "endMs": 1749291855000,
      "startAddress": "964 Henry View Apt. 256",
      "endAddress": "3610 Taylor Course",
      "startCoords": {
        "latitude": 39.74909,
        "longitude": -104.998606
      },
      "endCoords": {
        "latitude": 39.721865,
        "longitude": -105.067375
      },
      "distanceMeters": 9585.6,
      "durationMs": 1440000,
      "drivingDurationMs": 1228701,
      "idlingDurationMs": 211299,
      "fuelConsumedMl": 1219,
      "fuelConsumedGallons": 0.322,
      "maxSpeedMph": 29.9,
      "averageSpeedMph": 14.9,
      "safetyEvents": []
    },
    {
      "id": "trip_44439084_20250607_22484",
      "vehicleId": "44439084",
      "driverId": "20000019",
      "startMs": 1749308276000,
      "endMs": 1749312398000,
      "startAddress": "2770 Devon Stravenue",
      "endAddress": "159 Haley Fords",
      "startCoords": {
        "latitude": 39.688004,
        "longitude": -104.98895
      },
      "endCoords": {
        "latitude": 39.769692,
        "longitude": -104.940682
      },
      "distanceMeters": 17076.6,
      "durationMs": 4122000,
      "drivingDurationMs": 3272619,
      "idlingDurationMs": 849381,
      "fuelConsumedMl": 2173,
      "fuelConsumedGallons": 0.574,
      "maxSpeedMph": 31.5,
      "averageSpeedMph": 9.3,
      "safetyEvents": []
    },
    {
      "id": "trip_44439084_20250607_22512",
      "vehicleId": "44439084",
      "driverId": "20000005",
      "startMs": 1749323496000,
      "endMs": 1749325116000,
      "startAddress": "8697 Hendrix Ford Suite 941",
      "endAddress": "6892 Ernest Estate",
      "startCoords": {
        "latitude": 39.719382,
        "longitude": -105.063812
      },
      "endCoords": {
        "latitude": 39.808654,
        "longitude": -104.912208
      },
      "distanceMeters": 7518.5,
      "durationMs": 1620000,
      "drivingDurationMs": 1415933,
      "idlingDurationMs": 204067,
      "fuelConsumedMl": 958,
      "fuelConsumedGallons": 0.253,
      "maxSpeedMph": 33.2,
      "averageSpeedMph": 10.4,
      "safetyEvents": []
    },
    {
      "id": "trip_44439084_20250608_22537",
      "vehicleId": "44439084",
      "driverId": "20000007",
      "startMs": 1749341878000,
      "endMs": 1749344218000,
      "startAddress": "068 John Drives Suite 332",
      "endAddress": "85948 Rachel Camp Apt. 752",
      "startCoords": {
        "latitude": 39.711456,
        "longitude": -104.941137
      },
      "endCoords": {
        "latitude": 39.799564,
        "longitude": -105.007647
      },
      "distanceMeters": 12733.5,
      "durationMs": 2340000,
      "drivingDurationMs": 2027444,
      "idlingDurationMs": 312556,
      "fuelConsumedMl": 1620,
      "fuelConsumedGallons": 0.428,
      "maxSpeedMph": 30.2,
      "averageSpeedMph": 12.2,
      "safetyEvents": []
    },
    {
      "id": "trip_44439084_20250608_22570",
      "vehicleId": "44439084",
      "driverId": "20000015",
      "startMs": 1749373303000,
      "endMs": 1749376157000,
      "startAddress": "928 Alicia Lane Suite 267",
      "endAddress": "62998 Ross Street",
      "startCoords": {
        "latitude": 39.773507,
        "longitude": -104.915554
      },
      "endCoords": {
        "latitude": 39.718475,
        "longitude": -105.044274
      },
      "distanceMeters": 15543.0,
      "durationMs": 2854000,
      "drivingDurationMs": 2333632,
      "idlingDurationMs": 520368,
      "fuelConsumedMl": 1976,
      "fuelConsumedGallons": 0.522,
      "maxSpeedMph": 32.6,
      "averageSpeedMph": 12.2,
      "safetyEvents": []
    },
    {
      "id": "trip_44439084_20250608_22594",
      "vehicleId": "44439084",
      "driverId": "20000012",
      "startMs": 1749390548000,
      "endMs": 1749393399000,
      "startAddress": "71027 Mendez Key",
      "endAddress": "73213 Christopher Point Apt. 764",
      "startCoords": {
        "latitude": 39.822725,
        "longitude": -105.052745
      },
      "endCoords": {
        "latitude": 39.776502,
        "longitude": -104.932821
      },
      "distanceMeters": 16147.0,
      "durationMs": 2851000,
      "drivingDurationMs": 2297189,
      "idlingDurationMs": 553811,
      "fuelConsumedMl": 2052,
      "fuelConsumedGallons": 0.542,
      "maxSpeedMph": 28.5,
      "averageSpeedMph": 12.7,
      "safetyEvents": []
    },
    {
      "id": "trip_44439084_20250608_22623",
      "vehicleId": "44439084",
      "driverId": "20000013",
      "startMs": 1749415115000,
      "endMs": 1749416795000,
      "startAddress": "1105 Alvarado Park Apt. 110",
      "endAddress": "3609 Michael Brooks",
      "startCoords": {
        "latitude": 39.706548,
        "longitude": -105.07983
      },
      "endCoords": {
        "latitude": 39.770504,
        "longitude": -105.065836
      },
      "distanceMeters": 9771.1,
      "durationMs": 1680000,
      "drivingDurationMs": 1318615,
      "idlingDurationMs": 361385,
      "fuelConsumedMl": 1242,
      "fuelConsumedGallons": 0.328,
      "maxSpeedMph": 38.3,
      "averageSpeedMph": 13.0,
      "safetyEvents": []
    },
    {
      "id": "trip_44439084_20250609_22659",
      "vehicleId": "44439084",
      "driverId": "20000008",
      "startMs": 1749458669000,
      "endMs": 1749463689000,
      "startAddress": "5739 Ramos Junction",
      "endAddress": "741 Douglas Ports",
      "startCoords": {
        "latitude": 39.803025,
        "longitude": -104.899808
      },
      "endCoords": {
        "latitude": 39.779875,
        "longitude": -104.956094
      },
      "distanceMeters": 23737.7,
      "durationMs": 5020000,
      "drivingDurationMs": 4317346,
      "idlingDurationMs": 702654,
      "fuelConsumedMl": 3017,
      "fuelConsumedGallons": 0.797,
      "maxSpeedMph": 34.6,
      "averageSpeedMph": 10.6,
      "safetyEvents": []
    },
    {
      "id": "trip_44439084_20250609_22689",
      "vehicleId": "44439084",
      "driverId": "20000002",
      "startMs": 1749478218000,
      "endMs": 1749511611000,
      "startAddress": "582 Diane Well Apt. 285",
      "endAddress": "0301 Marcus Junction",
      "startCoords": {
        "latitude": 39.777668,
        "longitude": -104.932001
      },
      "endCoords": {
        "latitude": 39.79534,
        "longitude": -105.025783
      },
      "distanceMeters": 197691.7,
      "durationMs": 33393000,
      "drivingDurationMs": 27462526,
      "idlingDurationMs": 5930474,
      "fuelConsumedMl": 25135,
      "fuelConsumedGallons": 6.64,
      "maxSpeedMph": 30.0,
      "averageSpeedMph": 13.2,
      "safetyEvents": []
    },
    {
      "id": "trip_44439084_20250609_22749",
      "vehicleId": "44439084",
      "driverId": "20000022",
      "startMs": 1749511611000,
      "endMs": 1749512931000,
      "startAddress": "938 Lydia Pike",
      "endAddress": "825 Jeremy Trace Suite 065",
      "startCoords": {
        "latitude": 39.716541,
        "longitude": -104.967258
      },
      "endCoords": {
        "latitude": 39.826073,
        "longitude": -105.087335
      },
      "distanceMeters": 8719.3,
      "durationMs": 1320000,
      "drivingDurationMs": 1142399,
      "idlingDurationMs": 177601,
      "fuelConsumedMl": 1109,
      "fuelConsumedGallons": 0.293,
      "maxSpeedMph": 28.3,
      "averageSpeedMph": 14.8,
      "safetyEvents": []
    },
    {
      "id": "trip_44439084_20250610_22775",
      "vehicleId": "44439084",
      "driverId": "20000013",
      "startMs": 1749527138000,
      "endMs": 1749528758000,
      "startAddress": "631 Tricia Ridges Suite 605",
      "endAddress": "5883 Reeves Island Apt. 964",
      "startCoords": {
        "latitude": 39.699759,
        "longitude": -105.012832
      },
      "endCoords": {
        "latitude": 39.716466,
        "longitude": -105.002097
      },
      "distanceMeters": 9771.0,
      "durationMs": 1620000,
      "drivingDurationMs": 1444117,
      "idlingDurationMs": 175883,
      "fuelConsumedMl": 1242,
      "fuelConsumedGallons": 0.328,
      "maxSpeedMph": 30.9,
      "averageSpeedMph": 13.5,
      "safetyEvents": []
    },
    {
      "id": "trip_44439084_20250610_22801",
      "vehicleId": "44439084",
      "driverId": "20000001",
      "startMs": 1749541926000,
      "endMs": 1749544266000,
      "startAddress": "0137 Jeanne Pines",
      "endAddress": "529 Walker Ridges Suite 140",
      "startCoords": {
        "latitude": 39.71206,
        "longitude": -105.078479
      },
      "endCoords": {
        "latitude": 39.820881,
        "longitude": -104.965872
      },
      "distanceMeters": 15502.1,
      "durationMs": 2340000,
      "drivingDurationMs": 1975917,
      "idlingDurationMs": 364083,
      "fuelConsumedMl": 1972,
      "fuelConsumedGallons": 0.521,
      "maxSpeedMph": 36.2,
      "averageSpeedMph": 14.8,
      "safetyEvents": []
    },
    {
      "id": "trip_44439084_20250610_22827",
      "vehicleId": "44439084",
      "driverId": "20000007",
      "startMs": 1749554590000,
      "endMs": 1749556390000,
      "startAddress": "86002 Hill Islands Apt. 676",
      "endAddress": "486 Shawn Forks",
      "startCoords": {
        "latitude": 39.739557,
        "longitude": -105.000917
      },
      "endCoords": {
        "latitude": 39.793697,
        "longitude": -105.013841
      },
      "distanceMeters": 12722.4,
      "durationMs": 1800000,
      "drivingDurationMs": 1472677,
      "idlingDurationMs": 327323,
      "fuelConsumedMl": 1616,
      "fuelConsumedGallons": 0.427,
      "maxSpeedMph": 27.2,
      "averageSpeedMph": 15.8,
      "safetyEvents": []
    },
    {
      "id": "trip_44439084_20250610_22858",
      "vehicleId": "44439084",
      "driverId": "20000008",
      "startMs": 1749570413000,
      "endMs": 1749580486000,
      "startAddress": "997 Martin Row",
      "endAddress": "8546 Christopher Oval",
      "startCoords": {
        "latitude": 39.747815,
        "longitude": -105.012372
      },
      "endCoords": {
        "latitude": 39.715174,
        "longitude": -104.935761
      },
      "distanceMeters": 70652.3,
      "durationMs": 10073000,
      "drivingDurationMs": 8231511,
      "idlingDurationMs": 1841489,
      "fuelConsumedMl": 8983,
      "fuelConsumedGallons": 2.373,
      "maxSpeedMph": 32.6,
      "averageSpeedMph": 15.7,
      "safetyEvents": []
    },
    {
      "id": "trip_44439084_20250610_22886",
      "vehicleId": "44439084",
      "driverId": "20000022",
      "startMs": 1749585188000,
      "endMs": 1749597043000,
      "startAddress": "88937 Martinez Path",
      "endAddress": "176 Moss Mountain Suite 567",
      "startCoords": {
        "latitude": 39.699783,
        "longitude": -104.996017
      },
      "endCoords": {
        "latitude": 39.81191,
        "longitude": -104.988963
      },
      "distanceMeters": 74266.3,
      "durationMs": 11855000,
      "drivingDurationMs": 9120602,
      "idlingDurationMs": 2734398,
      "fuelConsumedMl": 9441,
      "fuelConsumedGallons": 2.494,
      "maxSpeedMph": 26.5,
      "averageSpeedMph": 14.0,
      "safetyEvents": []
    },
    {
      "id": "trip_44439084_20250611_22917",
      "vehicleId": "44439084",
      "driverId": "20000012",
      "startMs": 1749602391000,
      "endMs": 1749604851000,
      "startAddress": "6487 Christopher Corner Suite 794",
      "endAddress": "0153 John Squares",
      "startCoords": {
        "latitude": 39.734098,
        "longitude": -104.968743
      },
      "endCoords": {
        "latitude": 39.69422,
        "longitude": -105.083932
      },
      "distanceMeters": 13589.2,
      "durationMs": 2460000,
      "drivingDurationMs": 1875785,
      "idlingDurationMs": 584215,
      "fuelConsumedMl": 1726,
      "fuelConsumedGallons": 0.456,
      "maxSpeedMph": 36.1,
      "averageSpeedMph": 12.4,
      "safetyEvents": []
    },
    {
      "id": "trip_44439084_20250611_22944",
      "vehicleId": "44439084",
      "driverId": "20000004",
      "startMs": 1749616998000,
      "endMs": 1749618678000,
      "startAddress": "784 Savage Squares Apt. 760",
      "endAddress": "7327 Holmes Ville",
      "startCoords": {
        "latitude": 39.693984,
        "longitude": -104.903485
      },
      "endCoords": {
        "latitude": 39.74178,
        "longitude": -104.963806
      },
      "distanceMeters": 7727.5,
      "durationMs": 1680000,
      "drivingDurationMs": 1382500,
      "idlingDurationMs": 297500,
      "fuelConsumedMl": 984,
      "fuelConsumedGallons": 0.26,
      "maxSpeedMph": 30.4,
      "averageSpeedMph": 10.3,
      "safetyEvents": []
    },
    {
      "id": "trip_44439084_20250611_22973",
      "vehicleId": "44439084",
      "driverId": "20000007",
      "startMs": 1749633274000,
      "endMs": 1749642252000,
      "startAddress": "038 Kimberly Trail Suite 815",
      "endAddress": "2775 Jennifer Flats",
      "startCoords": {
        "latitude": 39.811893,
        "longitude": -105.025308
      },
      "endCoords": {
        "latitude": 39.823361,
        "longitude": -104.996545
      },
      "distanceMeters": 54710.5,
      "durationMs": 8978000,
      "drivingDurationMs": 7048079,
      "idlingDurationMs": 1929921,
      "fuelConsumedMl": 6958,
      "fuelConsumedGallons": 1.838,
      "maxSpeedMph": 37.3,
      "averageSpeedMph": 13.6,
      "safetyEvents": []
    },
    {
      "id": "trip_44439084_20250611_23003",
      "vehicleId": "44439084",
      "driverId": "20000009",
      "startMs": 1749648562000,
      "endMs": 1749650542000,
      "startAddress": "61181 Mcclure Pines Apt. 683",
      "endAddress": "911 George Mall",
      "startCoords": {
        "latitude": 39.687323,
        "longitude": -105.079671
      },
      "endCoords": {
        "latitude": 39.793532,
        "longitude": -104.972496
      },
      "distanceMeters": 10039.6,
      "durationMs": 1980000,
      "drivingDurationMs": 1550097,
      "idlingDurationMs": 429903,
      "fuelConsumedMl": 1276,
      "fuelConsumedGallons": 0.337,
      "maxSpeedMph": 35.7,
      "averageSpeedMph": 11.3,
      "safetyEvents": []
    },
    {
      "id": "trip_44439084_20250611_23033",
      "vehicleId": "44439084",
      "driverId": "20000002",
      "startMs": 1749665728000,
      "endMs": 1749673485000,
      "startAddress": "2620 Jennifer Squares Suite 615",
      "endAddress": "588 Zachary Light Apt. 056",
      "startCoords": {
        "latitude": 39.824471,
        "longitude": -105.014522
      },
      "endCoords": {
        "latitude": 39.758213,
        "longitude": -105.064396
      },
      "distanceMeters": 36726.7,
      "durationMs": 7757000,
      "drivingDurationMs": 6504374,
      "idlingDurationMs": 1252626,
      "fuelConsumedMl": 4671,
      "fuelConsumedGallons": 1.234,
      "maxSpeedMph": 37.6,
      "averageSpeedMph": 10.6,
      "safetyEvents": []
    },
    {
      "id": "trip_44439084_20250611_23060",
      "vehicleId": "44439084",
      "driverId": "20000021",
      "startMs": 1749677860000,
      "endMs": 1749685236000,
      "startAddress": "486 King Ville Apt. 125",
      "endAddress": "899 Taylor Inlet",
      "startCoords": {
        "latitude": 39.741039,
        "longitude": -104.969489
      },
      "endCoords": {
        "latitude": 39.782198,
        "longitude": -104.92166
      },
      "distanceMeters": 34606.6,
      "durationMs": 7376000,
      "drivingDurationMs": 6167359,
      "idlingDurationMs": 1208641,
      "fuelConsumedMl": 4399,
      "fuelConsumedGallons": 1.162,
      "maxSpeedMph": 38.6,
      "averageSpeedMph": 10.5,
      "safetyEvents": []
    },
    {
      "id": "trip_44439084_20250612_23086",
      "vehicleId": "44439084",
      "driverId": "20000012",
      "startMs": 1749697818000,
      "endMs": 1749701401000,
      "startAddress": "3157 Campbell Trafficway Suite 350",
      "endAddress": "5901 Gibson Trafficway",
      "startCoords": {
        "latitude": 39.783699,
        "longitude": -104.97337
      },
      "endCoords": {
        "latitude": 39.720604,
        "longitude": -104.912646
      },
      "distanceMeters": 26546.4,
      "durationMs": 3583000,
      "drivingDurationMs": 3061846,
      "idlingDurationMs": 521154,
      "fuelConsumedMl": 3377,
      "fuelConsumedGallons": 0.892,
      "maxSpeedMph": 28.6,
      "averageSpeedMph": 16.6,
      "safetyEvents": []
    },
    {
      "id": "trip_44439084_20250612_23112",
      "vehicleId": "44439084",
      "driverId": "20000006",
      "startMs": 1749718043000,
      "endMs": 1749725516000,
      "startAddress": "454 Gordon Stravenue Apt. 211",
      "endAddress": "685 Porter Radial Apt. 434",
      "startCoords": {
        "latitude": 39.824437,
        "longitude": -104.96322
      },
      "endCoords": {
        "latitude": 39.805919,
        "longitude": -104.96227
      },
      "distanceMeters": 51829.5,
      "durationMs": 7473000,
      "drivingDurationMs": 6337514,
      "idlingDurationMs": 1135486,
      "fuelConsumedMl": 6590,
      "fuelConsumedGallons": 1.741,
      "maxSpeedMph": 32.6,
      "averageSpeedMph": 15.5,
      "safetyEvents": []
    },
    {
      "id": "trip_44439084_20250612_23137",
      "vehicleId": "44439084",
      "driverId": "20000001",
      "startMs": 1749728291000,
      "endMs": 1749731659000,
      "startAddress": "434 Patel Mission Apt. 977",
      "endAddress": "5351 Johnson Grove Suite 299",
      "startCoords": {
        "latitude": 39.752382,
        "longitude": -104.932495
      },
      "endCoords": {
        "latitude": 39.749197,
        "longitude": -105.065922
      },
      "distanceMeters": 16698.2,
      "durationMs": 3368000,
      "drivingDurationMs": 2917797,
      "idlingDurationMs": 450203,
      "fuelConsumedMl": 2124,
      "fuelConsumedGallons": 0.561,
      "maxSpeedMph": 28.3,
      "averageSpeedMph": 11.1,
      "safetyEvents": []
    },
    {
      "id": "trip_44439084_20250612_23172",
      "vehicleId": "44439084",
      "driverId": "20000006",
      "startMs": 1749747143000,
      "endMs": 1749753053000,
      "startAddress": "212 Joseph Branch Apt. 680",
      "endAddress": "44427 Gray Cliffs",
      "startCoords": {
        "latitude": 39.79843,
        "longitude": -104.909503
      },
      "endCoords": {
        "latitude": 39.735845,
        "longitude": -104.93621
      },
      "distanceMeters": 24145.4,
      "durationMs": 5910000,
      "drivingDurationMs": 4512408,
      "idlingDurationMs": 1397592,
      "fuelConsumedMl": 3070,
      "fuelConsumedGallons": 0.811,
      "maxSpeedMph": 27.3,
      "averageSpeedMph": 9.1,
      "safetyEvents": []
    },
    {
      "id": "trip_44439084_20250612_23202",
      "vehicleId": "44439084",
      "driverId": "20000004",
      "startMs": 1749764447000,
      "endMs": 1749766607000,
      "startAddress": "08966 Katherine Drives Suite 991",
      "endAddress": "231 Erica Trafficway",
      "startCoords": {
        "latitude": 39.794114,
        "longitude": -104.908936
      },
      "endCoords": {
        "latitude": 39.715947,
        "longitude": -105.035165
      },
      "distanceMeters": 10516.3,
      "durationMs": 2160000,
      "drivingDurationMs": 1798765,
      "idlingDurationMs": 361235,
      "fuelConsumedMl": 1336,
      "fuelConsumedGallons": 0.353,
      "maxSpeedMph": 38.5,
      "averageSpeedMph": 10.9,
      "safetyEvents": []
    },
    {
      "id": "trip_44439084_20250613_23229",
      "vehicleId": "44439084",
      "driverId": "20000006",
      "startMs": 1749781504000,
      "endMs": 1749783664000,
      "startAddress": "4148 Erin Valley Apt. 769",
      "endAddress": "246 Jones Lake",
      "startCoords": {
        "latitude": 39.751948,
        "longitude": -104.951173
      },
      "endCoords": {
        "latitude": 39.705592,
        "longitude": -105.065919
      },
      "distanceMeters": 15445.0,
      "durationMs": 2160000,
      "drivingDurationMs": 1766525,
      "idlingDurationMs": 393475,
      "fuelConsumedMl": 1965,
      "fuelConsumedGallons": 0.519,
      "maxSpeedMph": 32.3,
      "averageSpeedMph": 16.0,
      "safetyEvents": []
    },
    {
      "id": "trip_44439084_20250613_23257",
      "vehicleId": "44439084",
      "driverId": "20000018",
      "startMs": 1749798729000,
      "endMs": 1749799929000,
      "startAddress": "9958 Thompson Pass Apt. 102",
      "endAddress": "9117 Shawn Glen",
      "startCoords": {
        "latitude": 39.773753,
        "longitude": -104.950414
      },
      "endCoords": {
        "latitude": 39.686922,
        "longitude": -104.980022
      },
      "distanceMeters": 6105.3,
      "durationMs": 1200000,
      "drivingDurationMs": 950979,
      "idlingDurationMs": 249021,
      "fuelConsumedMl": 776,
      "fuelConsumedGallons": 0.205,
      "maxSpeedMph": 30.2,
      "averageSpeedMph": 11.4,
      "safetyEvents": []
    },
    {
      "id": "trip_44439084_20250613_23289",
      "vehicleId": "44439084",
      "driverId": "20000006",
      "startMs": 1749813719000,
      "endMs": 1749818756000,
      "startAddress": "1884 Samantha Island Apt. 129",
      "endAddress": "728 Jackson Wall",
      "startCoords": {
        "latitude": 39.736422,
        "longitude": -104.935899
      },
      "endCoords": {
        "latitude": 39.732616,
        "longitude": -105.01229
      },
      "distanceMeters": 28008.0,
      "durationMs": 5037000,
      "drivingDurationMs": 4035976,
      "idlingDurationMs": 1001024,
      "fuelConsumedMl": 3562,
      "fuelConsumedGallons": 0.941,
      "maxSpeedMph": 28.1,
      "averageSpeedMph": 12.4,
      "safetyEvents": []
    },
    {
      "id": "trip_44439084_20250613_23315",
      "vehicleId": "44439084",
      "driverId": "20000019",
      "startMs": 1749827214000,
      "endMs": 1749829134000,
      "startAddress": "21209 John Flat Suite 593",
      "endAddress": "905 Joseph Vista",
      "startCoords": {
        "latitude": 39.769657,
        "longitude": -104.989242
      },
      "endCoords": {
        "latitude": 39.745581,
        "longitude": -105.050402
      },
      "distanceMeters": 12982.5,
      "durationMs": 1920000,
      "drivingDurationMs": 1705540,
      "idlingDurationMs": 214460,
      "fuelConsumedMl": 1650,
      "fuelConsumedGallons": 0.436,
      "maxSpeedMph": 28.2,
      "averageSpeedMph": 15.1,
      "safetyEvents": []
    },
    {
      "id": "trip_44439084_20250613_23345",
      "vehicleId": "44439084",
      "driverId": "20000014",
      "startMs": 1749842860000,
      "endMs": 1749845199000,
      "startAddress": "56282 James Mount Suite 081",
      "endAddress": "147 Natalie Corners Suite 837",
      "startCoords": {
        "latitude": 39.731101,
        "longitude": -104.996779
      },
      "endCoords": {
        "latitude": 39.747759,
        "longitude": -105.038147
      },
      "distanceMeters": 14973.4,
      "durationMs": 2339000,
      "drivingDurationMs": 1847543,
      "idlingDurationMs": 491457,
      "fuelConsumedMl": 1904,
      "fuelConsumedGallons": 0.503,
      "maxSpeedMph": 31.2,
      "averageSpeedMph": 14.3,
      "safetyEvents": []
    },
    {
      "id": "trip_44439084_20250614_23377",
      "vehicleId": "44439084",
      "driverId": "20000015",
      "startMs": 1749860470000,
      "endMs": 1749865599000,
      "startAddress": "0170 Holmes Extension",
      "endAddress": "0447 Jennifer Glen Suite 438",
      "startCoords": {
        "latitude": 39.71265,
        "longitude": -104.93629
      },
      "endCoords": {
        "latitude": 39.697549,
        "longitude": -104.967785
      },
      "distanceMeters": 38355.0,
      "durationMs": 5129000,
      "drivingDurationMs": 4495462,
      "idlingDurationMs": 633538,
      "fuelConsumedMl": 4876,
      "fuelConsumedGallons": 1.288,
      "maxSpeedMph": 31.8,
      "averageSpeedMph": 16.7,
      "safetyEvents": []
    },
    {
      "id": "trip_44439084_20250614_23405",
      "vehicleId": "44439084",
      "driverId": "20000011",
      "startMs": 1749878470000,
      "endMs": 1749880150000,
      "startAddress": "80254 Donald Pass Suite 828",
      "endAddress": "468 Linda Key",
      "startCoords": {
        "latitude": 39.766268,
        "longitude": -104.983992
      },
      "endCoords": {
        "latitude": 39.8258,
        "longitude": -105.029892
      },
      "distanceMeters": 12779.8,
      "durationMs": 1680000,
      "drivingDurationMs": 1448754,
      "idlingDurationMs": 231246,
      "fuelConsumedMl": 1624,
      "fuelConsumedGallons": 0.429,
      "maxSpeedMph": 39.5,
      "averageSpeedMph": 17.0,
      "safetyEvents": []
    },
    {
      "id": "trip_44439084_20250614_23434",
      "vehicleId": "44439084",
      "driverId": "20000002",
      "startMs": 1749896832000,
      "endMs": 1749899860000,
      "startAddress": "2470 Nguyen Overpass",
      "endAddress": "44615 Johnson Ridge",
      "startCoords": {
        "latitude": 39.743744,
        "longitude": -104.902398
      },
      "endCoords": {
        "latitude": 39.793488,
        "longitude": -105.021874
      },
      "distanceMeters": 19450.3,
      "durationMs": 3028000,
      "drivingDurationMs": 2556523,
      "idlingDurationMs": 471477,
      "fuelConsumedMl": 2472,
      "fuelConsumedGallons": 0.653,
      "maxSpeedMph": 34.3,
      "averageSpeedMph": 14.4,
      "safetyEvents": []
    },
    {
      "id": "trip_44439084_20250614_23462",
      "vehicleId": "44439084",
      "driverId": "20000012",
      "startMs": 1749908834000,
      "endMs": 1749914419000,
      "startAddress": "839 Flowers Rapids Apt. 039",
      "endAddress": "195 Baxter Square",
      "startCoords": {
        "latitude": 39.774253,
        "longitude": -105.053316
      },
      "endCoords": {
        "latitude": 39.771349,
        "longitude": -104.990436
      },
      "distanceMeters": 42849.3,
      "durationMs": 5585000,
      "drivingDurationMs": 4939992,
      "idlingDurationMs": 645008,
      "fuelConsumedMl": 5447,
      "fuelConsumedGallons": 1.439,
      "maxSpeedMph": 37.4,
      "averageSpeedMph": 17.2,
      "safetyEvents": []
    },
    {
      "id": "trip_44439084_20250614_23492",
      "vehicleId": "44439084",
      "driverId": "20000011",
      "startMs": 1749925632000,
      "endMs": 1749928485000,
      "startAddress": "2507 Moore Locks Suite 399",
      "endAddress": "666 Andrea Inlet",
      "startCoords": {
        "latitude": 39.712933,
        "longitude": -105.051437
      },
      "endCoords": {
        "latitude": 39.714583,
        "longitude": -105.068907
      },
      "distanceMeters": 21551.7,
      "durationMs": 2853000,
      "drivingDurationMs": 2523927,
      "idlingDurationMs": 329073,
      "fuelConsumedMl": 2741,
      "fuelConsumedGallons": 0.724,
      "maxSpeedMph": 26.1,
      "averageSpeedMph": 16.9,
      "safetyEvents": []
    },
    {
      "id": "trip_44439084_20250615_23523",
      "vehicleId": "44439084",
      "driverId": "20000014",
      "startMs": 1749950781000,
      "endMs": 1749960090000,
      "startAddress": "67898 Anderson Stravenue",
      "endAddress": "310 Destiny Passage Apt. 714",
      "startCoords": {
        "latitude": 39.811531,
        "longitude": -105.028239
      },
      "endCoords": {
        "latitude": 39.732888,
        "longitude": -105.005181
      },
      "distanceMeters": 38451.7,
      "durationMs": 9309000,
      "drivingDurationMs": 7027026,
      "idlingDurationMs": 2281974,
      "fuelConsumedMl": 4891,
      "fuelConsumedGallons": 1.292,
      "maxSpeedMph": 26.6,
      "averageSpeedMph": 9.2,
      "safetyEvents": []
    },
    {
      "id": "trip_44439084_20250615_23552",
      "vehicleId": "44439084",
      "driverId": "20000009",
      "startMs": 1749975655000,
      "endMs": 1749978655000,
      "startAddress": "671 Maria Ford Apt. 806",
      "endAddress": "6994 Kathryn Plaza Apt. 026",
      "startCoords": {
        "latitude": 39.79968,
        "longitude": -105.044325
      },
      "endCoords": {
        "latitude": 39.789026,
        "longitude": -105.016391
      },
      "distanceMeters": 20122.0,
      "durationMs": 3000000,
      "drivingDurationMs": 2296292,
      "idlingDurationMs": 703708,
      "fuelConsumedMl": 2559,
      "fuelConsumedGallons": 0.676,
      "maxSpeedMph": 39.4,
      "averageSpeedMph": 15.0,
      "safetyEvents": []
    },
    {
      "id": "trip_44439084_20250615_23583",
      "vehicleId": "44439084",
      "driverId": "20000011",
      "startMs": 1749998064000,
      "endMs": 1750000044000,
      "startAddress": "2892 Hunter Point Apt. 223",
      "endAddress": "3261 Lori Turnpike",
      "startCoords": {
        "latitude": 39.703018,
        "longitude": -104.927308
      },
      "endCoords": {
        "latitude": 39.74817,
        "longitude": -104.904655
      },
      "distanceMeters": 8019.7,
      "durationMs": 1980000,
      "drivingDurationMs": 1584544,
      "idlingDurationMs": 395456,
      "fuelConsumedMl": 1018,
      "fuelConsumedGallons": 0.269,
      "maxSpeedMph": 25.9,
      "averageSpeedMph": 9.1,
      "safetyEvents": []
    },
    {
      "id": "trip_44439084_20250615_23612",
      "vehicleId": "44439084",
      "driverId": "20000014",
      "startMs": 1750016266000,
      "endMs": 1750018786000,
      "startAddress": "794 Wood Street Suite 804",
      "endAddress": "37917 Jesse Circles Apt. 847",
      "startCoords": {
        "latitude": 39.688572,
        "longitude": -105.057861
      },
      "endCoords": {
        "latitude": 39.772854,
        "longitude": -104.925474
      },
      "distanceMeters": 14322.2,
      "durationMs": 2520000,
      "drivingDurationMs": 2066174,
      "idlingDurationMs": 453826,
      "fuelConsumedMl": 1821,
      "fuelConsumedGallons": 0.481,
      "maxSpeedMph": 28.2,
      "averageSpeedMph": 12.7,
      "safetyEvents": []
    },
    {
      "id": "trip_44439084_20250616_23641",
      "vehicleId": "44439084",
      "driverId": "20000006",
      "startMs": 1750057801000,
      "endMs": 1750060807000,
      "startAddress": "392 Banks Haven",
      "endAddress": "931 Griffith Bridge Apt. 189",
      "startCoords": {
        "latitude": 39.769795,
        "longitude": -104.907246
      },
      "endCoords": {
        "latitude": 39.697047,
        "longitude": -104.961053
      },
      "distanceMeters": 15529.1,
      "durationMs": 3006000,
      "drivingDurationMs": 2335372,
      "idlingDurationMs": 670628,
      "fuelConsumedMl": 1976,
      "fuelConsumedGallons": 0.522,
      "maxSpeedMph": 33.7,
      "averageSpeedMph": 11.6,
      "safetyEvents": []
    },
    {
      "id": "trip_44439084_20250616_23672",
      "vehicleId": "44439084",
      "driverId": "20000006",
      "startMs": 1750075522000,
      "endMs": 1750083633000,
      "startAddress": "05860 Zachary Gateway",
      "endAddress": "18002 Barry Mews",
      "startCoords": {
        "latitude": 39.686343,
        "longitude": -105.038341
      },
      "endCoords": {
        "latitude": 39.754529,
        "longitude": -104.998532
      },
      "distanceMeters": 41675.8,
      "durationMs": 8111000,
      "drivingDurationMs": 6108843,
      "idlingDurationMs": 2002157,
      "fuelConsumedMl": 5300,
      "fuelConsumedGallons": 1.4,
      "maxSpeedMph": 28.9,
      "averageSpeedMph": 11.5,
      "safetyEvents": []
    },
    {
      "id": "trip_44439084_20250616_23702",
      "vehicleId": "44439084",
      "driverId": "20000021",
      "startMs": 1750089099000,
      "endMs": 1750090899000,
      "startAddress": "492 Kenneth Turnpike",
      "endAddress": "300 Daniel Groves",
      "startCoords": {
        "latitude": 39.775845,
        "longitude": -105.082063
      },
      "endCoords": {
        "latitude": 39.760373,
        "longitude": -105.019106
      },
      "distanceMeters": 10599.2,
      "durationMs": 1800000,
      "drivingDurationMs": 1494265,
      "idlingDurationMs": 305735,
      "fuelConsumedMl": 1348,
      "fuelConsumedGallons": 0.356,
      "maxSpeedMph": 34.1,
      "averageSpeedMph": 13.2,
      "safetyEvents": []
    },
    {
      "id": "trip_44439084_20250616_23727",
      "vehicleId": "44439084",
      "driverId": "20000001",
      "startMs": 1750102912000,
      "endMs": 1750104472000,
      "startAddress": "57582 Clark Drive Apt. 682",
      "endAddress": "3886 Cruz Points",
      "startCoords": {
        "latitude": 39.715854,
        "longitude": -105.053967
      },
      "endCoords": {
        "latitude": 39.827844,
        "longitude": -105.060423
      },
      "distanceMeters": 6946.3,
      "durationMs": 1560000,
      "drivingDurationMs": 1177637,
      "idlingDurationMs": 382363,
      "fuelConsumedMl": 882,
      "fuelConsumedGallons": 0.233,
      "maxSpeedMph": 30.6,
      "averageSpeedMph": 10.0,
      "safetyEvents": []
    },
    {
      "id": "trip_44439084_20250617_23759",
      "vehicleId": "44439084",
      "driverId": "20000006",
      "startMs": 1750123646000,
      "endMs": 1750138111000,
      "startAddress": "17492 Collier Parkway",
      "endAddress": "01290 Pennington Pike Suite 573",
      "startCoords": {
        "latitude": 39.694779,
        "longitude": -105.008237
      },
      "endCoords": {
        "latitude": 39.713691,
        "longitude": -105.034792
      },
      "distanceMeters": 83237.9,
      "durationMs": 14465000,
      "drivingDurationMs": 11297609,
      "idlingDurationMs": 3167391,
      "fuelConsumedMl": 10584,
      "fuelConsumedGallons": 2.796,
      "maxSpeedMph": 37.7,
      "averageSpeedMph": 12.9,
      "safetyEvents": []
    },
    {
      "id": "trip_44439084_20250617_23793",
      "vehicleId": "44439084",
      "driverId": "20000009",
      "startMs": 1750147660000,
      "endMs": 1750155913000,
      "startAddress": "0770 George Glen Apt. 221",
      "endAddress": "663 Ruben Mountain",
      "startCoords": {
        "latitude": 39.70802,
        "longitude": -105.041927
      },
      "endCoords": {
        "latitude": 39.697108,
        "longitude": -105.036531
      },
      "distanceMeters": 53631.3,
      "durationMs": 8253000,
      "drivingDurationMs": 7015160,
      "idlingDurationMs": 1237840,
      "fuelConsumedMl": 6818,
      "fuelConsumedGallons": 1.801,
      "maxSpeedMph": 36.7,
      "averageSpeedMph": 14.5,
      "safetyEvents": []
    },
    {
      "id": "trip_44439084_20250617_23825",
      "vehicleId": "44439084",
      "driverId": "20000006",
      "startMs": 1750160780000,
      "endMs": 1750162340000,
      "startAddress": "714 Brady Villages Suite 667",
      "endAddress": "33743 Simpson Mount",
      "startCoords": {
        "latitude": 39.751571,
        "longitude": -104.926819
      },
      "endCoords": {
        "latitude": 39.804593,
        "longitude": -104.976403
      },
      "distanceMeters": 7504.7,
      "durationMs": 1560000,
      "drivingDurationMs": 1236240,
      "idlingDurationMs": 323760,
      "fuelConsumedMl": 954,
      "fuelConsumedGallons": 0.252,
      "maxSpeedMph": 35.7,
      "averageSpeedMph": 10.8,
      "safetyEvents": []
    },
    {
      "id": "trip_44439084_20250617_23856",
      "vehicleId": "44439084",
      "driverId": "20000001",
      "startMs": 1750179155000,
      "endMs": 1750190354000,
      "startAddress": "296 John Curve",
      "endAddress": "8100 Harper Manor Suite 652",
      "startCoords": {
        "latitude": 39.743579,
        "longitude": -105.085674
      },
      "endCoords": {
        "latitude": 39.776015,
        "longitude": -104.961818
      },
      "distanceMeters": 60699.3,
      "durationMs": 11199000,
      "drivingDurationMs": 8474291,
      "idlingDurationMs": 2724709,
      "fuelConsumedMl": 7718,
      "fuelConsumedGallons": 2.039,
      "maxSpeedMph": 25.9,
      "averageSpeedMph": 12.1,
      "safetyEvents": []
    },
    {
      "id": "trip_44439084_20250617_23890",
      "vehicleId": "44439084",
      "driverId": "20000007",
      "startMs": 1750191457000,
      "endMs": 1750193917000,
      "startAddress": "166 David Road",
      "endAddress": "8120 Michele Streets Suite 508",
      "startCoords": {
        "latitude": 39.763545,
        "longitude": -105.039438
      },
      "endCoords": {
        "latitude": 39.819663,
        "longitude": -105.074652
      },
      "distanceMeters": 13288.6,
      "durationMs": 2460000,
      "drivingDurationMs": 2091875,
      "idlingDurationMs": 368125,
      "fuelConsumedMl": 1688,
      "fuelConsumedGallons": 0.446,
      "maxSpeedMph": 39.1,
      "averageSpeedMph": 12.1,
      "safetyEvents": []
    },
    {
      "id": "trip_44439084_20250618_23917",
      "vehicleId": "44439084",
      "driverId": "20000006",
      "startMs": 1750210711000,
      "endMs": 1750212931000,
      "startAddress": "561 Amber Plains Apt. 810",
      "endAddress": "816 Richmond Radial Apt. 546",
      "startCoords": {
        "latitude": 39.728362,
        "longitude": -104.926771
      },
      "endCoords": {
        "latitude": 39.743698,
        "longitude": -104.92072
      },
      "distanceMeters": 9681.9,
      "durationMs": 2220000,
      "drivingDurationMs": 1905077,
      "idlingDurationMs": 314923,
      "fuelConsumedMl": 1230,
      "fuelConsumedGallons": 0.325,
      "maxSpeedMph": 27.6,
      "averageSpeedMph": 9.8,
      "safetyEvents": []
    },
    {
      "id": "trip_44439084_20250618_23952",
      "vehicleId": "44439084",
      "driverId": "20000005",
      "startMs": 1750233219000,
      "endMs": 1750234599000,
      "startAddress": "3600 Lauren Knoll",
      "endAddress": "4044 Christian Gardens",
      "startCoords": {
        "latitude": 39.736203,
        "longitude": -104.999497
      },
      "endCoords": {
        "latitude": 39.714468,
        "longitude": -104.909083
      },
      "distanceMeters": 6510.0,
      "durationMs": 1380000,
      "drivingDurationMs": 1142296,
      "idlingDurationMs": 237704,
      "fuelConsumedMl": 829,
      "fuelConsumedGallons": 0.219,
      "maxSpeedMph": 36.1,
      "averageSpeedMph": 10.6,
      "safetyEvents": []
    },
    {
      "id": "trip_44439084_20250618_23979",
      "vehicleId": "44439084",
      "driverId": "20000006",
      "startMs": 1750247078000,
      "endMs": 1750265216000,
      "startAddress": "6995 Patton Rue Apt. 229",
      "endAddress": "29608 Robert Views Suite 199",
      "startCoords": {
        "latitude": 39.793585,
        "longitude": -104.910632
      },
      "endCoords": {
        "latitude": 39.818972,
        "longitude": -104.978769
      },
      "distanceMeters": 112291.3,
      "durationMs": 18138000,
      "drivingDurationMs": 16290820,
      "idlingDurationMs": 1847180,
      "fuelConsumedMl": 14279,
      "fuelConsumedGallons": 3.772,
      "maxSpeedMph": 29.3,
      "averageSpeedMph": 13.8,
      "safetyEvents": []
    },
    {
      "id": "trip_44439084_20250618_24014",
      "vehicleId": "44439084",
      "driverId": "20000002",
      "startMs": 1750265852000,
      "endMs": 1750268252000,
      "startAddress": "1162 Guerrero Greens",
      "endAddress": "567 Sharon Knoll Suite 563",
      "startCoords": {
        "latitude": 39.822601,
        "longitude": -104.994855
      },
      "endCoords": {
        "latitude": 39.798273,
        "longitude": -104.980602
      },
      "distanceMeters": 14711.1,
      "durationMs": 2400000,
      "drivingDurationMs": 2127682,
      "idlingDurationMs": 272318,
      "fuelConsumedMl": 1870,
      "fuelConsumedGallons": 0.494,
      "maxSpeedMph": 27.2,
      "averageSpeedMph": 13.7,
      "safetyEvents": []
    },
    {
      "id": "trip_44439084_20250618_24041",
      "vehicleId": "44439084",
      "driverId": "20000012",
      "startMs": 1750280681000,
      "endMs": 1750282181000,
      "startAddress": "093 Cheryl Terrace Apt. 822",
      "endAddress": "5727 Tony Fords Apt. 217",
      "startCoords": {
        "latitude": 39.796766,
        "longitude": -105.043494
      },
      "endCoords": {
        "latitude": 39.819607,
        "longitude": -105.080552
      },
      "distanceMeters": 8742.8,
      "durationMs": 1500000,
      "drivingDurationMs": 1231662,
      "idlingDurationMs": 268338,
      "fuelConsumedMl": 1113,
      "fuelConsumedGallons": 0.294,
      "maxSpeedMph": 37.4,
      "averageSpeedMph": 13.0,
      "safetyEvents": []
    },
    {
      "id": "trip_44439084_20250619_24067",
      "vehicleId": "44439084",
      "driverId": "20000007",
      "startMs": 1750295698000,
      "endMs": 1750308517000,
      "startAddress": "13950 Marcus Roads Suite 584",
      "endAddress": "26435 Rich Vista",
      "startCoords": {
        "latitude": 39.751254,
        "longitude": -104.922747
      },
      "endCoords": {
        "latitude": 39.783988,
        "longitude": -105.02918
      },
      "distanceMeters": 63103.2,
      "durationMs": 12819000,
      "drivingDurationMs": 9925710,
      "idlingDurationMs": 2893290,
      "fuelConsumedMl": 8021,
      "fuelConsumedGallons": 2.119,
      "maxSpeedMph": 31.6,
      "averageSpeedMph": 11.0,
      "safetyEvents": []
    },
    {
      "id": "trip_44439084_20250619_24101",
      "vehicleId": "44439084",
      "driverId": "20000011",
      "startMs": 1750313410000,
      "endMs": 1750320731000,
      "startAddress": "44283 Norman Lodge Suite 999",
      "endAddress": "899 Elizabeth Shores Apt. 485",
      "startCoords": {
        "latitude": 39.803056,
        "longitude": -104.914342
      },
      "endCoords": {
        "latitude": 39.740843,
        "longitude": -104.914362
      },
      "distanceMeters": 41245.5,
      "durationMs": 7321000,
      "drivingDurationMs": 5595996,
      "idlingDurationMs": 1725004,
      "fuelConsumedMl": 5243,
      "fuelConsumedGallons": 1.385,
      "maxSpeedMph": 35.1,
      "averageSpeedMph": 12.6,
      "safetyEvents": []
    },
    {
      "id": "trip_44439084_20250619_24127",
      "vehicleId": "44439084",
      "driverId": "20000016",
      "startMs": 1750329709000,
      "endMs": 1750331509000,
      "startAddress": "33637 Whitney Common",
      "endAddress": "3392 Shaw Port",
      "startCoords": {
        "latitude": 39.819472,
        "longitude": -105.070995
      },
      "endCoords": {
        "latitude": 39.691847,
        "longitude": -105.027051
      },
      "distanceMeters": 9130.7,
      "durationMs": 1800000,
      "drivingDurationMs": 1565238,
      "idlingDurationMs": 234762,
      "fuelConsumedMl": 1162,
      "fuelConsumedGallons": 0.307,
      "maxSpeedMph": 28.7,
      "averageSpeedMph": 11.3,
      "safetyEvents": []
    },
    {
      "id": "trip_44439084_20250619_24159",
      "vehicleId": "44439084",
      "driverId": "20000022",
      "startMs": 1750345968000,
      "endMs": 1750347528000,
      "startAddress": "440 Rebecca Hollow",
      "endAddress": "097 Savannah Hills",
      "startCoords": {
        "latitude": 39.721823,
        "longitude": -104.989573
      },
      "endCoords": {
        "latitude": 39.746951,
        "longitude": -104.928383
      },
      "distanceMeters": 8963.8,
      "durationMs": 1560000,
      "drivingDurationMs": 1338779,
      "idlingDurationMs": 221221,
      "fuelConsumedMl": 1139,
      "fuelConsumedGallons": 0.301,
      "maxSpeedMph": 36.6,
      "averageSpeedMph": 12.9,
      "safetyEvents": []
    },
    {
      "id": "trip_44439084_20250619_24182",
      "vehicleId": "44439084",
      "driverId": "20000008",
      "startMs": 1750358041000,
      "endMs": 1750362159000,
      "startAddress": "7755 Kristopher Green",
      "endAddress": "2565 Dawn Field Suite 636",
      "startCoords": {
        "latitude": 39.703379,
        "longitude": -105.02423
      },
      "endCoords": {
        "latitude": 39.745071,
        "longitude": -105.039872
      },
      "distanceMeters": 21792.4,
      "durationMs": 4118000,
      "drivingDurationMs": 3622269,
      "idlingDurationMs": 495731,
      "fuelConsumedMl": 2771,
      "fuelConsumedGallons": 0.732,
      "maxSpeedMph": 30.1,
      "averageSpeedMph": 11.8,
      "safetyEvents": []
    },
    {
      "id": "trip_44439084_20250620_24212",
      "vehicleId": "44439084",
      "driverId": "20000007",
      "startMs": 1750380613000,
      "endMs": 1750384796000,
      "startAddress": "29301 Watson Estate",
      "endAddress": "10928 Huynh Motorway",
      "startCoords": {
        "latitude": 39.776215,
        "longitude": -105.040071
      },
      "endCoords": {
        "latitude": 39.788825,
        "longitude": -104.907726
      },
      "distanceMeters": 18692.4,
      "durationMs": 4183000,
      "drivingDurationMs": 3467551,
      "idlingDurationMs": 715449,
      "fuelConsumedMl": 2377,
      "fuelConsumedGallons": 0.628,
      "maxSpeedMph": 26.7,
      "averageSpeedMph": 10.0,
      "safetyEvents": []
    },
    {
      "id": "trip_44439084_20250620_24243",
      "vehicleId": "44439084",
      "driverId": "20000017",
      "startMs": 1750403476000,
      "endMs": 1750405336000,
      "startAddress": "921 Powers Mount Suite 932",
      "endAddress": "36865 Jones Manor Apt. 317",
      "startCoords": {
        "latitude": 39.748822,
        "longitude": -104.903105
      },
      "endCoords": {
        "latitude": 39.78796,
        "longitude": -105.077395
      },
      "distanceMeters": 10963.1,
      "durationMs": 1860000,
      "drivingDurationMs": 1562898,
      "idlingDurationMs": 297102,
      "fuelConsumedMl": 1393,
      "fuelConsumedGallons": 0.368,
      "maxSpeedMph": 37.2,
      "averageSpeedMph": 13.2,
      "safetyEvents": []
    },
    {
      "id": "trip_44439084_20250620_24273",
      "vehicleId": "44439084",
      "driverId": "20000008",
      "startMs": 1750416759000,
      "endMs": 1750418619000,
      "startAddress": "21807 Jasmine Lane Suite 470",
      "endAddress": "5230 Brown Stream",
      "startCoords": {
        "latitude": 39.726797,
        "longitude": -105.014836
      },
      "endCoords": {
        "latitude": 39.804033,
        "longitude": -104.902993
      },
      "distanceMeters": 12011.4,
      "durationMs": 1860000,
      "drivingDurationMs": 1419998,
      "idlingDurationMs": 440002,
      "fuelConsumedMl": 1526,
      "fuelConsumedGallons": 0.403,
      "maxSpeedMph": 36.5,
      "averageSpeedMph": 14.4,
      "safetyEvents": []
    },
    {
      "id": "trip_44439084_20250620_24303",
      "vehicleId": "44439084",
      "driverId": "20000006",
      "startMs": 1750431992000,
      "endMs": 1750441769000,
      "startAddress": "141 Cody Turnpike",
      "endAddress": "62090 Erica Camp Suite 176",
      "startCoords": {
        "latitude": 39.818126,
        "longitude": -104.909849
      },
      "endCoords": {
        "latitude": 39.750594,
        "longitude": -105.055583
      },
      "distanceMeters": 56195.9,
      "durationMs": 9777000,
      "drivingDurationMs": 8457438,
      "idlingDurationMs": 1319562,
      "fuelConsumedMl": 7143,
      "fuelConsumedGallons": 1.887,
      "maxSpeedMph": 38.5,
      "averageSpeedMph": 12.9,
      "safetyEvents": []
    },
    {
      "id": "trip_44439084_20250620_24336",
      "vehicleId": "44439084",
      "driverId": "20000006",
      "startMs": 1750450919000,
      "endMs": 1750462014000,
      "startAddress": "1891 Zavala Keys",
      "endAddress": "652 Brown Lock Suite 626",
      "startCoords": {
        "latitude": 39.756669,
        "longitude": -105.067054
      },
      "endCoords": {
        "latitude": 39.689583,
        "longitude": -104.989513
      },
      "distanceMeters": 50649.3,
      "durationMs": 11095000,
      "drivingDurationMs": 8332484,
      "idlingDurationMs": 2762516,
      "fuelConsumedMl": 6439,
      "fuelConsumedGallons": 1.701,
      "maxSpeedMph": 26.1,
      "averageSpeedMph": 10.2,
      "safetyEvents": []
    },
    {
      "id": "trip_44439084_20250621_24363",
      "vehicleId": "44439084",
      "driverId": "20000012",
      "startMs": 1750469541000,
      "endMs": 1750474859000,
      "startAddress": "54951 Beasley Mission Suite 211",
      "endAddress": "37323 Carpenter Track",
      "startCoords": {
        "latitude": 39.775669,
        "longitude": -105.052791
      },
      "endCoords": {
        "latitude": 39.693198,
        "longitude": -104.963594
      },
      "distanceMeters": 22037.1,
      "durationMs": 5318000,
      "drivingDurationMs": 4404349,
      "idlingDurationMs": 913651,
      "fuelConsumedMl": 2801,
      "fuelConsumedGallons": 0.74,
      "maxSpeedMph": 31.8,
      "averageSpeedMph": 9.3,
      "safetyEvents": []
    },
    {
      "id": "trip_44439084_20250621_24393",
      "vehicleId": "44439084",
      "driverId": "20000010",
      "startMs": 1750486838000,
      "endMs": 1750489058000,
      "startAddress": "019 Flowers Tunnel",
      "endAddress": "1559 Rogers Harbor Apt. 748",
      "startCoords": {
        "latitude": 39.78459,
        "longitude": -104.940914
      },
      "endCoords": {
        "latitude": 39.811812,
        "longitude": -105.084649
      },
      "distanceMeters": 11237.9,
      "durationMs": 2220000,
      "drivingDurationMs": 1981101,
      "idlingDurationMs": 238899,
      "fuelConsumedMl": 1427,
      "fuelConsumedGallons": 0.377,
      "maxSpeedMph": 30.8,
      "averageSpeedMph": 11.3,
      "safetyEvents": []
    },
    {
      "id": "trip_44439084_20250621_24420",
      "vehicleId": "44439084",
      "driverId": "20000009",
      "startMs": 1750504732000,
      "endMs": 1750506772000,
      "startAddress": "498 Eileen Extensions",
      "endAddress": "343 Hammond Falls Apt. 543",
      "startCoords": {
        "latitude": 39.826777,
        "longitude": -104.924024
      },
      "endCoords": {
        "latitude": 39.720516,
        "longitude": -104.967683
      },
      "distanceMeters": 14414.8,
      "durationMs": 2040000,
      "drivingDurationMs": 1770920,
      "idlingDurationMs": 269080,
      "fuelConsumedMl": 1832,
      "fuelConsumedGallons": 0.484,
      "maxSpeedMph": 28.6,
      "averageSpeedMph": 15.8,
      "safetyEvents": []
    },
    {
      "id": "trip_44439084_20250621_24455",
      "vehicleId": "44439084",
      "driverId": "20000012",
      "startMs": 1750521031000,
      "endMs": 1750530898000,
      "startAddress": "90871 Evans Path",
      "endAddress": "3168 Anthony Mill",
      "startCoords": {
        "latitude": 39.725465,
        "longitude": -104.99599
      },
      "endCoords": {
        "latitude": 39.773221,
        "longitude": -104.901216
      },
      "distanceMeters": 54706.5,
      "durationMs": 9867000,
      "drivingDurationMs": 8110392,
      "idlingDurationMs": 1756608,
      "fuelConsumedMl": 6954,
      "fuelConsumedGallons": 1.837,
      "maxSpeedMph": 29.9,
      "averageSpeedMph": 12.4,
      "safetyEvents": []
    },
    {
      "id": "trip_44439084_20250621_24491",
      "vehicleId": "44439084",
      "driverId": "20000007",
      "startMs": 1750542957000,
      "endMs": 1750544877000,
      "startAddress": "9667 Joshua Mission",
      "endAddress": "597 Ryan Summit",
      "startCoords": {
        "latitude": 39.787795,
        "longitude": -104.915874
      },
      "endCoords": {
        "latitude": 39.779976,
        "longitude": -105.077295
      },
      "distanceMeters": 11815.6,
      "durationMs": 1920000,
      "drivingDurationMs": 1557905,
      "idlingDurationMs": 362095,
      "fuelConsumedMl": 1503,
      "fuelConsumedGallons": 0.397,
      "maxSpeedMph": 36.6,
      "averageSpeedMph": 13.8,
      "safetyEvents": []
    },
    {
      "id": "trip_44439084_20250622_24518",
      "vehicleId": "44439084",
      "driverId": "20000021",
      "startMs": 1750569657000,
      "endMs": 1750573210000,
      "startAddress": "270 Gonzalez Radial Apt. 093",
      "endAddress": "4910 Lopez Course",
      "startCoords": {
        "latitude": 39.750191,
        "longitude": -105.054368
      },
      "endCoords": {
        "latitude": 39.702357,
        "longitude": -105.024896
      },
      "distanceMeters": 17416.3,
      "durationMs": 3553000,
      "drivingDurationMs": 2914094,
      "idlingDurationMs": 638906,
      "fuelConsumedMl": 2214,
      "fuelConsumedGallons": 0.585,
      "maxSpeedMph": 37.5,
      "averageSpeedMph": 11.0,
      "safetyEvents": []
    },
    {
      "id": "trip_44439084_20250622_24545",
      "vehicleId": "44439084",
      "driverId": "20000022",
      "startMs": 1750592697000,
      "endMs": 1750594017000,
      "startAddress": "6696 Cruz Fords Apt. 516",
      "endAddress": "178 Jacob Burg Apt. 132",
      "startCoords": {
        "latitude": 39.741793,
        "longitude": -104.900917
      },
      "endCoords": {
        "latitude": 39.821032,
        "longitude": -104.908828
      },
      "distanceMeters": 6121.5,
      "durationMs": 1320000,
      "drivingDurationMs": 1114415,
      "idlingDurationMs": 205585,
      "fuelConsumedMl": 780,
      "fuelConsumedGallons": 0.206,
      "maxSpeedMph": 32.1,
      "averageSpeedMph": 10.4,
      "safetyEvents": []
    },
    {
      "id": "trip_44439084_20250622_24575",
      "vehicleId": "44439084",
      "driverId": "20000008",
      "startMs": 1750619093000,
      "endMs": 1750621553000,
      "startAddress": "77349 Nicole Light",
      "endAddress": "80767 Olsen Pike",
      "startCoords": {
        "latitude": 39.802738,
        "longitude": -104.995727
      },
      "endCoords": {
        "latitude": 39.753072,
        "longitude": -104.937132
      },
      "distanceMeters": 18615.1,
      "durationMs": 2460000,
      "drivingDurationMs": 2162215,
      "idlingDurationMs": 297785,
      "fuelConsumedMl": 2366,
      "fuelConsumedGallons": 0.625,
      "maxSpeedMph": 31.2,
      "averageSpeedMph": 16.9,
      "safetyEvents": []
    },
    {
      "id": "trip_44439084_20250623_24605",
      "vehicleId": "44439084",
      "driverId": "20000022",
      "startMs": 1750656220000,
      "endMs": 1750658780000,
      "startAddress": "8162 Hardin Parkways Apt. 106",
      "endAddress": "5253 Taylor Mission Apt. 210",
      "startCoords": {
        "latitude": 39.697317,
        "longitude": -104.948544
      },
      "endCoords": {
        "latitude": 39.789827,
        "longitude": -105.068364
      },
      "distanceMeters": 11850.1,
      "durationMs": 2560000,
      "drivingDurationMs": 2143818,
      "idlingDurationMs": 416182,
      "fuelConsumedMl": 1507,
      "fuelConsumedGallons": 0.398,
      "maxSpeedMph": 30.3,
      "averageSpeedMph": 10.4,
      "safetyEvents": []
    },
    {
      "id": "trip_44439084_20250623_24635",
      "vehicleId": "44439084",
      "driverId": "20000018",
      "startMs": 1750676671000,
      "endMs": 1750681266000,
      "startAddress": "407 Taylor Port Apt. 032",
      "endAddress": "624 Rebecca Station",
      "startCoords": {
        "latitude": 39.740387,
        "longitude": -105.005567
      },
      "endCoords": {
        "latitude": 39.703039,
        "longitude": -104.985287
      },
      "distanceMeters": 20271.7,
      "durationMs": 4595000,
      "drivingDurationMs": 3804157,
      "idlingDurationMs": 790843,
      "fuelConsumedMl": 2578,
      "fuelConsumedGallons": 0.681,
      "maxSpeedMph": 27.6,
      "averageSpeedMph": 9.9,
      "safetyEvents": []
    },
    {
      "id": "trip_44439084_20250623_24661",
      "vehicleId": "44439084",
      "driverId": "20000015",
      "startMs": 1750689755000,
      "endMs": 1750695702000,
      "startAddress": "1541 Jennifer Prairie Apt. 113",
      "endAddress": "31502 Kristen Knolls Suite 272",
      "startCoords": {
        "latitude": 39.703216,
        "longitude": -105.042635
      },
      "endCoords": {
        "latitude": 39.817521,
        "longitude": -105.026786
      },
      "distanceMeters": 33875.1,
      "durationMs": 5947000,
      "drivingDurationMs": 4663328,
      "idlingDurationMs": 1283672,
      "fuelConsumedMl": 4308,
      "fuelConsumedGallons": 1.138,
      "maxSpeedMph": 35.6,
      "averageSpeedMph": 12.7,
      "safetyEvents": []
    },
    {
      "id": "trip_44439084_20250623_24685",
      "vehicleId": "44439084",
      "driverId": "20000015",
      "startMs": 1750705515000,
      "endMs": 1750710350000,
      "startAddress": "3112 Vargas Stravenue",
      "endAddress": "628 James Fields",
      "startCoords": {
        "latitude": 39.760014,
        "longitude": -105.087086
      },
      "endCoords": {
        "latitude": 39.811307,
        "longitude": -105.087148
      },
      "distanceMeters": 23270.0,
      "durationMs": 4835000,
      "drivingDurationMs": 3893747,
      "idlingDurationMs": 941253,
      "fuelConsumedMl": 2960,
      "fuelConsumedGallons": 0.782,
      "maxSpeedMph": 36.6,
      "averageSpeedMph": 10.8,
      "safetyEvents": []
    },
    {
      "id": "trip_44439084_20250624_24717",
      "vehicleId": "44439084",
      "driverId": "20000004",
      "startMs": 1750726371000,
      "endMs": 1750728471000,
      "startAddress": "235 Smith Haven",
      "endAddress": "18525 Aguirre Via",
      "startCoords": {
        "latitude": 39.721907,
        "longitude": -105.011894
      },
      "endCoords": {
        "latitude": 39.73416,
        "longitude": -104.935167
      },
      "distanceMeters": 15344.4,
      "durationMs": 2100000,
      "drivingDurationMs": 1809316,
      "idlingDurationMs": 290684,
      "fuelConsumedMl": 1949,
      "fuelConsumedGallons": 0.515,
      "maxSpeedMph": 37.8,
      "averageSpeedMph": 16.3,
      "safetyEvents": []
    },
    {
      "id": "trip_44439084_20250624_24750",
      "vehicleId": "44439084",
      "driverId": "20000022",
      "startMs": 1750747206000,
      "endMs": 1750756665000,
      "startAddress": "63925 Mark Loop",
      "endAddress": "029 Fisher Garden Apt. 955",
      "startCoords": {
        "latitude": 39.813389,
        "longitude": -105.049016
      },
      "endCoords": {
        "latitude": 39.727627,
        "longitude": -104.964839
      },
      "distanceMeters": 45811.5,
      "durationMs": 9459000,
      "drivingDurationMs": 7946965,
      "idlingDurationMs": 1512035,
      "fuelConsumedMl": 5826,
      "fuelConsumedGallons": 1.539,
      "maxSpeedMph": 36.3,
      "averageSpeedMph": 10.8,
      "safetyEvents": []
    },
    {
      "id": "trip_44439084_20250624_24782",
      "vehicleId": "44439084",
      "driverId": "20000018",
      "startMs": 1750763228000,
      "endMs": 1750794676000,
      "startAddress": "40704 Smith Shore",
      "endAddress": "8750 John Ville Suite 652",
      "startCoords": {
        "latitude": 39.749736,
        "longitude": -104.947313
      },
      "endCoords": {
        "latitude": 39.762264,
        "longitude": -105.04548
      },
      "distanceMeters": 150832.5,
      "durationMs": 31448000,
      "drivingDurationMs": 25238156,
      "idlingDurationMs": 6209844,
      "fuelConsumedMl": 19177,
      "fuelConsumedGallons": 5.066,
      "maxSpeedMph": 26.9,
      "averageSpeedMph": 10.7,
      "safetyEvents": []
    },
    {
      "id": "trip_44439084_20250624_24851",
      "vehicleId": "44439084",
      "driverId": "20000012",
      "startMs": 1750796487000,
      "endMs": 1750797927000,
      "startAddress": "17629 Larsen Mills Apt. 884",
      "endAddress": "86610 White Lodge",
      "startCoords": {
        "latitude": 39.740232,
        "longitude": -104.953607
      },
      "endCoords": {
        "latitude": 39.801979,
        "longitude": -105.060454
      },
      "distanceMeters": 7132.2,
      "durationMs": 1440000,
      "drivingDurationMs": 1238319,
      "idlingDurationMs": 201681,
      "fuelConsumedMl": 908,
      "fuelConsumedGallons": 0.24,
      "maxSpeedMph": 32.0,
      "averageSpeedMph": 11.1,
      "safetyEvents": []
    },
    {
      "id": "trip_44439084_20250625_24884",
      "vehicleId": "44439084",
      "driverId": "20000012",
      "startMs": 1750811342000,
      "endMs": 1750813852000,
      "startAddress": "0997 Jodi Rue Suite 641",
      "endAddress": "2355 Martin Place Apt. 803",
      "startCoords": {
        "latitude": 39.71307,
        "longitude": -104.969703
      },
      "endCoords": {
        "latitude": 39.810129,
        "longitude": -104.992692
      },
      "distanceMeters": 16220.4,
      "durationMs": 2510000,
      "drivingDurationMs": 2017636,
      "idlingDurationMs": 492364,
      "fuelConsumedMl": 2063,
      "fuelConsumedGallons": 0.545,
      "maxSpeedMph": 37.7,
      "averageSpeedMph": 14.5,
      "safetyEvents": []
    },
    {
      "id": "trip_44439084_20250625_24911",
      "vehicleId": "44439084",
      "driverId": "20000006",
      "startMs": 1750829039000,
      "endMs": 1750831079000,
      "startAddress": "7498 Evans Parkway",
      "endAddress": "1157 Reginald Lodge",
      "startCoords": {
        "latitude": 39.754411,
        "longitude": -104.900549
      },
      "endCoords": {
        "latitude": 39.801011,
        "longitude": -104.986232
      },
      "distanceMeters": 10217.6,
      "durationMs": 2040000,
      "drivingDurationMs": 1651101,
      "idlingDurationMs": 388899,
      "fuelConsumedMl": 1298,
      "fuelConsumedGallons": 0.343,
      "maxSpeedMph": 37.4,
      "averageSpeedMph": 11.2,
      "safetyEvents": []
    },
    {
      "id": "trip_44439084_20250625_24943",
      "vehicleId": "44439084",
      "driverId": "20000017",
      "startMs": 1750846196000,
      "endMs": 1750848236000,
      "startAddress": "373 Kenneth Greens Suite 001",
      "endAddress": "39942 King Falls Apt. 786",
      "startCoords": {
        "latitude": 39.770698,
        "longitude": -104.932192
      },
      "endCoords": {
        "latitude": 39.79321,
        "longitude": -104.961286
      },
      "distanceMeters": 10293.9,
      "durationMs": 2040000,
      "drivingDurationMs": 1563239,
      "idlingDurationMs": 476761,
      "fuelConsumedMl": 1310,
      "fuelConsumedGallons": 0.346,
      "maxSpeedMph": 35.3,
      "averageSpeedMph": 11.3,
      "safetyEvents": []
    },
    {
      "id": "trip_44439084_20250625_24972",
      "vehicleId": "44439084",
      "driverId": "20000015",
      "startMs": 1750861382000,
      "endMs": 1750863362000,
      "startAddress": "44101 Clayton Prairie",
      "endAddress": "612 Mata Circles",
      "startCoords": {
        "latitude": 39.807933,
        "longitude": -104.934541
      },
      "endCoords": {
        "latitude": 39.707427,
        "longitude": -105.035443
      },
      "distanceMeters": 11088.5,
      "durationMs": 1980000,
      "drivingDurationMs": 1506449,
      "idlingDurationMs": 473551,
      "fuelConsumedMl": 1408,
      "fuelConsumedGallons": 0.372,
      "maxSpeedMph": 30.1,
      "averageSpeedMph": 12.5,
      "safetyEvents": []
    },
    {
      "id": "trip_44439084_20250625_24999",
      "vehicleId": "44439084",
      "driverId": "20000021",
      "startMs": 1750873315000,
      "endMs": 1750880533000,
      "startAddress": "5595 Delgado Junctions Suite 179",
      "endAddress": "9942 Barbara Walks Apt. 196",
      "startCoords": {
        "latitude": 39.727191,
        "longitude": -105.065569
      },
      "endCoords": {
        "latitude": 39.730714,
        "longitude": -104.92962
      },
      "distanceMeters": 50832.6,
      "durationMs": 7218000,
      "drivingDurationMs": 5884842,
      "idlingDurationMs": 1333158,
      "fuelConsumedMl": 6462,
      "fuelConsumedGallons": 1.707,
      "maxSpeedMph": 32.6,
      "averageSpeedMph": 15.8,
      "safetyEvents": []
    },
    {
      "id": "trip_44439084_20250625_25031",
      "vehicleId": "44439084",
      "driverId": "20000018",
      "startMs": 1750891159000,
      "endMs": 1750897193000,
      "startAddress": "063 Robert Crossing Apt. 826",
      "endAddress": "05052 Jones Lodge Suite 547",
      "startCoords": {
        "latitude": 39.796846,
        "longitude": -104.998509
      },
      "endCoords": {
        "latitude": 39.706472,
        "longitude": -104.910826
      },
      "distanceMeters": 30617.1,
      "durationMs": 6034000,
      "drivingDurationMs": 4908695,
      "idlingDurationMs": 1125305,
      "fuelConsumedMl": 3891,
      "fuelConsumedGallons": 1.028,
      "maxSpeedMph": 35.1,
      "averageSpeedMph": 11.4,
      "safetyEvents": []
    },
    {
      "id": "trip_44439084_20250626_25059",
      "vehicleId": "44439084",
      "driverId": "20000021",
      "startMs": 1750909271000,
      "endMs": 1750911131000,
      "startAddress": "359 Tara Burgs Suite 436",
      "endAddress": "3997 Dennis Pines",
      "startCoords": {
        "latitude": 39.73111,
        "longitude": -104.989164
      },
      "endCoords": {
        "latitude": 39.687405,
        "longitude": -105.08284
      },
      "distanceMeters": 13044.8,
      "durationMs": 1860000,
      "drivingDurationMs": 1616117,
      "idlingDurationMs": 243883,
      "fuelConsumedMl": 1658,
      "fuelConsumedGallons": 0.438,
      "maxSpeedMph": 35.5,
      "averageSpeedMph": 15.7,
      "safetyEvents": []
    },
    {
      "id": "trip_44439084_20250626_25089",
      "vehicleId": "44439084",
      "driverId": "20000007",
      "startMs": 1750925743000,
      "endMs": 1750927123000,
      "startAddress": "21893 Campbell Shore",
      "endAddress": "544 Bell Divide Suite 509",
      "startCoords": {
        "latitude": 39.748718,
        "longitude": -105.046154
      },
      "endCoords": {
        "latitude": 39.684503,
        "longitude": -104.963825
      },
      "distanceMeters": 8336.1,
      "durationMs": 1380000,
      "drivingDurationMs": 1035511,
      "idlingDurationMs": 344489,
      "fuelConsumedMl": 1060,
      "fuelConsumedGallons": 0.28,
      "maxSpeedMph": 26.5,
      "averageSpeedMph": 13.5,
      "safetyEvents": []
    },
    {
      "id": "trip_44439084_20250626_25120",
      "vehicleId": "44439084",
      "driverId": "20000007",
      "startMs": 1750939982000,
      "endMs": 1750952797000,
      "startAddress": "156 Copeland Cove",
      "endAddress": "70522 Diaz Place",
      "startCoords": {
        "latitude": 39.701816,
        "longitude": -105.055171
      },
      "endCoords": {
        "latitude": 39.811678,
        "longitude": -104.942672
      },
      "distanceMeters": 59585.5,
      "durationMs": 12815000,
      "drivingDurationMs": 9891399,
      "idlingDurationMs": 2923601,
      "fuelConsumedMl": 7575,
      "fuelConsumedGallons": 2.001,
      "maxSpeedMph": 32.4,
      "averageSpeedMph": 10.4,
      "safetyEvents": []
    },
    {
      "id": "trip_44439084_20250626_25150",
      "vehicleId": "44439084",
      "driverId": "20000005",
      "startMs": 1750953381000,
      "endMs": 1750964682000,
      "startAddress": "38327 Faith Junction Apt. 102",
      "endAddress": "120 William Cape Apt. 268",
      "startCoords": {
        "latitude": 39.771488,
        "longitude": -105.082827
      },
      "endCoords": {
        "latitude": 39.771981,
        "longitude": -104.971605
      },
      "distanceMeters": 61397.8,
      "durationMs": 11301000,
      "drivingDurationMs": 8919842,
      "idlingDurationMs": 2381158,
      "fuelConsumedMl": 7806,
      "fuelConsumedGallons": 2.062,
      "maxSpeedMph": 27.9,
      "averageSpeedMph": 12.2,
      "safetyEvents": []
    },
    {
      "id": "trip_44439084_20250626_25181",
      "vehicleId": "44439084",
      "driverId": "20000019",
      "startMs": 1750969638000,
      "endMs": 1750973297000,
      "startAddress": "6815 Smith Dale",
      "endAddress": "68277 Welch Port Suite 445",
      "startCoords": {
        "latitude": 39.721845,
        "longitude": -105.079909
      },
      "endCoords": {
        "latitude": 39.708698,
        "longitude": -105.072575
      },
      "distanceMeters": 26738.2,
      "durationMs": 3659000,
      "drivingDurationMs": 3184920,
      "idlingDurationMs": 474080,
      "fuelConsumedMl": 3399,
      "fuelConsumedGallons": 0.898,
      "maxSpeedMph": 27.2,
      "averageSpeedMph": 16.3,
      "safetyEvents": []
    },
    {
      "id": "trip_44439084_20250627_25209",
      "vehicleId": "44439084",
      "driverId": "20000006",
      "startMs": 1750989589000,
      "endMs": 1750990909000,
      "startAddress": "22912 Arthur Hill Apt. 804",
      "endAddress": "0224 Wilson Freeway Suite 091",
      "startCoords": {
        "latitude": 39.789143,
        "longitude": -104.922509
      },
      "endCoords": {
        "latitude": 39.775573,
        "longitude": -105.048832
      },
      "distanceMeters": 5951.1,
      "durationMs": 1320000,
      "drivingDurationMs": 1085173,
      "idlingDurationMs": 234827,
      "fuelConsumedMl": 757,
      "fuelConsumedGallons": 0.2,
      "maxSpeedMph": 37.8,
      "averageSpeedMph": 10.1,
      "safetyEvents": []
    },
    {
      "id": "trip_44439084_20250627_25237",
      "vehicleId": "44439084",
      "driverId": "20000021",
      "startMs": 1751005774000,
      "endMs": 1751007694000,
      "startAddress": "241 Fuentes Keys",
      "endAddress": "169 Ballard Vista Apt. 754",
      "startCoords": {
        "latitude": 39.792288,
        "longitude": -104.93654
      },
      "endCoords": {
        "latitude": 39.751354,
        "longitude": -104.976791
      },
      "distanceMeters": 13586.1,
      "durationMs": 1920000,
      "drivingDurationMs": 1550793,
      "idlingDurationMs": 369207,
      "fuelConsumedMl": 1726,
      "fuelConsumedGallons": 0.456,
      "maxSpeedMph": 34.8,
      "averageSpeedMph": 15.8,
      "safetyEvents": []
    },
    {
      "id": "trip_44439084_20250627_25265",
      "vehicleId": "44439084",
      "driverId": "20000015",
      "startMs": 1751020096000,
      "endMs": 1751024647000,
      "startAddress": "03249 Stewart Skyway",
      "endAddress": "10780 Medina Brook Suite 534",
      "startCoords": {
        "latitude": 39.714232,
        "longitude": -104.921545
      },
      "endCoords": {
        "latitude": 39.781216,
        "longitude": -104.974625
      },
      "distanceMeters": 22140.7,
      "durationMs": 4551000,
      "drivingDurationMs": 3505879,
      "idlingDurationMs": 1045121,
      "fuelConsumedMl": 2816,
      "fuelConsumedGallons": 0.744,
      "maxSpeedMph": 26.7,
      "averageSpeedMph": 10.9,
      "safetyEvents": []
    },
    {
      "id": "trip_44439084_20250627_25293",
      "vehicleId": "44439084",
      "driverId": "20000017",
      "startMs": 1751034711000,
      "endMs": 1751045879000,
      "startAddress": "18974 Harry Points",
      "endAddress": "29528 Petty Mill Suite 871",
      "startCoords": {
        "latitude": 39.759471,
        "longitude": -105.081499
      },
      "endCoords": {
        "latitude": 39.760647,
        "longitude": -104.970877
      },
      "distanceMeters": 64090.8,
      "durationMs": 11168000,
      "drivingDurationMs": 8970879,
      "idlingDurationMs": 2197121,
      "fuelConsumedMl": 8150,
      "fuelConsumedGallons": 2.153,
      "maxSpeedMph": 28.4,
      "averageSpeedMph": 12.8,
      "safetyEvents": []
    },
    {
      "id": "trip_44439084_20250627_25326",
      "vehicleId": "44439084",
      "driverId": "20000017",
      "startMs": 1751050873000,
      "endMs": 1751060701000,
      "startAddress": "76597 Holly Squares",
      "endAddress": "90752 Jacobs Extensions Suite 016",
      "startCoords": {
        "latitude": 39.768312,
        "longitude": -104.983313
      },
      "endCoords": {
        "latitude": 39.781884,
        "longitude": -105.079497
      },
      "distanceMeters": 61191.4,
      "durationMs": 9828000,
      "drivingDurationMs": 8386040,
      "idlingDurationMs": 1441960,
      "fuelConsumedMl": 7779,
      "fuelConsumedGallons": 2.055,
      "maxSpeedMph": 29.8,
      "averageSpeedMph": 13.9,
      "safetyEvents": []
    },
    {
      "id": "trip_44439084_20250628_25358",
      "vehicleId": "44439084",
      "driverId": "20000016",
      "startMs": 1751075931000,
      "endMs": 1751077011000,
      "startAddress": "5357 Jason Corners Apt. 886",
      "endAddress": "377 Justin Cliff",
      "startCoords": {
        "latitude": 39.685149,
        "longitude": -104.921185
      },
      "endCoords": {
        "latitude": 39.776272,
        "longitude": -104.904082
      },
      "distanceMeters": 5585.7,
      "durationMs": 1080000,
      "drivingDurationMs": 840193,
      "idlingDurationMs": 239807,
      "fuelConsumedMl": 712,
      "fuelConsumedGallons": 0.188,
      "maxSpeedMph": 28.9,
      "averageSpeedMph": 11.6,
      "safetyEvents": []
    },
    {
      "id": "trip_44439084_20250628_25384",
      "vehicleId": "44439084",
      "driverId": "20000002",
      "startMs": 1751095549000,
      "endMs": 1751101400000,
      "startAddress": "39672 Johnson Circles",
      "endAddress": "4932 Heidi Cove",
      "startCoords": {
        "latitude": 39.684962,
        "longitude": -104.935897
      },
      "endCoords": {
        "latitude": 39.790057,
        "longitude": -105.017087
      },
      "distanceMeters": 28537.3,
      "durationMs": 5851000,
      "drivingDurationMs": 4547174,
      "idlingDurationMs": 1303826,
      "fuelConsumedMl": 3630,
      "fuelConsumedGallons": 0.959,
      "maxSpeedMph": 33.9,
      "averageSpeedMph": 10.9,
      "safetyEvents": []
    },
    {
      "id": "trip_44439084_20250628_25410",
      "vehicleId": "44439084",
      "driverId": "20000016",
      "startMs": 1751110198000,
      "endMs": 1751124342000,
      "startAddress": "4373 Ryan Drive Apt. 942",
      "endAddress": "9681 Sanford Heights Apt. 176",
      "startCoords": {
        "latitude": 39.726495,
        "longitude": -104.910162
      },
      "endCoords": {
        "latitude": 39.737341,
        "longitude": -104.975593
      },
      "distanceMeters": 85973.8,
      "durationMs": 14144000,
      "drivingDurationMs": 11016077,
      "idlingDurationMs": 3127923,
      "fuelConsumedMl": 10932,
      "fuelConsumedGallons": 2.888,
      "maxSpeedMph": 36.3,
      "averageSpeedMph": 13.6,
      "safetyEvents": []
    },
    {
      "id": "trip_44439084_20250628_25442",
      "vehicleId": "44439084",
      "driverId": "20000012",
      "startMs": 1751127680000,
      "endMs": 1751129300000,
      "startAddress": "0504 Lin Mountains",
      "endAddress": "5687 John Ridges Suite 092",
      "startCoords": {
        "latitude": 39.717474,
        "longitude": -104.942754
      },
      "endCoords": {
        "latitude": 39.782913,
        "longitude": -104.953927
      },
      "distanceMeters": 8063.5,
      "durationMs": 1620000,
      "drivingDurationMs": 1420617,
      "idlingDurationMs": 199383,
      "fuelConsumedMl": 1026,
      "fuelConsumedGallons": 0.271,
      "maxSpeedMph": 39.7,
      "averageSpeedMph": 11.1,
      "safetyEvents": []
    },
    {
      "id": "trip_44439084_20250628_25472",
      "vehicleId": "44439084",
      "driverId": "20000014",
      "startMs": 1751143851000,
      "endMs": 1751146731000,
      "startAddress": "49264 Williams Route",
      "endAddress": "2116 Calvin Circles",
      "startCoords": {
        "latitude": 39.684216,
        "longitude": -105.026862
      },
      "endCoords": {
        "latitude": 39.722445,
        "longitude": -104.925989
      },
      "distanceMeters": 16314.2,
      "durationMs": 2880000,
      "drivingDurationMs": 2454811,
      "idlingDurationMs": 425189,
      "fuelConsumedMl": 2074,
      "fuelConsumedGallons": 0.548,
      "maxSpeedMph": 28.8,
      "averageSpeedMph": 12.7,
      "safetyEvents": []
    },
    {
      "id": "trip_44439084_20250629_25499",
      "vehicleId": "44439084",
      "driverId": "20000002",
      "startMs": 1751167285000,
      "endMs": 1751168845000,
      "startAddress": "7261 Beth Ville",
      "endAddress": "04712 Dickson Walk Apt. 306",
      "startCoords": {
        "latitude": 39.753059,
        "longitude": -104.944072
      },
      "endCoords": {
        "latitude": 39.794181,
        "longitude": -104.958112
      },
      "distanceMeters": 7627.4,
      "durationMs": 1560000,
      "drivingDurationMs": 1251139,
      "idlingDurationMs": 308861,
      "fuelConsumedMl": 969,
      "fuelConsumedGallons": 0.256,
      "maxSpeedMph": 37.1,
      "averageSpeedMph": 10.9,
      "safetyEvents": []
    },
    {
      "id": "trip_44439084_20250629_25531",
      "vehicleId": "44439084",
      "driverId": "20000005",
      "startMs": 1751195859000,
      "endMs": 1751197839000,
      "startAddress": "12220 Strickland Trace Suite 997",
      "endAddress": "15863 Gentry Camp Suite 754",
      "startCoords": {
        "latitude": 39.819713,
        "longitude": -104.907691
      },
      "endCoords": {
        "latitude": 39.800291,
        "longitude": -104.937362
      },
      "distanceMeters": 9269.8,
      "durationMs": 1980000,
      "drivingDurationMs": 1574876,
      "idlingDurationMs": 405124,
      "fuelConsumedMl": 1177,
      "fuelConsumedGallons": 0.311,
      "maxSpeedMph": 26.7,
      "averageSpeedMph": 10.5,
      "safetyEvents": []
    },
    {
      "id": "trip_44439084_20250629_25559",
      "vehicleId": "44439084",
      "driverId": "20000021",
      "startMs": 1751220761000,
      "endMs": 1751222561000,
      "startAddress": "079 Zamora Keys",
      "endAddress": "8521 Beth Light Suite 317",
      "startCoords": {
        "latitude": 39.757637,
        "longitude": -105.05707
      },
      "endCoords": {
        "latitude": 39.81382,
        "longitude": -105.057606
      },
      "distanceMeters": 12466.0,
      "durationMs": 1800000,
      "drivingDurationMs": 1427340,
      "idlingDurationMs": 372660,
      "fuelConsumedMl": 1586,
      "fuelConsumedGallons": 0.419,
      "maxSpeedMph": 32.2,
      "averageSpeedMph": 15.5,
      "safetyEvents": []
    },
    {
      "id": "trip_44439084_20250630_25593",
      "vehicleId": "44439084",
      "driverId": "20000019",
      "startMs": 1751263207000,
      "endMs": 1751264887000,
      "startAddress": "797 Garcia Stream Suite 250",
      "endAddress": "9273 Pamela Coves",
      "startCoords": {
        "latitude": 39.746007,
        "longitude": -105.067654
      },
      "endCoords": {
        "latitude": 39.775316,
        "longitude": -104.908178
      },