{
  "vehicleId": "42031656",
  "vehicleName": "DEN-VAN-09",
  "month": "2025_06",
  "pagination": {
    "endCursor": "trip_42031656_20250630_25690",
    "hasNextPage": false
  },
  "trips": [
    {
      "id": "trip_42031656_20250601_21573",
      "vehicleId": "42031656",
      "driverId": "20000008",
      "startMs": 1748739390000,
      "endMs": 1748741970000,
      "startAddress": "0408 Marcus Fields Apt. 725",
      "endAddress": "379 Clinton Plains Apt. 700",
      "startCoords": {
        "latitude": 39.810378,
        "longitude": -105.067919
      },
      "endCoords": {
        "latitude": 39.758013,
        "longitude": -104.904006
      },
      "distanceMeters": 14098.0,
      "durationMs": 2580000,
      "drivingDurationMs": 2015284,
      "idlingDurationMs": 564716,
      "fuelConsumedMl": 1794,
      "fuelConsumedGallons": 0.474,
      "maxSpeedMph": 27.0,
      "averageSpeedMph": 12.2,
      "safetyEvents": []
    },
    {
      "id": "trip_42031656_20250601_21597",
      "vehicleId": "42031656",
      "driverId": "20000017",
      "startMs": 1748757570000,
      "endMs": 1748759610000,
      "startAddress": "7624 Samuel Inlet Suite 396",
      "endAddress": "645 Aguirre Court Suite 715",
      "startCoords": {
        "latitude": 39.756453,
        "longitude": -105.047243
      },
      "endCoords": {
        "latitude": 39.807368,
        "longitude": -104.991639
      },
      "distanceMeters": 8727.0,
      "durationMs": 2040000,
      "drivingDurationMs": 1554587,
      "idlingDurationMs": 485413,
      "fuelConsumedMl": 1109,
      "fuelConsumedGallons": 0.293,
      "maxSpeedMph": 27.5,
      "averageSpeedMph": 9.6,
      "safetyEvents": []
    },
    {
      "id": "trip_42031656_20250601_21628",
      "vehicleId": "42031656",
      "driverId": "20000012",
      "startMs": 1748783100000,
      "endMs": 1748785380000,
      "startAddress": "517 Anthony Mountain",
      "endAddress": "12207 Huang Common Apt. 408",
      "startCoords": {
        "latitude": 39.77642,
        "longitude": -104.998709
      },
      "endCoords": {
        "latitude": 39.775472,
        "longitude": -105.050823
      },
      "distanceMeters": 11615.7,
      "durationMs": 2280000,
      "drivingDurationMs": 1979985,
      "idlingDurationMs": 300015,
      "fuelConsumedMl": 1476,
      "fuelConsumedGallons": 0.39,
      "maxSpeedMph": 30.6,
      "averageSpeedMph": 11.4,
      "safetyEvents": []
    },
    {
      "id": "trip_42031656_20250601_21657",
      "vehicleId": "42031656",
      "driverId": "20000014",
      "startMs": 1748804153000,
      "endMs": 1748806193000,
      "startAddress": "91287 Barber Vista",
      "endAddress": "43505 Julia Camp Suite 111",
      "startCoords": {
        "latitude": 39.718015,
        "longitude": -104.975673
      },
      "endCoords": {
        "latitude": 39.777,
        "longitude": -104.943847
      },
      "distanceMeters": 8819.6,
      "durationMs": 2040000,
      "drivingDurationMs": 1703233,
      "idlingDurationMs": 336767,
      "fuelConsumedMl": 1120,
      "fuelConsumedGallons": 0.296,
      "maxSpeedMph": 35.1,
      "averageSpeedMph": 9.7,
      "safetyEvents": []
    },
    {
      "id": "trip_42031656_20250602_21687",
      "vehicleId": "42031656",
      "driverId": "20000018",
      "startMs": 1748842577000,
      "endMs": 1748844017000,
      "startAddress": "606 Campbell Unions Suite 418",
      "endAddress": "370 Murray Green",
      "startCoords": {
        "latitude": 39.707564,
        "longitude": -105.035404
      },
      "endCoords": {
        "latitude": 39.772104,
        "longitude": -104.903045
      },
      "distanceMeters": 8963.5,
      "durationMs": 1440000,
      "drivingDurationMs": 1162116,
      "idlingDurationMs": 277884,
      "fuelConsumedMl": 1139,
      "fuelConsumedGallons": 0.301,
      "maxSpeedMph": 28.6,
      "averageSpeedMph": 13.9,
      "safetyEvents": []
    },
    {
      "id": "trip_42031656_20250602_21719",
      "vehicleId": "42031656",
      "driverId": "20000017",
      "startMs": 1748862956000,
      "endMs": 1748874267000,
      "startAddress": "07060 Johnson Center",
      "endAddress": "10739 Ingram Crescent",
      "startCoords": {
        "latitude": 39.723658,
        "longitude": -104.940496
      },
      "endCoords": {
        "latitude": 39.806252,
        "longitude": -104.912259
      },
      "distanceMeters": 69831.4,
      "durationMs": 11311000,
      "drivingDurationMs": 9723791,
      "idlingDurationMs": 1587209,
      "fuelConsumedMl": 8877,
      "fuelConsumedGallons": 2.345,
      "maxSpeedMph": 37.8,
      "averageSpeedMph": 13.8,
      "safetyEvents": []
    },
    {
      "id": "trip_42031656_20250602_21751",
      "vehicleId": "42031656",
      "driverId": "20000022",
      "startMs": 1748878314000,
      "endMs": 1748882693000,
      "startAddress": "0077 Torres Pike",
      "endAddress": "835 Benjamin Key Suite 042",
      "startCoords": {
        "latitude": 39.720318,
        "longitude": -104.981691
      },
      "endCoords": {
        "latitude": 39.76264,
        "longitude": -105.062313
      },
      "distanceMeters": 24355.1,
      "durationMs": 4379000,
      "drivingDurationMs": 3382183,
      "idlingDurationMs": 996817,
      "fuelConsumedMl": 3096,
      "fuelConsumedGallons": 0.818,
      "maxSpeedMph": 28.7,
      "averageSpeedMph": 12.4,
      "safetyEvents": []
    },
    {
      "id": "trip_42031656_20250602_21776",
      "vehicleId": "42031656",
      "driverId": "20000006",
      "startMs": 1748891594000,
      "endMs": 1748900548000,
      "startAddress": "056 Wallace Lane",
      "endAddress": "05828 Robert Meadows Apt. 876",
      "startCoords": {
        "latitude": 39.816494,
        "longitude": -104.914909
      },
      "endCoords": {
        "latitude": 39.722259,
        "longitude": -105.016086
      },
      "distanceMeters": 48714.6,
      "durationMs": 8954000,
      "drivingDurationMs": 7583142,
      "idlingDurationMs": 1370858,
      "fuelConsumedMl": 6193,
      "fuelConsumedGallons": 1.636,
      "maxSpeedMph": 26.3,
      "averageSpeedMph": 12.2,
      "safetyEvents": []
    },
    {
      "id": "trip_42031656_20250603_21806",
      "vehicleId": "42031656",
      "driverId": "20000015",
      "startMs": 1748913802000,
      "endMs": 1748915422000,
      "startAddress": "255 Martinez Throughway",
      "endAddress": "6354 Michael Plains",
      "startCoords": {
        "latitude": 39.761459,
        "longitude": -105.059034
      },
      "endCoords": {
        "latitude": 39.71808,
        "longitude": -105.03168
      },
      "distanceMeters": 12386.7,
      "durationMs": 1620000,
      "drivingDurationMs": 1416388,
      "idlingDurationMs": 203612,
      "fuelConsumedMl": 1575,
      "fuelConsumedGallons": 0.416,
      "maxSpeedMph": 28.3,
      "averageSpeedMph": 17.1,
      "safetyEvents": []
    },
    {
      "id": "trip_42031656_20250603_21837",
      "vehicleId": "42031656",
      "driverId": "20000021",
      "startMs": 1748931997000,
      "endMs": 1748933617000,
      "startAddress": "225 David Dam Suite 134",
      "endAddress": "76255 Phillip Walk Apt. 542",
      "startCoords": {
        "latitude": 39.721117,
        "longitude": -104.931724
      },
      "endCoords": {
        "latitude": 39.778169,
        "longitude": -104.90302
      },
      "distanceMeters": 6975.0,
      "durationMs": 1620000,
      "drivingDurationMs": 1302227,
      "idlingDurationMs": 317773,
      "fuelConsumedMl": 886,
      "fuelConsumedGallons": 0.234,
      "maxSpeedMph": 36.0,
      "averageSpeedMph": 9.6,
      "safetyEvents": []
    },
    {
      "id": "trip_42031656_20250603_21864",
      "vehicleId": "42031656",
      "driverId": "20000020",
      "startMs": 1748946977000,
      "endMs": 1748956909000,
      "startAddress": "32003 Donna Spring",
      "endAddress": "20115 Allison Club",
      "startCoords": {
        "latitude": 39.809188,
        "longitude": -104.932251
      },
      "endCoords": {
        "latitude": 39.760776,
        "longitude": -104.977905
      },
      "distanceMeters": 46360.0,
      "durationMs": 9932000,
      "drivingDurationMs": 8643028,
      "idlingDurationMs": 1288972,
      "fuelConsumedMl": 5894,
      "fuelConsumedGallons": 1.557,
      "maxSpeedMph": 31.2,
      "averageSpeedMph": 10.4,
      "safetyEvents": []
    },
    {
      "id": "trip_42031656_20250603_21894",
      "vehicleId": "42031656",
      "driverId": "20000009",
      "startMs": 1748962110000,
      "endMs": 1748964090000,
      "startAddress": "8746 Lopez Shoals Suite 955",
      "endAddress": "01675 Robertson Pike",
      "startCoords": {
        "latitude": 39.758522,
        "longitude": -105.033815
      },
      "endCoords": {
        "latitude": 39.732164,
        "longitude": -105.025444
      },
      "distanceMeters": 12385.4,
      "durationMs": 1980000,
      "drivingDurationMs": 1532228,
      "idlingDurationMs": 447772,
      "fuelConsumedMl": 1575,
      "fuelConsumedGallons": 0.416,
      "maxSpeedMph": 29.7,
      "averageSpeedMph": 14.0,
      "safetyEvents": []
    },
    {
      "id": "trip_42031656_20250603_21923",
      "vehicleId": "42031656",
      "driverId": "20000010",
      "startMs": 1748976870000,
      "endMs": 1748986538000,
      "startAddress": "945 Gloria Drive Suite 401",
      "endAddress": "62513 Kevin Forge Apt. 964",
      "startCoords": {
        "latitude": 39.745551,
        "longitude": -105.073734
      },
      "endCoords": {
        "latitude": 39.746499,
        "longitude": -105.013421
      },
      "distanceMeters": 45929.2,
      "durationMs": 9668000,
      "drivingDurationMs": 8441994,
      "idlingDurationMs": 1226006,
      "fuelConsumedMl": 5841,
      "fuelConsumedGallons": 1.543,
      "maxSpeedMph": 37.9,
      "averageSpeedMph": 10.6,
      "safetyEvents": []
    },
    {
      "id": "trip_42031656_20250604_21959",
      "vehicleId": "42031656",
      "driverId": "20000015",
      "startMs": 1748998258000,
      "endMs": 1749000358000,
      "startAddress": "9732 Erica Spurs",
      "endAddress": "46948 Lisa Mountains Apt. 525",
      "startCoords": {
        "latitude": 39.70204,
        "longitude": -104.943376
      },
      "endCoords": {
        "latitude": 39.740178,
        "longitude": -105.066783
      },
      "distanceMeters": 13649.9,
      "durationMs": 2100000,
      "drivingDurationMs": 1796254,
      "idlingDurationMs": 303746,
      "fuelConsumedMl": 1734,
      "fuelConsumedGallons": 0.458,
      "maxSpeedMph": 31.2,
      "averageSpeedMph": 14.5,
      "safetyEvents": []
    },
    {
      "id": "trip_42031656_20250604_21987",
      "vehicleId": "42031656",
      "driverId": "20000007",
      "startMs": 1749018109000,
      "endMs": 1749019969000,
      "startAddress": "279 Ward Road",
      "endAddress": "3954 Leah Rest",
      "startCoords": {
        "latitude": 39.68502,
        "longitude": -104.994619
      },
      "endCoords": {
        "latitude": 39.786648,
        "longitude": -104.977836
      },
      "distanceMeters": 12028.1,
      "durationMs": 1860000,
      "drivingDurationMs": 1403197,
      "idlingDurationMs": 456803,
      "fuelConsumedMl": 1529,
      "fuelConsumedGallons": 0.404,
      "maxSpeedMph": 34.9,
      "averageSpeedMph": 14.5,
      "safetyEvents": []
    },
    {
      "id": "trip_42031656_20250604_22014",
      "vehicleId": "42031656",
      "driverId": "20000013",
      "startMs": 1749032882000,
      "endMs": 1749037529000,
      "startAddress": "23553 Lisa Crossroad Suite 404",
      "endAddress": "42085 Eric Brooks Apt. 051",
      "startCoords": {
        "latitude": 39.819108,
        "longitude": -104.905115
      },
      "endCoords": {
        "latitude": 39.734086,
        "longitude": -104.975696
      },
      "distanceMeters": 27396.7,
      "durationMs": 4647000,
      "drivingDurationMs": 4108858,
      "idlingDurationMs": 538142,
      "fuelConsumedMl": 3483,
      "fuelConsumedGallons": 0.92,
      "maxSpeedMph": 30.2,
      "averageSpeedMph": 13.2,
      "safetyEvents": []
    },
    {
      "id": "trip_42031656_20250604_22046",
      "vehicleId": "42031656",
      "driverId": "20000022",
      "startMs": 1749048931000,
      "endMs": 1749055878000,
      "startAddress": "959 Kenneth Trail Suite 589",
      "endAddress": "7183 Michael Village",
      "startCoords": {
        "latitude": 39.786402,
        "longitude": -105.008199
      },
      "endCoords": {
        "latitude": 39.694406,
        "longitude": -105.073424
      },
      "distanceMeters": 29329.4,
      "durationMs": 6947000,
      "drivingDurationMs": 5261044,
      "idlingDurationMs": 1685956,
      "fuelConsumedMl": 3729,
      "fuelConsumedGallons": 0.985,
      "maxSpeedMph": 27.9,
      "averageSpeedMph": 9.4,
      "safetyEvents": []
    },
    {
      "id": "trip_42031656_20250604_22076",
      "vehicleId": "42031656",
      "driverId": "20000014",
      "startMs": 1749062968000,
      "endMs": 1749068822000,
      "startAddress": "6391 Angela Station Suite 065",
      "endAddress": "798 Richard Ridges",
      "startCoords": {
        "latitude": 39.750426,
        "longitude": -104.994412
      },
      "endCoords": {
        "latitude": 39.810091,
        "longitude": -105.066137
      },
      "distanceMeters": 33144.4,
      "durationMs": 5854000,
      "drivingDurationMs": 4402470,
      "idlingDurationMs": 1451530,
      "fuelConsumedMl": 4213,
      "fuelConsumedGallons": 1.113,
      "maxSpeedMph": 34.7,
      "averageSpeedMph": 12.7,
      "safetyEvents": []
    },
    {
      "id": "trip_42031656_20250605_22103",
      "vehicleId": "42031656",
      "driverId": "20000013",
      "startMs": 1749082012000,
      "endMs": 1749083992000,
      "startAddress": "944 Mclaughlin Shore",
      "endAddress": "588 Sean Mall",
      "startCoords": {
        "latitude": 39.722098,
        "longitude": -104.959726
      },
      "endCoords": {
        "latitude": 39.727832,
        "longitude": -105.051948
      },
      "distanceMeters": 11741.8,
      "durationMs": 1980000,
      "drivingDurationMs": 1550064,
      "idlingDurationMs": 429936,
      "fuelConsumedMl": 1491,
      "fuelConsumedGallons": 0.394,
      "maxSpeedMph": 36.5,
      "averageSpeedMph": 13.3,
      "safetyEvents": []
    },
    {
      "id": "trip_42031656_20250605_22128",
      "vehicleId": "42031656",
      "driverId": "20000017",
      "startMs": 1749099921000,
      "endMs": 1749101869000,
      "startAddress": "758 Austin Burg",
      "endAddress": "1537 James Islands",
      "startCoords": {
        "latitude": 39.718211,
        "longitude": -104.960321
      },
      "endCoords": {
        "latitude": 39.801258,
        "longitude": -104.900296
      },
      "distanceMeters": 8357.4,
      "durationMs": 1948000,
      "drivingDurationMs": 1608298,
      "idlingDurationMs": 339702,
      "fuelConsumedMl": 1064,
      "fuelConsumedGallons": 0.281,
      "maxSpeedMph": 33.6,
      "averageSpeedMph": 9.6,
      "safetyEvents": []
    },
    {
      "id": "trip_42031656_20250605_22159",
      "vehicleId": "42031656",
      "driverId": "20000013",
      "startMs": 1749119008000,
      "endMs": 1749120808000,
      "startAddress": "05878 Cruz Glen",
      "endAddress": "77596 Ramirez Harbor Suite 987",
      "startCoords": {
        "latitude": 39.815041,
        "longitude": -105.042492
      },
      "endCoords": {
        "latitude": 39.719918,
        "longitude": -105.00144
      },
      "distanceMeters": 9145.7,
      "durationMs": 1800000,
      "drivingDurationMs": 1562402,
      "idlingDurationMs": 237598,
      "fuelConsumedMl": 1162,
      "fuelConsumedGallons": 0.307,
      "maxSpeedMph": 27.5,
      "averageSpeedMph": 11.4,
      "safetyEvents": []
    },
    {
      "id": "trip_42031656_20250605_22189",
      "vehicleId": "42031656",
      "driverId": "20000001",
      "startMs": 1749134153000,
      "endMs": 1749145627000,
      "startAddress": "43050 Jeffrey Manors",
      "endAddress": "934 Joel Unions",
      "startCoords": {
        "latitude": 39.752327,
        "longitude": -104.924471
      },
      "endCoords": {
        "latitude": 39.747022,
        "longitude": -105.038354
      },
      "distanceMeters": 73120.1,
      "durationMs": 11474000,
      "drivingDurationMs": 10088240,
      "idlingDurationMs": 1385760,
      "fuelConsumedMl": 9297,
      "fuelConsumedGallons": 2.456,
      "maxSpeedMph": 39.4,
      "averageSpeedMph": 14.3,
      "safetyEvents": []
    },
    {
      "id": "trip_42031656_20250605_22217",
      "vehicleId": "42031656",
      "driverId": "20000020",
      "startMs": 1749149222000,
      "endMs": 1749163223000,
      "startAddress": "5083 Eduardo Fields",
      "endAddress": "484 Shawn Isle Suite 255",
      "startCoords": {
        "latitude": 39.739731,
        "longitude": -104.912614
      },
      "endCoords": {
        "latitude": 39.738247,
        "longitude": -104.971804
      },
      "distanceMeters": 83417.1,
      "durationMs": 14001000,
      "drivingDurationMs": 11166357,
      "idlingDurationMs": 2834643,
      "fuelConsumedMl": 10607,
      "fuelConsumedGallons": 2.802,
      "maxSpeedMph": 37.4,
      "averageSpeedMph": 13.3,
      "safetyEvents": []
    },
    {
      "id": "trip_42031656_20250606_22250",
      "vehicleId": "42031656",
      "driverId": "20000005",
      "startMs": 1749168122000,
      "endMs": 1749170042000,
      "startAddress": "30364 King Shores",
      "endAddress": "8070 Holly Pike Apt. 514",
      "startCoords": {
        "latitude": 39.764727,
        "longitude": -105.01655
      },
      "endCoords": {
        "latitude": 39.820944,
        "longitude": -104.915973
      },
      "distanceMeters": 10780.7,
      "durationMs": 1920000,
      "drivingDurationMs": 1502080,
      "idlingDurationMs": 417920,
      "fuelConsumedMl": 1370,
      "fuelConsumedGallons": 0.362,
      "maxSpeedMph": 34.0,
      "averageSpeedMph": 12.6,
      "safetyEvents": []
    },
    {
      "id": "trip_42031656_20250606_22278",
      "vehicleId": "42031656",
      "driverId": "20000012",
      "startMs": 1749191166000,
      "endMs": 1749211077000,
      "startAddress": "804 Nicholson Junction Apt. 679",
      "endAddress": "906 Samantha Ways Apt. 489",
      "startCoords": {
        "latitude": 39.781578,
        "longitude": -104.91149
      },
      "endCoords": {
        "latitude": 39.731107,
        "longitude": -105.065707
      },
      "distanceMeters": 130634.2,
      "durationMs": 19911000,
      "drivingDurationMs": 17579143,
      "idlingDurationMs": 2331857,
      "fuelConsumedMl": 16610,
      "fuelConsumedGallons": 4.388,
      "maxSpeedMph": 27.7,
      "averageSpeedMph": 14.7,
      "safetyEvents": []
    },
    {
      "id": "trip_42031656_20250606_22310",
      "vehicleId": "42031656",
      "driverId": "20000015",
      "startMs": 1749211247000,
      "endMs": 1749213527000,
      "startAddress": "012 Brent Park",
      "endAddress": "949 Jeffery Locks Suite 720",
      "startCoords": {
        "latitude": 39.731852,
        "longitude": -104.972349
      },
      "endCoords": {
        "latitude": 39.742856,
        "longitude": -104.910058
      },
      "distanceMeters": 10465.1,
      "durationMs": 2280000,
      "drivingDurationMs": 1915483,
      "idlingDurationMs": 364517,
      "fuelConsumedMl": 1329,
      "fuelConsumedGallons": 0.351,
      "maxSpeedMph": 33.6,
      "averageSpeedMph": 10.3,
      "safetyEvents": []
    },
    {
      "id": "trip_42031656_20250606_22339",
      "vehicleId": "42031656",
      "driverId": "20000005",
      "startMs": 1749222537000,
      "endMs": 1749230324000,
      "startAddress": "23160 Benson Light Suite 188",
      "endAddress": "2591 Baker Cliffs Apt. 797",
      "startCoords": {
        "latitude": 39.824892,
        "longitude": -104.906661
      },
      "endCoords": {
        "latitude": 39.775068,
        "longitude": -105.046509
      },
      "distanceMeters": 36460.6,
      "durationMs": 7787000,
      "drivingDurationMs": 6627349,
      "idlingDurationMs": 1159651,
      "fuelConsumedMl": 4637,
      "fuelConsumedGallons": 1.225,
      "maxSpeedMph": 38.2,
      "averageSpeedMph": 10.5,
      "safetyEvents": []
    },
    {
      "id": "trip_42031656_20250606_22369",
      "vehicleId": "42031656",
      "driverId": "20000015",
      "startMs": 1749238737000,
      "endMs": 1749240177000,
      "startAddress": "792 Nicholas Flats Apt. 216",
      "endAddress": "650 Michael Fields Suite 001",
      "startCoords": {
        "latitude": 39.775509,
        "longitude": -104.992564
      },
      "endCoords": {
        "latitude": 39.751336,
        "longitude": -104.96697
      },
      "distanceMeters": 6268.6,
      "durationMs": 1440000,
      "drivingDurationMs": 1160064,
      "idlingDurationMs": 279936,
      "fuelConsumedMl": 799,
      "fuelConsumedGallons": 0.211,
      "maxSpeedMph": 37.0,
      "averageSpeedMph": 9.7,
      "safetyEvents": []
    },
    {
      "id": "trip_42031656_20250606_22395",
      "vehicleId": "42031656",
      "driverId": "20000005",
      "startMs": 1749252349000,
      "endMs": 1749259872000,
      "startAddress": "91486 Alyssa Mission",
      "endAddress": "54374 Thompson Drive Suite 240",
      "startCoords": {
        "latitude": 39.795151,
        "longitude": -104.999859
      },
      "endCoords": {
        "latitude": 39.779173,
        "longitude": -105.013458
      },
      "distanceMeters": 43908.8,
      "durationMs": 7523000,
      "drivingDurationMs": 6524157,
      "idlingDurationMs": 998843,
      "fuelConsumedMl": 5583,
      "fuelConsumedGallons": 1.475,
      "maxSpeedMph": 30.9,
      "averageSpeedMph": 13.1,
      "safetyEvents": []
    },
    {
      "id": "trip_42031656_20250607_22425",
      "vehicleId": "42031656",
      "driverId": "20000012",
      "startMs": 1749271198000,
      "endMs": 1749273118000,
      "startAddress": "2165 Lucas Brook Suite 598",
      "endAddress": "684 Kathleen Courts",
      "startCoords": {
        "latitude": 39.791301,
        "longitude": -105.035241
      },
      "endCoords": {
        "latitude": 39.782538,
        "longitude": -105.056912
      },
      "distanceMeters": 11942.0,
      "durationMs": 1920000,
      "drivingDurationMs": 1533247,
      "idlingDurationMs": 386753,
      "fuelConsumedMl": 1518,
      "fuelConsumedGallons": 0.401,
      "maxSpeedMph": 26.7,
      "averageSpeedMph": 13.9,
      "safetyEvents": []
    },
    {
      "id": "trip_42031656_20250607_22453",
      "vehicleId": "42031656",
      "driverId": "20000016",
      "startMs": 1749289961000,
      "endMs": 1749295811000,
      "startAddress": "0521 Harris Highway Apt. 777",
      "endAddress": "4483 Erica Common Suite 264",
      "startCoords": {
        "latitude": 39.687575,
        "longitude": -105.055652
      },
      "endCoords": {
        "latitude": 39.739099,
        "longitude": -104.91016
      },
      "distanceMeters": 24495.7,
      "durationMs": 5850000,
      "drivingDurationMs": 4871158,
      "idlingDurationMs": 978842,
      "fuelConsumedMl": 3115,
      "fuelConsumedGallons": 0.823,
      "maxSpeedMph": 32.6,
      "averageSpeedMph": 9.4,
      "safetyEvents": []
    },
    {
      "id": "trip_42031656_20250607_22482",
      "vehicleId": "42031656",
      "driverId": "20000022",
      "startMs": 1749307233000,
      "endMs": 1749316426000,
      "startAddress": "09450 Amanda Tunnel",
      "endAddress": "548 Daniel Islands",
      "startCoords": {
        "latitude": 39.701399,
        "longitude": -105.056301
      },
      "endCoords": {
        "latitude": 39.817156,
        "longitude": -105.021018
      },
      "distanceMeters": 61490.7,
      "durationMs": 9193000,
      "drivingDurationMs": 8060920,
      "idlingDurationMs": 1132080,
      "fuelConsumedMl": 7817,
      "fuelConsumedGallons": 2.065,
      "maxSpeedMph": 37.8,
      "averageSpeedMph": 15.0,
      "safetyEvents": []
    },
    {
      "id": "trip_42031656_20250607_22510",
      "vehicleId": "42031656",
      "driverId": "20000019",
      "startMs": 1749322987000,
      "endMs": 1749324775000,
      "startAddress": "617 Lopez Grove",
      "endAddress": "35832 Julia Trail",
      "startCoords": {
        "latitude": 39.684646,
        "longitude": -105.078567
      },
      "endCoords": {
        "latitude": 39.805775,
        "longitude": -105.034851
      },
      "distanceMeters": 8468.7,
      "durationMs": 1788000,
      "drivingDurationMs": 1372615,
      "idlingDurationMs": 415385,
      "fuelConsumedMl": 1075,
      "fuelConsumedGallons": 0.284,
      "maxSpeedMph": 37.9,
      "averageSpeedMph": 10.6,
      "safetyEvents": []
    },
    {
      "id": "trip_42031656_20250607_22535",
      "vehicleId": "42031656",
      "driverId": "20000016",
      "startMs": 1749339412000,
      "endMs": 1749341212000,
      "startAddress": "1063 Thomas Plain",
      "endAddress": "6516 Cox Plains Suite 251",
      "startCoords": {
        "latitude": 39.777032,
        "longitude": -105.040991
      },
      "endCoords": {
        "latitude": 39.699187,
        "longitude": -104.930291
      },
      "distanceMeters": 13108.9,
      "durationMs": 1800000,
      "drivingDurationMs": 1600327,
      "idlingDurationMs": 199673,
      "fuelConsumedMl": 1666,
      "fuelConsumedGallons": 0.44,
      "maxSpeedMph": 36.5,
      "averageSpeedMph": 16.3,
      "safetyEvents": []
    },
    {
      "id": "trip_42031656_20250608_22568",
      "vehicleId": "42031656",
      "driverId": "20000002",
      "startMs": 1749371433000,
      "endMs": 1749380182000,
      "startAddress": "5935 Lori Corners",
      "endAddress": "159 Mora Gardens",
      "startCoords": {
        "latitude": 39.744094,
        "longitude": -105.031804
      },
      "endCoords": {
        "latitude": 39.763449,
        "longitude": -105.017974
      },
      "distanceMeters": 57482.0,
      "durationMs": 8749000,
      "drivingDurationMs": 7473329,
      "idlingDurationMs": 1275671,
      "fuelConsumedMl": 7310,
      "fuelConsumedGallons": 1.931,
      "maxSpeedMph": 38.8,
      "averageSpeedMph": 14.7,
      "safetyEvents": []
    },
    {
      "id": "trip_42031656_20250608_22592",
      "vehicleId": "42031656",
      "driverId": "20000015",
      "startMs": 1749387111000,
      "endMs": 1749395009000,
      "startAddress": "416 Kaiser Ford Suite 754",
      "endAddress": "94431 Webb Center",
      "startCoords": {
        "latitude": 39.762915,
        "longitude": -105.018738
      },
      "endCoords": {
        "latitude": 39.825765,
        "longitude": -104.999883
      },
      "distanceMeters": 50467.1,
      "durationMs": 7898000,
      "drivingDurationMs": 6524493,
      "idlingDurationMs": 1373507,
      "fuelConsumedMl": 6416,
      "fuelConsumedGallons": 1.695,
      "maxSpeedMph": 29.3,
      "averageSpeedMph": 14.3,
      "safetyEvents": []
    },
    {
      "id": "trip_42031656_20250608_22621",
      "vehicleId": "42031656",
      "driverId": "20000020",
      "startMs": 1749413365000,
      "endMs": 1749415585000,
      "startAddress": "2749 Smith Stream Apt. 898",
      "endAddress": "8730 Martin Spurs",
      "startCoords": {
        "latitude": 39.826587,
        "longitude": -104.951721
      },
      "endCoords": {
        "latitude": 39.773402,
        "longitude": -104.964202
      },
      "distanceMeters": 14321.0,
      "durationMs": 2220000,
      "drivingDurationMs": 1852283,
      "idlingDurationMs": 367717,
      "fuelConsumedMl": 1821,
      "fuelConsumedGallons": 0.481,
      "maxSpeedMph": 31.0,
      "averageSpeedMph": 14.4,
      "safetyEvents": []
    },
    {
      "id": "trip_42031656_20250609_22656",
      "vehicleId": "42031656",
      "driverId": "20000020",
      "startMs": 1749457880000,
      "endMs": 1749469040000,
      "startAddress": "95227 Bautista Avenue Apt. 135",
      "endAddress": "6963 Garrison Spurs Suite 389",
      "startCoords": {
        "latitude": 39.709622,
        "longitude": -105.081067
      },
      "endCoords": {
        "latitude": 39.816198,
        "longitude": -105.014221
      },
      "distanceMeters": 55629.4,
      "durationMs": 11160000,
      "drivingDurationMs": 9140270,
      "idlingDurationMs": 2019730,
      "fuelConsumedMl": 7071,
      "fuelConsumedGallons": 1.868,
      "maxSpeedMph": 28.5,
      "averageSpeedMph": 11.2,
      "safetyEvents": []
    },
    {
      "id": "trip_42031656_20250609_22686",
      "vehicleId": "42031656",
      "driverId": "20000009",
      "startMs": 1749476991000,
      "endMs": 1749480409000,
      "startAddress": "88440 Velasquez Brook Apt. 363",
      "endAddress": "6818 Sharon Freeway",
      "startCoords": {
        "latitude": 39.710723,
        "longitude": -105.071496
      },
      "endCoords": {
        "latitude": 39.694942,
        "longitude": -104.926292
      },
      "distanceMeters": 16430.8,
      "durationMs": 3418000,
      "drivingDurationMs": 2843667,
      "idlingDurationMs": 574333,
      "fuelConsumedMl": 2090,
      "fuelConsumedGallons": 0.552,
      "maxSpeedMph": 28.3,
      "averageSpeedMph": 10.8,
      "safetyEvents": []
    },
    {
      "id": "trip_42031656_20250609_22717",
      "vehicleId": "42031656",
      "driverId": "20000010",
      "startMs": 1749490516000,
      "endMs": 1749492676000,
      "startAddress": "946 Parker Glen",
      "endAddress": "600 Kirsten Station",
      "startCoords": {
        "latitude": 39.734838,
        "longitude": -104.921487
      },
      "endCoords": {
        "latitude": 39.700941,
        "longitude": -104.910773
      },
      "distanceMeters": 11982.9,
      "durationMs": 2160000,
      "drivingDurationMs": 1697202,
      "idlingDurationMs": 462798,
      "fuelConsumedMl": 1522,
      "fuelConsumedGallons": 0.402,
      "maxSpeedMph": 27.2,
      "averageSpeedMph": 12.4,
      "safetyEvents": []
    },
    {
      "id": "trip_42031656_20250609_22746",
      "vehicleId": "42031656",
      "driverId": "20000016",
      "startMs": 1749509735000,
      "endMs": 1749512015000,
      "startAddress": "8968 Cervantes Parkway Suite 589",
      "endAddress": "909 Decker Hollow Apt. 268",
      "startCoords": {
        "latitude": 39.689661,
        "longitude": -104.927323
      },
      "endCoords": {
        "latitude": 39.778362,
        "longitude": -104.992246
      },
      "distanceMeters": 10318.8,
      "durationMs": 2280000,
      "drivingDurationMs": 1979852,
      "idlingDurationMs": 300148,
      "fuelConsumedMl": 1314,
      "fuelConsumedGallons": 0.347,
      "maxSpeedMph": 27.1,
      "averageSpeedMph": 10.1,
      "safetyEvents": []
    },
    {
      "id": "trip_42031656_20250610_22773",
      "vehicleId": "42031656",
      "driverId": "20000020",
      "startMs": 1749525333000,
      "endMs": 1749537075000,
      "startAddress": "41705 Kevin Row",
      "endAddress": "91425 Misty Creek Apt. 092",
      "startCoords": {
        "latitude": 39.712249,
        "longitude": -105.019727
      },
      "endCoords": {
        "latitude": 39.75307,
        "longitude": -105.032512
      },
      "distanceMeters": 83153.5,
      "durationMs": 11742000,
      "drivingDurationMs": 10462632,
      "idlingDurationMs": 1279368,
      "fuelConsumedMl": 10573,
      "fuelConsumedGallons": 2.793,
      "maxSpeedMph": 34.8,
      "averageSpeedMph": 15.8,
      "safetyEvents": []
    },
    {
      "id": "trip_42031656_20250610_22797",
      "vehicleId": "42031656",
      "driverId": "20000019",
      "startMs": 1749541341000,
      "endMs": 1749547684000,
      "startAddress": "04942 Sheppard Village",
      "endAddress": "86696 Lisa Terrace",
      "startCoords": {
        "latitude": 39.696871,
        "longitude": -105.029724
      },
      "endCoords": {
        "latitude": 39.708172,
        "longitude": -104.915139
      },
      "distanceMeters": 45789.6,
      "durationMs": 6343000,
      "drivingDurationMs": 5587318,
      "idlingDurationMs": 755682,
      "fuelConsumedMl": 5822,
      "fuelConsumedGallons": 1.538,
      "maxSpeedMph": 37.4,
      "averageSpeedMph": 16.1,
      "safetyEvents": []
    },
    {
      "id": "trip_42031656_20250610_22825",
      "vehicleId": "42031656",
      "driverId": "20000011",
      "startMs": 1749553944000,
      "endMs": 1749564389000,
      "startAddress": "15210 Barbara Parkway",
      "endAddress": "082 Jason Isle Apt. 142",
      "startCoords": {
        "latitude": 39.799533,
        "longitude": -104.95174
      },
      "endCoords": {
        "latitude": 39.69272,
        "longitude": -104.936768
      },
      "distanceMeters": 64518.1,
      "durationMs": 10445000,
      "drivingDurationMs": 8490091,
      "idlingDurationMs": 1954909,
      "fuelConsumedMl": 8203,
      "fuelConsumedGallons": 2.167,
      "maxSpeedMph": 32.6,
      "averageSpeedMph": 13.8,
      "safetyEvents": []
    },
    {
      "id": "trip_42031656_20250610_22855",
      "vehicleId": "42031656",
      "driverId": "20000001",
      "startMs": 1749568667000,
      "endMs": 1749581906000,
      "startAddress": "1976 Martin Route",
      "endAddress": "69932 Robinson Rapids Suite 432",
      "startCoords": {
        "latitude": 39.768799,
        "longitude": -105.068921
      },
      "endCoords": {
        "latitude": 39.687311,
        "longitude": -105.038166
      },
      "distanceMeters": 71519.4,
      "durationMs": 13239000,
      "drivingDurationMs": 11167733,
      "idlingDurationMs": 2071267,
      "fuelConsumedMl": 9093,
      "fuelConsumedGallons": 2.402,
      "maxSpeedMph": 32.9,
      "averageSpeedMph": 12.1,
      "safetyEvents": []
    },
    {
      "id": "trip_42031656_20250610_22883",
      "vehicleId": "42031656",
      "driverId": "20000016",
      "startMs": 1749583752000,
      "endMs": 1749591782000,
      "startAddress": "36726 Phyllis Station",
      "endAddress": "3103 James Inlet",
      "startCoords": {
        "latitude": 39.778406,
        "longitude": -104.941743
      },
      "endCoords": {
        "latitude": 39.779064,
        "longitude": -104.974386
      },
      "distanceMeters": 50822.4,
      "durationMs": 8030000,
      "drivingDurationMs": 6085611,
      "idlingDurationMs": 1944389,
      "fuelConsumedMl": 6462,
      "fuelConsumedGallons": 1.707,
      "maxSpeedMph": 27.7,
      "averageSpeedMph": 14.2,
      "safetyEvents": []
    },
    {
      "id": "trip_42031656_20250611_22915",
      "vehicleId": "42031656",
      "driverId": "20000019",
      "startMs": 1749601431000,
      "endMs": 1749603771000,
      "startAddress": "7378 Stephen Shores Suite 962",
      "endAddress": "00606 Katherine Forest Suite 267",
      "startCoords": {
        "latitude": 39.796379,
        "longitude": -105.04685
      },
      "endCoords": {
        "latitude": 39.80123,
        "longitude": -104.960953
      },
      "distanceMeters": 15241.7,
      "durationMs": 2340000,
      "drivingDurationMs": 2036465,
      "idlingDurationMs": 303535,
      "fuelConsumedMl": 1938,
      "fuelConsumedGallons": 0.512,
      "maxSpeedMph": 33.0,
      "averageSpeedMph": 14.6,
      "safetyEvents": []
    },
    {
      "id": "trip_42031656_20250611_22942",
      "vehicleId": "42031656",
      "driverId": "20000019",
      "startMs": 1749615365000,
      "endMs": 1749616685000,
      "startAddress": "63798 Walter Landing",
      "endAddress": "5715 Ashley Greens Suite 926",
      "startCoords": {
        "latitude": 39.765352,
        "longitude": -104.968212
      },
      "endCoords": {
        "latitude": 39.740585,
        "longitude": -105.064894
      },
      "distanceMeters": 6500.6,
      "durationMs": 1320000,
      "drivingDurationMs": 1155193,
      "idlingDurationMs": 164807,
      "fuelConsumedMl": 825,
      "fuelConsumedGallons": 0.218,
      "maxSpeedMph": 36.6,
      "averageSpeedMph": 11.0,
      "safetyEvents": []
    },
    {
      "id": "trip_42031656_20250611_22969",
      "vehicleId": "42031656",
      "driverId": "20000009",
      "startMs": 1749632493000,
      "endMs": 1749639665000,
      "startAddress": "36924 Heather Path",
      "endAddress": "9822 Andrea Neck Apt. 894",
      "startCoords": {
        "latitude": 39.805928,
        "longitude": -105.021816
      },
      "endCoords": {
        "latitude": 39.824259,
        "longitude": -105.077348
      },
      "distanceMeters": 37454.1,
      "durationMs": 7172000,
      "drivingDurationMs": 5573172,
      "idlingDurationMs": 1598828,
      "fuelConsumedMl": 4762,
      "fuelConsumedGallons": 1.258,
      "maxSpeedMph": 39.5,
      "averageSpeedMph": 11.7,
      "safetyEvents": []
    },
    {
      "id": "trip_42031656_20250611_22999",
      "vehicleId": "42031656",
      "driverId": "20000018",
      "startMs": 1749645868000,
      "endMs": 1749647908000,
      "startAddress": "33372 Schwartz Village",
      "endAddress": "35627 Thompson Islands",
      "startCoords": {
        "latitude": 39.738453,
        "longitude": -105.051543
      },
      "endCoords": {
        "latitude": 39.794618,
        "longitude": -105.076136
      },
      "distanceMeters": 9367.0,
      "durationMs": 2040000,
      "drivingDurationMs": 1560539,
      "idlingDurationMs": 479461,
      "fuelConsumedMl": 1192,
      "fuelConsumedGallons": 0.315,
      "maxSpeedMph": 28.4,
      "averageSpeedMph": 10.3,
      "safetyEvents": []
    },
    {
      "id": "trip_42031656_20250611_23030",
      "vehicleId": "42031656",
      "driverId": "20000021",
      "startMs": 1749663849000,
      "endMs": 1749665649000,
      "startAddress": "6762 Barrett Harbor",
      "endAddress": "8192 Little Curve Apt. 554",
      "startCoords": {
        "latitude": 39.698227,
        "longitude": -104.955027
      },
      "endCoords": {
        "latitude": 39.757345,
        "longitude": -104.931965
      },
      "distanceMeters": 12519.7,
      "durationMs": 1800000,
      "drivingDurationMs": 1522233,
      "idlingDurationMs": 277767,
      "fuelConsumedMl": 1594,
      "fuelConsumedGallons": 0.421,
      "maxSpeedMph": 32.1,
      "averageSpeedMph": 15.6,
      "safetyEvents": []
    },
    {
      "id": "trip_42031656_20250611_23058",
      "vehicleId": "42031656",
      "driverId": "20000002",
      "startMs": 1749677386000,
      "endMs": 1749684360000,
      "startAddress": "2420 Jones Plaza Suite 826",
      "endAddress": "37453 Candace Spring Suite 314",
      "startCoords": {
        "latitude": 39.687019,
        "longitude": -105.062326
      },
      "endCoords": {
        "latitude": 39.761342,
        "longitude": -105.0274
      },
      "distanceMeters": 26997.4,
      "durationMs": 6974000,
      "drivingDurationMs": 5285637,
      "idlingDurationMs": 1688363,
      "fuelConsumedMl": 3433,
      "fuelConsumedGallons": 0.907,
      "maxSpeedMph": 32.3,
      "averageSpeedMph": 8.7,
      "safetyEvents": []
    },
    {
      "id": "trip_42031656_20250612_23084",
      "vehicleId": "42031656",
      "driverId": "20000022",
      "startMs": 1749697268000,
      "endMs": 1749699608000,
      "startAddress": "806 Payne Dale",
      "endAddress": "65823 Ann Club Apt. 993",
      "startCoords": {
        "latitude": 39.728379,
        "longitude": -105.075765
      },
      "endCoords": {
        "latitude": 39.758869,
        "longitude": -105.070333
      },
      "distanceMeters": 11287.0,
      "durationMs": 2340000,
      "drivingDurationMs": 1878360,
      "idlingDurationMs": 461640,
      "fuelConsumedMl": 1435,
      "fuelConsumedGallons": 0.379,
      "maxSpeedMph": 37.1,
      "averageSpeedMph": 10.8,
      "safetyEvents": []
    },
    {
      "id": "trip_42031656_20250612_23109",
      "vehicleId": "42031656",
      "driverId": "20000021",
      "startMs": 1749716316000,
      "endMs": 1749730600000,
      "startAddress": "41987 Thompson Divide Apt. 475",
      "endAddress": "014 Rice Isle Apt. 887",
      "startCoords": {
        "latitude": 39.735106,
        "longitude": -105.052053
      },
      "endCoords": {
        "latitude": 39.765724,
        "longitude": -104.911887
      },
      "distanceMeters": 67317.2,
      "durationMs": 14284000,
      "drivingDurationMs": 12792810,
      "idlingDurationMs": 1491190,
      "fuelConsumedMl": 8559,
      "fuelConsumedGallons": 2.261,
      "maxSpeedMph": 26.1,
      "averageSpeedMph": 10.5,
      "safetyEvents": []
    },
    {
      "id": "trip_42031656_20250612_23143",
      "vehicleId": "42031656",
      "driverId": "20000015",
      "startMs": 1749730618000,
      "endMs": 1749732478000,
      "startAddress": "59437 Cochran Trail",
      "endAddress": "86497 Hannah Mall",
      "startCoords": {
        "latitude": 39.800634,
        "longitude": -105.069305
      },
      "endCoords": {
        "latitude": 39.730483,
        "longitude": -104.94733
      },
      "distanceMeters": 10610.5,
      "durationMs": 1860000,
      "drivingDurationMs": 1418503,
      "idlingDurationMs": 441497,
      "fuelConsumedMl": 1348,
      "fuelConsumedGallons": 0.356,
      "maxSpeedMph": 32.4,
      "averageSpeedMph": 12.8,
      "safetyEvents": []
    },
    {
      "id": "trip_42031656_20250612_23178",
      "vehicleId": "42031656",
      "driverId": "20000009",
      "startMs": 1749750931000,
      "endMs": 1749754102000,
      "startAddress": "8121 Yang Ways Suite 725",
      "endAddress": "1575 John Hollow",
      "startCoords": {
        "latitude": 39.744498,
        "longitude": -105.078088
      },
      "endCoords": {
        "latitude": 39.777484,
        "longitude": -104.925275
      },
      "distanceMeters": 21248.1,
      "durationMs": 3171000,
      "drivingDurationMs": 2628466,
      "idlingDurationMs": 542534,
      "fuelConsumedMl": 2703,
      "fuelConsumedGallons": 0.714,
      "maxSpeedMph": 31.9,
      "averageSpeedMph": 15.0,
      "safetyEvents": []
    },
    {
      "id": "trip_42031656_20250612_23207",
      "vehicleId": "42031656",
      "driverId": "20000001",
      "startMs": 1749766695000,
      "endMs": 1749769014000,
      "startAddress": "9133 Ross Harbors",
      "endAddress": "62607 Carly Dale",
      "startCoords": {
        "latitude": 39.752558,
        "longitude": -104.901101
      },
      "endCoords": {
        "latitude": 39.780651,
        "longitude": -104.938993
      },
      "distanceMeters": 13597.8,
      "durationMs": 2319000,
      "drivingDurationMs": 1787446,
      "idlingDurationMs": 531554,
      "fuelConsumedMl": 1730,
      "fuelConsumedGallons": 0.457,
      "maxSpeedMph": 29.7,
      "averageSpeedMph": 13.1,
      "safetyEvents": []
    },
    {
      "id": "trip_42031656_20250613_23235",
      "vehicleId": "42031656",
      "driverId": "20000008",
      "startMs": 1749784839000,
      "endMs": 1749787119000,
      "startAddress": "51869 Williams Alley Suite 705",
      "endAddress": "617 Olsen Ways Apt. 570",
      "startCoords": {
        "latitude": 39.738981,
        "longitude": -105.009031
      },
      "endCoords": {
        "latitude": 39.810716,
        "longitude": -105.05344
      },
      "distanceMeters": 9813.0,
      "durationMs": 2280000,
      "drivingDurationMs": 1731684,
      "idlingDurationMs": 548316,
      "fuelConsumedMl": 1249,
      "fuelConsumedGallons": 0.33,
      "maxSpeedMph": 34.3,
      "averageSpeedMph": 9.6,
      "safetyEvents": []
    },
    {
      "id": "trip_42031656_20250613_23265",
      "vehicleId": "42031656",
      "driverId": "20000016",
      "startMs": 1749803702000,
      "endMs": 1749822491000,
      "startAddress": "448 Arthur Forge",
      "endAddress": "413 Amy Mountains",
      "startCoords": {
        "latitude": 39.723087,
        "longitude": -105.000753
      },
      "endCoords": {
        "latitude": 39.739635,
        "longitude": -104.972909
      },
      "distanceMeters": 124896.0,
      "durationMs": 18789000,
      "drivingDurationMs": 16464102,
      "idlingDurationMs": 2324898,
      "fuelConsumedMl": 15880,
      "fuelConsumedGallons": 4.195,
      "maxSpeedMph": 26.1,
      "averageSpeedMph": 14.9,
      "safetyEvents": []
    },
    {
      "id": "trip_42031656_20250613_23310",
      "vehicleId": "42031656",
      "driverId": "20000010",
      "startMs": 1749824794000,
      "endMs": 1749832314000,
      "startAddress": "24724 Haynes Forges",
      "endAddress": "4765 Harmon Island",
      "startCoords": {
        "latitude": 39.711127,
        "longitude": -104.941019
      },
      "endCoords": {
        "latitude": 39.76727,
        "longitude": -105.039146
      },
      "distanceMeters": 35246.3,
      "durationMs": 7520000,
      "drivingDurationMs": 6186988,
      "idlingDurationMs": 1333012,
      "fuelConsumedMl": 4482,
      "fuelConsumedGallons": 1.184,
      "maxSpeedMph": 39.8,
      "averageSpeedMph": 10.5,
      "safetyEvents": []
    },
    {
      "id": "trip_42031656_20250613_23336",
      "vehicleId": "42031656",
      "driverId": "20000006",
      "startMs": 1749838045000,
      "endMs": 1749857219000,
      "startAddress": "1369 Allen Court Apt. 423",
      "endAddress": "4084 Andrew Port",
      "startCoords": {
        "latitude": 39.726422,
        "longitude": -105.015612
      },
      "endCoords": {
        "latitude": 39.800075,
        "longitude": -104.977531
      },
      "distanceMeters": 92687.9,
      "durationMs": 19174000,
      "drivingDurationMs": 15886419,
      "idlingDurationMs": 3287581,
      "fuelConsumedMl": 11784,
      "fuelConsumedGallons": 3.113,
      "maxSpeedMph": 39.4,
      "averageSpeedMph": 10.8,
      "safetyEvents": []
    },
    {
      "id": "trip_42031656_20250613_23372",
      "vehicleId": "42031656",
      "driverId": "20000013",
      "startMs": 1749858413000,
      "endMs": 1749860033000,
      "startAddress": "21205 Juarez Harbor Suite 098",
      "endAddress": "431 Christopher Neck Suite 902",
      "startCoords": {
        "latitude": 39.818654,
        "longitude": -105.067844
      },
      "endCoords": {
        "latitude": 39.714943,
        "longitude": -104.924263
      },
      "distanceMeters": 6856.1,
      "durationMs": 1620000,
      "drivingDurationMs": 1288776,
      "idlingDurationMs": 331224,
      "fuelConsumedMl": 871,
      "fuelConsumedGallons": 0.23,
      "maxSpeedMph": 26.2,
      "averageSpeedMph": 9.5,
      "safetyEvents": []
    },
    {
      "id": "trip_42031656_20250614_23400",
      "vehicleId": "42031656",
      "driverId": "20000022",
      "startMs": 1749872255000,
      "endMs": 1749874175000,
      "startAddress": "42263 Miranda Mills",
      "endAddress": "364 Horton Terrace Suite 517",
      "startCoords": {
        "latitude": 39.808138,
        "longitude": -105.072337
      },
      "endCoords": {
        "latitude": 39.786274,
        "longitude": -104.913952
      },
      "distanceMeters": 10419.2,
      "durationMs": 1920000,
      "drivingDurationMs": 1665949,
      "idlingDurationMs": 254051,
      "fuelConsumedMl": 1325,
      "fuelConsumedGallons": 0.35,
      "maxSpeedMph": 25.9,
      "averageSpeedMph": 12.1,
      "safetyEvents": []
    },
    {
      "id": "trip_42031656_20250614_23429",
      "vehicleId": "42031656",
      "driverId": "20000014",
      "startMs": 1749894866000,
      "endMs": 1749910160000,
      "startAddress": "77856 Annette Island Suite 451",
      "endAddress": "6690 Teresa Run",
      "startCoords": {
        "latitude": 39.799801,
        "longitude": -104.994531
      },
      "endCoords": {
        "latitude": 39.687882,
        "longitude": -104.968375
      },
      "distanceMeters": 62697.7,
      "durationMs": 15294000,
      "drivingDurationMs": 12265215,
      "idlingDurationMs": 3028785,
      "fuelConsumedMl": 7972,
      "fuelConsumedGallons": 2.106,
      "maxSpeedMph": 32.3,
      "averageSpeedMph": 9.2,
      "safetyEvents": []
    },
    {
      "id": "trip_42031656_20250614_23464",
      "vehicleId": "42031656",
      "driverId": "20000016",
      "startMs": 1749911184000,
      "endMs": 1749913344000,
      "startAddress": "47789 Kelley Courts Apt. 075",
      "endAddress": "6991 Jennifer Mills",
      "startCoords": {
        "latitude": 39.705079,
        "longitude": -105.077497
      },
      "endCoords": {
        "latitude": 39.688903,
        "longitude": -105.032633
      },
      "distanceMeters": 9479.2,
      "durationMs": 2160000,
      "drivingDurationMs": 1649441,
      "idlingDurationMs": 510559,
      "fuelConsumedMl": 1204,
      "fuelConsumedGallons": 0.318,
      "maxSpeedMph": 26.7,
      "averageSpeedMph": 9.8,
      "safetyEvents": []
    },
    {
      "id": "trip_42031656_20250614_23494",
      "vehicleId": "42031656",
      "driverId": "20000008",
      "startMs": 1749926971000,
      "endMs": 1749928951000,
      "startAddress": "4155 Brown Terrace Apt. 260",
      "endAddress": "316 Zachary Course Suite 096",
      "startCoords": {
        "latitude": 39.724369,
        "longitude": -105.004179
      },
      "endCoords": {
        "latitude": 39.788997,
        "longitude": -105.077362
      },
      "distanceMeters": 9734.0,
      "durationMs": 1980000,
      "drivingDurationMs": 1513614,
      "idlingDurationMs": 466386,
      "fuelConsumedMl": 1238,
      "fuelConsumedGallons": 0.327,
      "maxSpeedMph": 39.7,
      "averageSpeedMph": 11.0,
      "safetyEvents": []
    },
    {
      "id": "trip_42031656_20250615_23525",
      "vehicleId": "42031656",
      "driverId": "20000001",
      "startMs": 1749952004000,
      "endMs": 1749953744000,
      "startAddress": "62056 Lynch Rest Suite 546",
      "endAddress": "321 Mendez Port Apt. 255",
      "startCoords": {
        "latitude": 39.704223,
        "longitude": -104.89969
      },
      "endCoords": {
        "latitude": 39.791953,
        "longitude": -104.999918
      },
      "distanceMeters": 12371.9,
      "durationMs": 1740000,
      "drivingDurationMs": 1528371,
      "idlingDurationMs": 211629,
      "fuelConsumedMl": 1575,
      "fuelConsumedGallons": 0.416,
      "maxSpeedMph": 37.4,
      "averageSpeedMph": 15.9,
      "safetyEvents": []
    },
    {
      "id": "trip_42031656_20250615_23554",
      "vehicleId": "42031656",
      "driverId": "20000007",
      "startMs": 1749978466000,
      "endMs": 1749980026000,
      "startAddress": "978 Jack Square Apt. 290",
      "endAddress": "2609 Davis Wells",
      "startCoords": {
        "latitude": 39.772945,
        "longitude": -105.032623
      },
      "endCoords": {
        "latitude": 39.702978,
        "longitude": -105.019319
      },
      "distanceMeters": 8376.3,
      "durationMs": 1560000,
      "drivingDurationMs": 1183223,
      "idlingDurationMs": 376777,
      "fuelConsumedMl": 1064,
      "fuelConsumedGallons": 0.281,
      "maxSpeedMph": 36.0,
      "averageSpeedMph": 12.0,
      "safetyEvents": []
    },
    {
      "id": "trip_42031656_20250615_23587",
      "vehicleId": "42031656",
      "driverId": "20000016",
      "startMs": 1750000800000,
      "endMs": 1750004996000,
      "startAddress": "69901 David Gardens",
      "endAddress": "57312 Atkinson Isle Apt. 878",
      "startCoords": {
        "latitude": 39.686051,
        "longitude": -105.042771
      },
      "endCoords": {
        "latitude": 39.735076,
        "longitude": -105.066367
      },
      "distanceMeters": 26738.1,
      "durationMs": 4196000,
      "drivingDurationMs": 3347874,
      "idlingDurationMs": 848126,
      "fuelConsumedMl": 3399,
      "fuelConsumedGallons": 0.898,
      "maxSpeedMph": 36.8,
      "averageSpeedMph": 14.3,
      "safetyEvents": []
    },
    {
      "id": "trip_42031656_20250615_23614",
      "vehicleId": "42031656",
      "driverId": "20000012",
      "startMs": 1750018462000,
      "endMs": 1750026097000,
      "startAddress": "57092 Sanchez Mills Suite 824",
      "endAddress": "49965 Mora Forges Apt. 818",
      "startCoords": {
        "latitude": 39.818463,
        "longitude": -104.996876
      },
      "endCoords": {
        "latitude": 39.787108,
        "longitude": -105.029194
      },
      "distanceMeters": 33614.7,
      "durationMs": 7635000,
      "drivingDurationMs": 6111562,
      "idlingDurationMs": 1523438,
      "fuelConsumedMl": 4274,
      "fuelConsumedGallons": 1.129,
      "maxSpeedMph": 39.1,
      "averageSpeedMph": 9.8,
      "safetyEvents": []
    },
    {
      "id": "trip_42031656_20250616_23643",
      "vehicleId": "42031656",
      "driverId": "20000019",
      "startMs": 1750059096000,
      "endMs": 1750061916000,
      "startAddress": "44680 Weber View Suite 954",
      "endAddress": "76527 Clinton Court Apt. 901",
      "startCoords": {
        "latitude": 39.770933,
        "longitude": -104.940696
      },
      "endCoords": {
        "latitude": 39.768831,
        "longitude": -104.921812
      },
      "distanceMeters": 14740.7,
      "durationMs": 2820000,
      "drivingDurationMs": 2426722,
      "idlingDurationMs": 393278,
      "fuelConsumedMl": 1874,
      "fuelConsumedGallons": 0.495,
      "maxSpeedMph": 31.5,
      "averageSpeedMph": 11.7,
      "safetyEvents": []
    },
    {
      "id": "trip_42031656_20250616_23676",
      "vehicleId": "42031656",
      "driverId": "20000017",
      "startMs": 1750077138000,
      "endMs": 1750085748000,
      "startAddress": "65622 Mikayla Grove Suite 869",
      "endAddress": "0808 Katie Road",
      "startCoords": {
        "latitude": 39.738965,
        "longitude": -104.972082
      },
      "endCoords": {
        "latitude": 39.770847,
        "longitude": -105.002213
      },
      "distanceMeters": 50496.0,
      "durationMs": 8610000,
      "drivingDurationMs": 6596405,
      "idlingDurationMs": 2013595,
      "fuelConsumedMl": 6420,
      "fuelConsumedGallons": 1.696,
      "maxSpeedMph": 31.2,
      "averageSpeedMph": 13.1,
      "safetyEvents": []
    },
    {
      "id": "trip_42031656_20250616_23705",
      "vehicleId": "42031656",
      "driverId": "20000018",
      "startMs": 1750090046000,
      "endMs": 1750095769000,
      "startAddress": "3270 David Passage Suite 366",
      "endAddress": "430 Leslie Hills Suite 807",
      "startCoords": {
        "latitude": 39.755421,
        "longitude": -105.036547
      },
      "endCoords": {
        "latitude": 39.742576,
        "longitude": -104.926187
      },
      "distanceMeters": 34466.5,
      "durationMs": 5723000,
      "drivingDurationMs": 4670302,
      "idlingDurationMs": 1052698,
      "fuelConsumedMl": 4384,
      "fuelConsumedGallons": 1.158,
      "maxSpeedMph": 38.8,
      "averageSpeedMph": 13.5,
      "safetyEvents": []
    },
    {
      "id": "trip_42031656_20250616_23729",
      "vehicleId": "42031656",
      "driverId": "20000022",
      "startMs": 1750103458000,
      "endMs": 1750122697000,
      "startAddress": "428 Lopez Junctions",
      "endAddress": "2142 Kirk Viaduct",
      "startCoords": {
        "latitude": 39.779648,
        "longitude": -105.033547
      },
      "endCoords": {
        "latitude": 39.779698,
        "longitude": -105.056237
      },
      "distanceMeters": 136009.1,
      "durationMs": 19239000,
      "drivingDurationMs": 16904486,
      "idlingDurationMs": 2334514,
      "fuelConsumedMl": 17292,
      "fuelConsumedGallons": 4.568,
      "maxSpeedMph": 30.6,
      "averageSpeedMph": 15.8,
      "safetyEvents": []
    },
    {
      "id": "trip_42031656_20250617_23765",
      "vehicleId": "42031656",
      "driverId": "20000022",
      "startMs": 1750128034000,
      "endMs": 1750136129000,
      "startAddress": "65869 Lee Points Suite 303",
      "endAddress": "1901 Gardner Island Apt. 963",
      "startCoords": {
        "latitude": 39.755229,
        "longitude": -105.051775
      },
      "endCoords": {
        "latitude": 39.761917,
        "longitude": -104.951363
      },
      "distanceMeters": 54851.9,
      "durationMs": 8095000,
      "drivingDurationMs": 6262851,
      "idlingDurationMs": 1832149,
      "fuelConsumedMl": 6973,
      "fuelConsumedGallons": 1.842,
      "maxSpeedMph": 28.1,
      "averageSpeedMph": 15.2,
      "safetyEvents": []
    },
    {
      "id": "trip_42031656_20250617_23799",
      "vehicleId": "42031656",
      "driverId": "20000013",
      "startMs": 1750149552000,
      "endMs": 1750151472000,
      "startAddress": "8640 Gonzalez Cove Suite 281",
      "endAddress": "7967 Holly Square Suite 135",
      "startCoords": {
        "latitude": 39.820025,
        "longitude": -105.061416
      },
      "endCoords": {
        "latitude": 39.779952,
        "longitude": -105.002364
      },
      "distanceMeters": 12247.6,
      "durationMs": 1920000,
      "drivingDurationMs": 1497744,
      "idlingDurationMs": 422256,
      "fuelConsumedMl": 1556,
      "fuelConsumedGallons": 0.411,
      "maxSpeedMph": 37.6,
      "averageSpeedMph": 14.3,
      "safetyEvents": []
    },
    {
      "id": "trip_42031656_20250617_23827",
      "vehicleId": "42031656",
      "driverId": "20000009",
      "startMs": 1750161312000,
      "endMs": 1750165160000,
      "startAddress": "964 Williamson Forge",
      "endAddress": "77657 Samuel Key Suite 466",
      "startCoords": {
        "latitude": 39.689496,
        "longitude": -105.085386
      },
      "endCoords": {
        "latitude": 39.785906,
        "longitude": -104.989388
      },
      "distanceMeters": 21861.8,
      "durationMs": 3848000,
      "drivingDurationMs": 2887451,
      "idlingDurationMs": 960549,
      "fuelConsumedMl": 2778,
      "fuelConsumedGallons": 0.734,
      "maxSpeedMph": 32.5,
      "averageSpeedMph": 12.7,
      "safetyEvents": []
    },
    {
      "id": "trip_42031656_20250617_23858",
      "vehicleId": "42031656",
      "driverId": "20000017",
      "startMs": 1750179531000,
      "endMs": 1750180791000,
      "startAddress": "66731 Price Mews",
      "endAddress": "094 Jeremy Points Suite 540",
      "startCoords": {
        "latitude": 39.731412,
        "longitude": -104.919457
      },
      "endCoords": {
        "latitude": 39.738025,
        "longitude": -105.03853
      },
      "distanceMeters": 8800.1,
      "durationMs": 1260000,
      "drivingDurationMs": 1019144,
      "idlingDurationMs": 240856,
      "fuelConsumedMl": 1120,
      "fuelConsumedGallons": 0.296,
      "maxSpeedMph": 33.8,
      "averageSpeedMph": 15.6,
      "safetyEvents": []
    },
    {
      "id": "trip_42031656_20250617_23885",
      "vehicleId": "42031656",
      "driverId": "20000015",
      "startMs": 1750189312000,
      "endMs": 1750191940000,
      "startAddress": "788 Christopher Prairie Suite 592",
      "endAddress": "88884 Anna Manors Apt. 588",
      "startCoords": {
        "latitude": 39.772283,
        "longitude": -104.960447
      },
      "endCoords": {
        "latitude": 39.731587,
        "longitude": -104.947888
      },
      "distanceMeters": 16532.4,
      "durationMs": 2628000,
      "drivingDurationMs": 2197224,
      "idlingDurationMs": 430776,
      "fuelConsumedMl": 2101,
      "fuelConsumedGallons": 0.555,
      "maxSpeedMph": 39.3,
      "averageSpeedMph": 14.1,
      "safetyEvents": []
    },
    {
      "id": "trip_42031656_20250618_23914",
      "vehicleId": "42031656",
      "driverId": "20000001",
      "startMs": 1750209461000,
      "endMs": 1750212187000,
      "startAddress": "80340 Thomas Mews Apt. 429",
      "endAddress": "81227 Valerie Mission",
      "startCoords": {
        "latitude": 39.7289,
        "longitude": -105.043526
      },
      "endCoords": {
        "latitude": 39.690211,
        "longitude": -104.945883
      },
      "distanceMeters": 18013.1,
      "durationMs": 2726000,
      "drivingDurationMs": 2176155,
      "idlingDurationMs": 549845,
      "fuelConsumedMl": 2290,
      "fuelConsumedGallons": 0.605,
      "maxSpeedMph": 37.8,
      "averageSpeedMph": 14.8,
      "safetyEvents": []
    },
    {
      "id": "trip_42031656_20250618_23946",
      "vehicleId": "42031656",
      "driverId": "20000020",
      "startMs": 1750230337000,
      "endMs": 1750241539000,
      "startAddress": "28338 Macdonald Street Apt. 786",
      "endAddress": "77046 Lee Plain",
      "startCoords": {
        "latitude": 39.688428,
        "longitude": -104.94387
      },
      "endCoords": {
        "latitude": 39.796155,
        "longitude": -104.98208
      },
      "distanceMeters": 71909.1,
      "durationMs": 11202000,
      "drivingDurationMs": 8987354,
      "idlingDurationMs": 2214646,
      "fuelConsumedMl": 9142,
      "fuelConsumedGallons": 2.415,
      "maxSpeedMph": 26.5,
      "averageSpeedMph": 14.4,
      "safetyEvents": []
    },
    {
      "id": "trip_42031656_20250618_23975",
      "vehicleId": "42031656",
      "driverId": "20000021",
      "startMs": 1750244542000,
      "endMs": 1750254980000,
      "startAddress": "930 Garrison Land",
      "endAddress": "1857 Johnny Circle",
      "startCoords": {
        "latitude": 39.715499,
        "longitude": -105.01003
      },
      "endCoords": {
        "latitude": 39.771748,
        "longitude": -104.976108
      },
      "distanceMeters": 60702.7,
      "durationMs": 10438000,
      "drivingDurationMs": 8700996,
      "idlingDurationMs": 1737004,
      "fuelConsumedMl": 7718,
      "fuelConsumedGallons": 2.039,
      "maxSpeedMph": 33.5,
      "averageSpeedMph": 13.0,
      "safetyEvents": []
    },
    {
      "id": "trip_42031656_20250618_24003",
      "vehicleId": "42031656",
      "driverId": "20000022",
      "startMs": 1750260155000,
      "endMs": 1750262195000,
      "startAddress": "80780 Cole Vista Apt. 693",
      "endAddress": "14136 John Loop Apt. 993",
      "startCoords": {
        "latitude": 39.826351,
        "longitude": -104.916951
      },
      "endCoords": {
        "latitude": 39.826035,
        "longitude": -104.92349
      },
      "distanceMeters": 9083.2,
      "durationMs": 2040000,
      "drivingDurationMs": 1550884,
      "idlingDurationMs": 489116,
      "fuelConsumedMl": 1155,
      "fuelConsumedGallons": 0.305,
      "maxSpeedMph": 35.1,
      "averageSpeedMph": 10.0,
      "safetyEvents": []
    },
    {
      "id": "trip_42031656_20250618_24028",
      "vehicleId": "42031656",
      "driverId": "20000011",
      "startMs": 1750272702000,
      "endMs": 1750282835000,
      "startAddress": "31714 Erin Squares",
      "endAddress": "846 Acosta Mission Suite 332",
      "startCoords": {
        "latitude": 39.825164,
        "longitude": -104.938054
      },
      "endCoords": {
        "latitude": 39.718423,
        "longitude": -104.939801
      },
      "distanceMeters": 56333.9,
      "durationMs": 10133000,
      "drivingDurationMs": 7858683,
      "idlingDurationMs": 2274317,
      "fuelConsumedMl": 7162,
      "fuelConsumedGallons": 1.892,
      "maxSpeedMph": 28.1,
      "averageSpeedMph": 12.4,
      "safetyEvents": []
    },
    {
      "id": "trip_42031656_20250618_24058",
      "vehicleId": "42031656",
      "driverId": "20000004",
      "startMs": 1750289968000,
      "endMs": 1750291768000,
      "startAddress": "4409 Miller Ford Apt. 602",
      "endAddress": "996 Miller Estates Apt. 083",
      "startCoords": {
        "latitude": 39.736675,
        "longitude": -105.00134
      },
      "endCoords": {
        "latitude": 39.750114,
        "longitude": -105.051788
      },
      "distanceMeters": 11098.2,
      "durationMs": 1800000,
      "drivingDurationMs": 1373050,
      "idlingDurationMs": 426950,
      "fuelConsumedMl": 1412,
      "fuelConsumedGallons": 0.373,
      "maxSpeedMph": 29.9,
      "averageSpeedMph": 13.8,
      "safetyEvents": []
    },
    {
      "id": "trip_42031656_20250619_24089",
      "vehicleId": "42031656",
      "driverId": "20000017",
      "startMs": 1750308803000,
      "endMs": 1750310483000,
      "startAddress": "40084 Edward Heights",
      "endAddress": "9015 Cunningham Mill",
      "startCoords": {
        "latitude": 39.806089,
        "longitude": -105.054562
      },
      "endCoords": {
        "latitude": 39.702517,
        "longitude": -104.974339
      },
      "distanceMeters": 7666.5,
      "durationMs": 1680000,
      "drivingDurationMs": 1420466,
      "idlingDurationMs": 259534,
      "fuelConsumedMl": 973,
      "fuelConsumedGallons": 0.257,
      "maxSpeedMph": 35.1,
      "averageSpeedMph": 10.2,
      "safetyEvents": []
    },
    {
      "id": "trip_42031656_20250619_24118",
      "vehicleId": "42031656",
      "driverId": "20000018",
      "startMs": 1750322540000,
      "endMs": 1750327439000,
      "startAddress": "892 Greg Village",
      "endAddress": "24136 Crystal Road",
      "startCoords": {
        "latitude": 39.771333,
        "longitude": -105.028612
      },
      "endCoords": {
        "latitude": 39.79421,
        "longitude": -105.044791
      },
      "distanceMeters": 22131.2,
      "durationMs": 4899000,
      "drivingDurationMs": 3867201,
      "idlingDurationMs": 1031799,
      "fuelConsumedMl": 2813,
      "fuelConsumedGallons": 0.743,
      "maxSpeedMph": 38.2,
      "averageSpeedMph": 10.1,
      "safetyEvents": []
    },
    {
      "id": "trip_42031656_20250619_24147",
      "vehicleId": "42031656",
      "driverId": "20000008",
      "startMs": 1750338018000,
      "endMs": 1750341243000,
      "startAddress": "53057 Lamb Mill",
      "endAddress": "7808 Carolyn Ridge Apt. 601",
      "startCoords": {
        "latitude": 39.731552,
        "longitude": -105.082844
      },
      "endCoords": {
        "latitude": 39.732935,
        "longitude": -104.91507
      },
      "distanceMeters": 18301.0,
      "durationMs": 3225000,
      "drivingDurationMs": 2645712,
      "idlingDurationMs": 579288,
      "fuelConsumedMl": 2328,
      "fuelConsumedGallons": 0.615,
      "maxSpeedMph": 38.1,
      "averageSpeedMph": 12.7,
      "safetyEvents": []
    },
    {
      "id": "trip_42031656_20250619_24175",
      "vehicleId": "42031656",
      "driverId": "20000011",
      "startMs": 1750355040000,
      "endMs": 1750357140000,
      "startAddress": "7282 Matthew Forks Suite 000",
      "endAddress": "65051 Alicia Trace Suite 202",
      "startCoords": {
        "latitude": 39.718937,
        "longitude": -104.928457
      },
      "endCoords": {
        "latitude": 39.738999,
        "longitude": -105.06859
      },
      "distanceMeters": 13402.5,
      "durationMs": 2100000,
      "drivingDurationMs": 1800195,
      "idlingDurationMs": 299805,
      "fuelConsumedMl": 1703,
      "fuelConsumedGallons": 0.45,
      "maxSpeedMph": 34.5,
      "averageSpeedMph": 14.3,
      "safetyEvents": []
    },
    {
      "id": "trip_42031656_20250619_24204",
      "vehicleId": "42031656",
      "driverId": "20000002",
      "startMs": 1750374392000,
      "endMs": 1750381745000,
      "startAddress": "42181 Adams Extensions",
      "endAddress": "710 Williams Via",
      "startCoords": {
        "latitude": 39.767622,
        "longitude": -105.048358
      },
      "endCoords": {
        "latitude": 39.741232,
        "longitude": -104.913315
      },
      "distanceMeters": 38210.3,
      "durationMs": 7353000,
      "drivingDurationMs": 6071429,
      "idlingDurationMs": 1281571,
      "fuelConsumedMl": 4857,
      "fuelConsumedGallons": 1.283,
      "maxSpeedMph": 32.1,
      "averageSpeedMph": 11.6,
      "safetyEvents": []
    },
    {
      "id": "trip_42031656_20250620_24235",
      "vehicleId": "42031656",
      "driverId": "20000018",
      "startMs": 1750395624000,
      "endMs": 1750402044000,
      "startAddress": "3463 Todd Trafficway Suite 777",
      "endAddress": "4319 George Camp Suite 352",
      "startCoords": {
        "latitude": 39.803835,
        "longitude": -104.924441
      },
      "endCoords": {
        "latitude": 39.777051,
        "longitude": -104.98405
      },
      "distanceMeters": 36876.0,
      "durationMs": 6420000,
      "drivingDurationMs": 5005748,
      "idlingDurationMs": 1414252,
      "fuelConsumedMl": 4690,
      "fuelConsumedGallons": 1.239,
      "maxSpeedMph": 32.3,
      "averageSpeedMph": 12.8,
      "safetyEvents": []
    },
    {
      "id": "trip_42031656_20250620_24261",
      "vehicleId": "42031656",
      "driverId": "20000005",
      "startMs": 1750410785000,
      "endMs": 1750424920000,
      "startAddress": "108 Sara Ridges Apt. 886",
      "endAddress": "529 Ashley Lodge",
      "startCoords": {
        "latitude": 39.81142,
        "longitude": -104.979123
      },
      "endCoords": {
        "latitude": 39.770404,
        "longitude": -104.92323
      },
      "distanceMeters": 81523.5,
      "durationMs": 14135000,
      "drivingDurationMs": 12341512,
      "idlingDurationMs": 1793488,
      "fuelConsumedMl": 10364,
      "fuelConsumedGallons": 2.738,
      "maxSpeedMph": 29.2,
      "averageSpeedMph": 12.9,
      "safetyEvents": []
    },
    {
      "id": "trip_42031656_20250620_24292",
      "vehicleId": "42031656",
      "driverId": "20000018",
      "startMs": 1750429198000,
      "endMs": 1750433531000,
      "startAddress": "580 Roberts Curve",
      "endAddress": "1917 Yates Freeway Suite 770",
      "startCoords": {
        "latitude": 39.735899,
        "longitude": -104.901591
      },
      "endCoords": {
        "latitude": 39.786859,
        "longitude": -105.065809
      },
      "distanceMeters": 19710.8,
      "durationMs": 4333000,
      "drivingDurationMs": 3656556,
      "idlingDurationMs": 676444,
      "fuelConsumedMl": 2506,
      "fuelConsumedGallons": 0.662,
      "maxSpeedMph": 29.4,
      "averageSpeedMph": 10.2,
      "safetyEvents": []
    },
    {
      "id": "trip_42031656_20250620_24324",
      "vehicleId": "42031656",
      "driverId": "20000017",
      "startMs": 1750445211000,
      "endMs": 1750452470000,
      "startAddress": "559 Francisco Club",
      "endAddress": "382 Mckenzie Island",
      "startCoords": {
        "latitude": 39.734457,
        "longitude": -105.069755
      },
      "endCoords": {
        "latitude": 39.721336,
        "longitude": -105.058442
      },
      "distanceMeters": 53449.8,
      "durationMs": 7259000,
      "drivingDurationMs": 6499502,
      "idlingDurationMs": 759498,
      "fuelConsumedMl": 6795,
      "fuelConsumedGallons": 1.795,
      "maxSpeedMph": 28.9,
      "averageSpeedMph": 16.5,
      "safetyEvents": []
    },
    {
      "id": "trip_42031656_20250620_24355",
      "vehicleId": "42031656",
      "driverId": "20000011",
      "startMs": 1750463596000,
      "endMs": 1750465876000,
      "startAddress": "3820 Thomas Mount",
      "endAddress": "3161 Austin Station Apt. 821",
      "startCoords": {
        "latitude": 39.697879,
        "longitude": -105.071513
      },
      "endCoords": {
        "latitude": 39.692141,
        "longitude": -105.052428
      },
      "distanceMeters": 10190.1,
      "durationMs": 2280000,
      "drivingDurationMs": 1806262,
      "idlingDurationMs": 473738,
      "fuelConsumedMl": 1295,
      "fuelConsumedGallons": 0.342,
      "maxSpeedMph": 30.2,
      "averageSpeedMph": 10.0,
      "safetyEvents": []
    },
    {
      "id": "trip_42031656_20250621_24385",
      "vehicleId": "42031656",
      "driverId": "20000012",
      "startMs": 1750481351000,
      "endMs": 1750483811000,
      "startAddress": "77182 Tanya Springs Suite 636",
      "endAddress": "05856 Trevino Grove",
      "startCoords": {
        "latitude": 39.806582,
        "longitude": -104.975693
      },
      "endCoords": {
        "latitude": 39.783973,
        "longitude": -105.05259
      },
      "distanceMeters": 15944.3,
      "durationMs": 2460000,
      "drivingDurationMs": 2083599,
      "idlingDurationMs": 376401,
      "fuelConsumedMl": 2029,
      "fuelConsumedGallons": 0.536,
      "maxSpeedMph": 29.7,
      "averageSpeedMph": 14.5,
      "safetyEvents": []
    },
    {
      "id": "trip_42031656_20250621_24412",
      "vehicleId": "42031656",
      "driverId": "20000013",
      "startMs": 1750497957000,
      "endMs": 1750499517000,
      "startAddress": "706 Evans Lodge",
      "endAddress": "48185 Williams Highway",
      "startCoords": {
        "latitude": 39.774149,
        "longitude": -105.055035
      },
      "endCoords": {
        "latitude": 39.780383,
        "longitude": -105.046637
      },
      "distanceMeters": 9530.7,
      "durationMs": 1560000,
      "drivingDurationMs": 1277667,
      "idlingDurationMs": 282333,
      "fuelConsumedMl": 1211,
      "fuelConsumedGallons": 0.32,
      "maxSpeedMph": 27.5,
      "averageSpeedMph": 13.7,
      "safetyEvents": []
    },
    {
      "id": "trip_42031656_20250621_24444",
      "vehicleId": "42031656",
      "driverId": "20000018",
      "startMs": 1750515012000,
      "endMs": 1750525420000,
      "startAddress": "407 Nicholas Spurs",
      "endAddress": "804 Myers Port",
      "startCoords": {
        "latitude": 39.70946,
        "longitude": -104.977413
      },
      "endCoords": {
        "latitude": 39.802389,
        "longitude": -105.005465
      },
      "distanceMeters": 51645.4,
      "durationMs": 10408000,
      "drivingDurationMs": 8368513,
      "idlingDurationMs": 2039487,
      "fuelConsumedMl": 6568,
      "fuelConsumedGallons": 1.735,
      "maxSpeedMph": 38.1,
      "averageSpeedMph": 11.1,
      "safetyEvents": []
    },
    {
      "id": "trip_42031656_20250621_24481",
      "vehicleId": "42031656",
      "driverId": "20000019",
      "startMs": 1750535726000,
      "endMs": 1750542315000,
      "startAddress": "136 Sanchez Fields Suite 959",
      "endAddress": "6066 Edgar Dale",
      "startCoords": {
        "latitude": 39.800815,
        "longitude": -104.914895
      },
      "endCoords": {
        "latitude": 39.68842,
        "longitude": -105.038911
      },
      "distanceMeters": 33762.9,
      "durationMs": 6589000,
      "drivingDurationMs": 4951333,
      "idlingDurationMs": 1637667,
      "fuelConsumedMl": 4293,
      "fuelConsumedGallons": 1.134,
      "maxSpeedMph": 34.0,
      "averageSpeedMph": 11.5,
      "safetyEvents": []
    },
    {
      "id": "trip_42031656_20250622_24507",
      "vehicleId": "42031656",
      "driverId": "20000020",
      "startMs": 1750556772000,
      "endMs": 1750558332000,
      "startAddress": "8136 Riggs Roads Suite 816",
      "endAddress": "410 Anne Ville",
      "startCoords": {
        "latitude": 39.80614,
        "longitude": -105.035867
      },
      "endCoords": {
        "latitude": 39.77901,
        "longitude": -104.950437
      },
      "distanceMeters": 7045.8,
      "durationMs": 1560000,
      "drivingDurationMs": 1296361,
      "idlingDurationMs": 263639,
      "fuelConsumedMl": 897,
      "fuelConsumedGallons": 0.237,
      "maxSpeedMph": 35.7,
      "averageSpeedMph": 10.1,
      "safetyEvents": []
    },
    {
      "id": "trip_42031656_20250622_24536",
      "vehicleId": "42031656",
      "driverId": "20000022",
      "startMs": 1750585126000,
      "endMs": 1750586986000,
      "startAddress": "9378 Robert Via",
      "endAddress": "59928 Lori Walks",
      "startCoords": {
        "latitude": 39.749342,
        "longitude": -104.912319
      },
      "endCoords": {
        "latitude": 39.753964,
        "longitude": -104.94366
      },
      "distanceMeters": 13157.5,
      "durationMs": 1860000,
      "drivingDurationMs": 1533880,
      "idlingDurationMs": 326120,
      "fuelConsumedMl": 1673,
      "fuelConsumedGallons": 0.442,
      "maxSpeedMph": 32.7,
      "averageSpeedMph": 15.8,
      "safetyEvents": []
    },
    {
      "id": "trip_42031656_20250622_24565",
      "vehicleId": "42031656",
      "driverId": "20000010",
      "startMs": 1750606198000,
      "endMs": 1750608598000,
      "startAddress": "999 John Coves",
      "endAddress": "97464 Lisa Roads Suite 938",
      "startCoords": {
        "latitude": 39.68774,
        "longitude": -105.011168
      },
      "endCoords": {
        "latitude": 39.791364,
        "longitude": -104.972421
      },
      "distanceMeters": 11739.6,
      "durationMs": 2400000,
      "drivingDurationMs": 1892514,
      "idlingDurationMs": 507486,
      "fuelConsumedMl": 1491,
      "fuelConsumedGallons": 0.394,
      "maxSpeedMph": 36.6,
      "averageSpeedMph": 10.9,
      "safetyEvents": []
    },
    {
      "id": "trip_42031656_20250622_24593",
      "vehicleId": "42031656",
      "driverId": "20000022",
      "startMs": 1750630946000,
      "endMs": 1750632686000,
      "startAddress": "63330 Jackson Lights Suite 563",
      "endAddress": "27257 James Junctions Suite 698",
      "startCoords": {
        "latitude": 39.786165,
        "longitude": -105.069559
      },
      "endCoords": {
        "latitude": 39.73935,
        "longitude": -104.901395
      },
      "distanceMeters": 8897.4,
      "durationMs": 1740000,
      "drivingDurationMs": 1430413,
      "idlingDurationMs": 309587,
      "fuelConsumedMl": 1132,
      "fuelConsumedGallons": 0.299,
      "maxSpeedMph": 30.4,
      "averageSpeedMph": 11.4,
      "safetyEvents": []
    },
    {
      "id": "trip_42031656_20250623_24624",
      "vehicleId": "42031656",
      "driverId": "20000020",
      "startMs": 1750672630000,
      "endMs": 1750677022000,
      "startAddress": "08283 Conner Key",
      "endAddress": "575 Kayla Lakes Apt. 426",
      "startCoords": {
        "latitude": 39.685823,
        "longitude": -104.958942
      },
      "endCoords": {
        "latitude": 39.823866,
        "longitude": -105.019933
      },
      "distanceMeters": 29384.9,
      "durationMs": 4392000,
      "drivingDurationMs": 3625750,
      "idlingDurationMs": 766250,
      "fuelConsumedMl": 3736,
      "fuelConsumedGallons": 0.987,
      "maxSpeedMph": 32.9,
      "averageSpeedMph": 15.0,
      "safetyEvents": []
    },
    {
      "id": "trip_42031656_20250623_24652",
      "vehicleId": "42031656",
      "driverId": "20000017",
      "startMs": 1750687093000,
      "endMs": 1750695726000,
      "startAddress": "0872 Garner Mountains Suite 833",
      "endAddress": "34873 Dale Mountain Suite 497",
      "startCoords": {
        "latitude": 39.703916,
        "longitude": -105.000208
      },
      "endCoords": {
        "latitude": 39.7942,
        "longitude": -104.919823
      },
      "distanceMeters": 42068.3,
      "durationMs": 8633000,
      "drivingDurationMs": 6835640,
      "idlingDurationMs": 1797360,
      "fuelConsumedMl": 5349,
      "fuelConsumedGallons": 1.413,
      "maxSpeedMph": 28.7,
      "averageSpeedMph": 10.9,
      "safetyEvents": []
    },
    {
      "id": "trip_42031656_20250623_24676",
      "vehicleId": "42031656",
      "driverId": "20000007",
      "startMs": 1750701399000,
      "endMs": 1750712819000,
      "startAddress": "8196 Peter Forks Suite 024",
      "endAddress": "740 John Parkway Apt. 772",
      "startCoords": {
        "latitude": 39.795518,
        "longitude": -105.068201
      },
      "endCoords": {
        "latitude": 39.708259,
        "longitude": -105.074463
      },
      "distanceMeters": 68410.1,
      "durationMs": 11420000,
      "drivingDurationMs": 8804647,
      "idlingDurationMs": 2615353,
      "fuelConsumedMl": 8699,
      "fuelConsumedGallons": 2.298,
      "maxSpeedMph": 39.5,
      "averageSpeedMph": 13.4,
      "safetyEvents": []
    },
    {
      "id": "trip_42031656_20250623_24709",
      "vehicleId": "42031656",
      "driverId": "20000009",
      "startMs": 1750720305000,
      "endMs": 1750739619000,
      "startAddress": "25916 Smith Ferry",
      "endAddress": "37463 Collins Stravenue Apt. 173",
      "startCoords": {
        "latitude": 39.730872,
        "longitude": -105.028937
      },
      "endCoords": {
        "latitude": 39.691283,
        "longitude": -105.052755
      },
      "distanceMeters": 88721.0,
      "durationMs": 19314000,
      "drivingDurationMs": 14791926,
      "idlingDurationMs": 4522074,
      "fuelConsumedMl": 11281,
      "fuelConsumedGallons": 2.98,
      "maxSpeedMph": 38.7,
      "averageSpeedMph": 10.3,
      "safetyEvents": []
    },
    {
      "id": "trip_42031656_20250624_24740",
      "vehicleId": "42031656",
      "driverId": "20000001",
      "startMs": 1750740440000,
      "endMs": 1750742660000,
      "startAddress": "6082 Medina Port Apt. 470",
      "endAddress": "47927 Hamilton Estates Apt. 307",
      "startCoords": {
        "latitude": 39.782638,
        "longitude": -104.925788
      },
      "endCoords": {
        "latitude": 39.708263,
        "longitude": -105.010747
      },
      "distanceMeters": 10351.1,
      "durationMs": 2220000,
      "drivingDurationMs": 1705472,
      "idlingDurationMs": 514528,
      "fuelConsumedMl": 1317,
      "fuelConsumedGallons": 0.348,
      "maxSpeedMph": 28.0,
      "averageSpeedMph": 10.4,
      "safetyEvents": []
    },
    {
      "id": "trip_42031656_20250624_24771",
      "vehicleId": "42031656",
      "driverId": "20000005",
      "startMs": 1750758060000,
      "endMs": 1750763522000,
      "startAddress": "87699 Tabitha Plaza",
      "endAddress": "88021 Hunt Crossroad Apt. 653",
      "startCoords": {
        "latitude": 39.793188,
        "longitude": -104.950721
      },
      "endCoords": {
        "latitude": 39.69255,
        "longitude": -104.945057
      },
      "distanceMeters": 37404.0,
      "durationMs": 5462000,
      "drivingDurationMs": 4447929,
      "idlingDurationMs": 1014071,
      "fuelConsumedMl": 4754,
      "fuelConsumedGallons": 1.256,
      "maxSpeedMph": 30.4,
      "averageSpeedMph": 15.3,
      "safetyEvents": []
    },
    {
      "id": "trip_42031656_20250624_24800",
      "vehicleId": "42031656",
      "driverId": "20000017",
      "startMs": 1750772717000,
      "endMs": 1750774577000,
      "startAddress": "84420 Khan Cape",
      "endAddress": "64372 Smith Freeway Suite 708",
      "startCoords": {
        "latitude": 39.730587,
        "longitude": -105.071145
      },
      "endCoords": {
        "latitude": 39.799968,
        "longitude": -104.943012
      },
      "distanceMeters": 10674.1,
      "durationMs": 1860000,
      "drivingDurationMs": 1460686,
      "idlingDurationMs": 399314,
      "fuelConsumedMl": 1359,
      "fuelConsumedGallons": 0.359,
      "maxSpeedMph": 37.0,
      "averageSpeedMph": 12.8,
      "safetyEvents": []
    },
    {
      "id": "trip_42031656_20250624_24828",
      "vehicleId": "42031656",
      "driverId": "20000014",
      "startMs": 1750785957000,
      "endMs": 1750788357000,
      "startAddress": "816 Brown Prairie",
      "endAddress": "35990 Parker Shoals",
      "startCoords": {
        "latitude": 39.797401,
        "longitude": -104.927873
      },
      "endCoords": {
        "latitude": 39.68643,
        "longitude": -105.048704
      },
      "distanceMeters": 17858.8,
      "durationMs": 2400000,
      "drivingDurationMs": 2065862,
      "idlingDurationMs": 334138,
      "fuelConsumedMl": 2271,
      "fuelConsumedGallons": 0.6,
      "maxSpeedMph": 27.3,
      "averageSpeedMph": 16.6,
      "safetyEvents": []
    },
    {
      "id": "trip_42031656_20250624_24857",
      "vehicleId": "42031656",
      "driverId": "20000004",
      "startMs": 1750798681000,
      "endMs": 1750801381000,
      "startAddress": "954 Eric Loop Suite 428",
      "endAddress": "9077 Herman Groves Suite 964",
      "startCoords": {
        "latitude": 39.780038,
        "longitude": -104.914747
      },
      "endCoords": {
        "latitude": 39.759075,
        "longitude": -105.029128
      },
      "distanceMeters": 16658.7,
      "durationMs": 2700000,
      "drivingDurationMs": 2130685,
      "idlingDurationMs": 569315,
      "fuelConsumedMl": 2120,
      "fuelConsumedGallons": 0.56,
      "maxSpeedMph": 39.7,
      "averageSpeedMph": 13.8,
      "safetyEvents": []
    },
    {
      "id": "trip_42031656_20250625_24891",
      "vehicleId": "42031656",
      "driverId": "20000004",
      "startMs": 1750816151000,
      "endMs": 1750825418000,
      "startAddress": "371 Jose Crossing Suite 167",
      "endAddress": "8292 Cameron Pike Suite 823",
      "startCoords": {
        "latitude": 39.741576,
        "longitude": -104.912515
      },
      "endCoords": {
        "latitude": 39.781379,
        "longitude": -105.01086
      },
      "distanceMeters": 45253.4,
      "durationMs": 9267000,
      "drivingDurationMs": 7251983,
      "idlingDurationMs": 2015017,
      "fuelConsumedMl": 5754,
      "fuelConsumedGallons": 1.52,
      "maxSpeedMph": 32.0,
      "averageSpeedMph": 10.9,
      "safetyEvents": []
    },
    {
      "id": "trip_42031656_20250625_24918",
      "vehicleId": "42031656",
      "driverId": "20000022",
      "startMs": 1750831474000,
      "endMs": 1750833814000,
      "startAddress": "222 Nathan River Apt. 108",
      "endAddress": "43721 White Trail Suite 519",
      "startCoords": {
        "latitude": 39.779734,
        "longitude": -105.055146
      },
      "endCoords": {
        "latitude": 39.81432,
        "longitude": -105.020297
      },
      "distanceMeters": 16300.6,
      "durationMs": 2340000,
      "drivingDurationMs": 2067254,
      "idlingDurationMs": 272746,
      "fuelConsumedMl": 2071,
      "fuelConsumedGallons": 0.547,
      "maxSpeedMph": 35.9,
      "averageSpeedMph": 15.6,
      "safetyEvents": []
    },
    {
      "id": "trip_42031656_20250625_24951",
      "vehicleId": "42031656",
      "driverId": "20000013",
      "startMs": 1750851578000,
      "endMs": 1750857148000,
      "startAddress": "0678 Mccormick Greens",
      "endAddress": "0009 David Ways",
      "startCoords": {
        "latitude": 39.80188,
        "longitude": -105.044354
      },
      "endCoords": {
        "latitude": 39.809033,
        "longitude": -104.997903
      },
      "distanceMeters": 29615.9,
      "durationMs": 5570000,
      "drivingDurationMs": 4509341,
      "idlingDurationMs": 1060659,
      "fuelConsumedMl": 3766,
      "fuelConsumedGallons": 0.995,
      "maxSpeedMph": 29.5,
      "averageSpeedMph": 11.9,
      "safetyEvents": []
    },
    {
      "id": "trip_42031656_20250625_24976",
      "vehicleId": "42031656",
      "driverId": "20000013",
      "startMs": 1750862205000,
      "endMs": 1750864125000,
      "startAddress": "375 Randy Flats Suite 064",
      "endAddress": "266 Daniel Plaza Apt. 547",
      "startCoords": {
        "latitude": 39.724973,
        "longitude": -104.976728
      },
      "endCoords": {
        "latitude": 39.695172,
        "longitude": -105.082684
      },
      "distanceMeters": 12447.5,
      "durationMs": 1920000,
      "drivingDurationMs": 1707485,
      "idlingDurationMs": 212515,
      "fuelConsumedMl": 1582,
      "fuelConsumedGallons": 0.418,
      "maxSpeedMph": 33.5,
      "averageSpeedMph": 14.5,
      "safetyEvents": []
    },
    {
      "id": "trip_42031656_20250625_25008",
      "vehicleId": "42031656",
      "driverId": "20000009",
      "startMs": 1750878291000,
      "endMs": 1750885083000,
      "startAddress": "19399 Villarreal Shores",
      "endAddress": "5626 Robert Ways",
      "startCoords": {
        "latitude": 39.792916,
        "longitude": -105.044631
      },
      "endCoords": {
        "latitude": 39.804749,
        "longitude": -104.982008
      },
      "distanceMeters": 39953.0,
      "durationMs": 6792000,
      "drivingDurationMs": 5321237,
      "idlingDurationMs": 1470763,
      "fuelConsumedMl": 5080,
      "fuelConsumedGallons": 1.342,
      "maxSpeedMph": 36.1,
      "averageSpeedMph": 13.2,
      "safetyEvents": []
    },
    {
      "id": "trip_42031656_20250626_25037",
      "vehicleId": "42031656",
      "driverId": "20000013",
      "startMs": 1750897609000,
      "endMs": 1750899829000,
      "startAddress": "71776 Hanson Circles Suite 168",
      "endAddress": "730 Timothy Loaf",
      "startCoords": {
        "latitude": 39.808685,
        "longitude": -105.077454
      },
      "endCoords": {
        "latitude": 39.758221,
        "longitude": -104.930106
      },
      "distanceMeters": 9160.8,
      "durationMs": 2220000,
      "drivingDurationMs": 1829164,
      "idlingDurationMs": 390836,
      "fuelConsumedMl": 1166,
      "fuelConsumedGallons": 0.308,
      "maxSpeedMph": 30.8,
      "averageSpeedMph": 9.2,
      "safetyEvents": []
    },
    {
      "id": "trip_42031656_20250626_25067",
      "vehicleId": "42031656",
      "driverId": "20000004",
      "startMs": 1750913090000,
      "endMs": 1750914410000,
      "startAddress": "40172 Bryan Course Suite 102",
      "endAddress": "50767 Craig Village",
      "startCoords": {
        "latitude": 39.69866,
        "longitude": -104.974044
      },
      "endCoords": {
        "latitude": 39.820394,
        "longitude": -105.043512
      },
      "distanceMeters": 6118.4,
      "durationMs": 1320000,
      "drivingDurationMs": 1168958,
      "idlingDurationMs": 151042,
      "fuelConsumedMl": 780,
      "fuelConsumedGallons": 0.206,
      "maxSpeedMph": 34.4,
      "averageSpeedMph": 10.4,
      "safetyEvents": []
    },
    {
      "id": "trip_42031656_20250626_25095",
      "vehicleId": "42031656",
      "driverId": "20000010",
      "startMs": 1750929061000,
      "endMs": 1750952444000,
      "startAddress": "211 Laura Pine Apt. 367",
      "endAddress": "9694 Jeremy Plain",
      "startCoords": {
        "latitude": 39.708161,
        "longitude": -105.001574
      },
      "endCoords": {
        "latitude": 39.825123,
        "longitude": -105.037127
      },
      "distanceMeters": 120253.9,
      "durationMs": 23383000,
      "drivingDurationMs": 17825571,
      "idlingDurationMs": 5557429,
      "fuelConsumedMl": 15289,
      "fuelConsumedGallons": 4.039,
      "maxSpeedMph": 33.9,
      "averageSpeedMph": 11.5,
      "safetyEvents": []
    },
    {
      "id": "trip_42031656_20250626_25149",
      "vehicleId": "42031656",
      "driverId": "20000015",
      "startMs": 1750953131000,
      "endMs": 1750968587000,
      "startAddress": "4622 Patrick Islands Apt. 318",
      "endAddress": "70913 Graham Vista",
      "startCoords": {
        "latitude": 39.772321,
        "longitude": -105.074034
      },
      "endCoords": {
        "latitude": 39.805318,
        "longitude": -105.024564
      },
      "distanceMeters": 74296.2,
      "durationMs": 15456000,
      "drivingDurationMs": 11775245,
      "idlingDurationMs": 3680755,
      "fuelConsumedMl": 9445,
      "fuelConsumedGallons": 2.495,
      "maxSpeedMph": 39.5,
      "averageSpeedMph": 10.8,
      "safetyEvents": []
    },
    {
      "id": "trip_42031656_20250626_25180",
      "vehicleId": "42031656",
      "driverId": "20000005",
      "startMs": 1750969291000,
      "endMs": 1750972051000,
      "startAddress": "2031 Robert Trafficway Suite 088",
      "endAddress": "923 Adkins Lodge Apt. 997",
      "startCoords": {
        "latitude": 39.791427,
        "longitude": -104.917892
      },
      "endCoords": {
        "latitude": 39.702248,
        "longitude": -104.95147
      },
      "distanceMeters": 18896.1,
      "durationMs": 2760000,
      "drivingDurationMs": 2374491,
      "idlingDurationMs": 385509,
      "fuelConsumedMl": 2404,
      "fuelConsumedGallons": 0.635,
      "maxSpeedMph": 31.7,
      "averageSpeedMph": 15.3,
      "safetyEvents": []
    },
    {
      "id": "trip_42031656_20250627_25207",
      "vehicleId": "42031656",
      "driverId": "20000002",
      "startMs": 1750987247000,
      "endMs": 1750989227000,
      "startAddress": "610 Mary Freeway Apt. 797",
      "endAddress": "635 Jessica Track",
      "startCoords": {
        "latitude": 39.795085,
        "longitude": -104.97112
      },
      "endCoords": {
        "latitude": 39.805049,
        "longitude": -104.998184
      },
      "distanceMeters": 15308.2,
      "durationMs": 1980000,
      "drivingDurationMs": 1743970,
      "idlingDurationMs": 236030,
      "fuelConsumedMl": 1946,
      "fuelConsumedGallons": 0.514,
      "maxSpeedMph": 31.4,
      "averageSpeedMph": 17.3,
      "safetyEvents": []
    },
    {
      "id": "trip_42031656_20250627_25236",
      "vehicleId": "42031656",
      "driverId": "20000009",
      "startMs": 1751005217000,
      "endMs": 1751009668000,
      "startAddress": "0631 Kristina Orchard Apt. 011",
      "endAddress": "2717 Fowler Port",
      "startCoords": {
        "latitude": 39.803892,
        "longitude": -105.018183
      },
      "endCoords": {
        "latitude": 39.767746,
        "longitude": -105.040946
      },
      "distanceMeters": 21352.8,
      "durationMs": 4451000,
      "drivingDurationMs": 3348725,
      "idlingDurationMs": 1102275,
      "fuelConsumedMl": 2714,
      "fuelConsumedGallons": 0.717,
      "maxSpeedMph": 32.9,
      "averageSpeedMph": 10.7,
      "safetyEvents": []
    },
    {
      "id": "trip_42031656_20250627_25264",
      "vehicleId": "42031656",
      "driverId": "20000001",
      "startMs": 1751019793000,
      "endMs": 1751027439000,
      "startAddress": "63912 Garcia Orchard",
      "endAddress": "1033 Jennifer Shoals Apt. 033",
      "startCoords": {
        "latitude": 39.719517,
        "longitude": -105.020144
      },
      "endCoords": {
        "latitude": 39.713633,
        "longitude": -105.02977
      },
      "distanceMeters": 52994.4,
      "durationMs": 7646000,
      "drivingDurationMs": 5986830,
      "idlingDurationMs": 1659170,
      "fuelConsumedMl": 6738,
      "fuelConsumedGallons": 1.78,
      "maxSpeedMph": 32.4,
      "averageSpeedMph": 15.5,
      "safetyEvents": []
    },
    {
      "id": "trip_42031656_20250627_25291",
      "vehicleId": "42031656",
      "driverId": "20000001",
      "startMs": 1751033119000,
      "endMs": 1751034725000,
      "startAddress": "2647 Nicholas Prairie Suite 976",
      "endAddress": "5160 Howell Vista Suite 223",
      "startCoords": {
        "latitude": 39.811217,
        "longitude": -104.988273
      },
      "endCoords": {
        "latitude": 39.811728,
        "longitude": -105.077139
      },
      "distanceMeters": 9508.6,
      "durationMs": 1606000,
      "drivingDurationMs": 1421427,
      "idlingDurationMs": 184573,
      "fuelConsumedMl": 1208,
      "fuelConsumedGallons": 0.319,
      "maxSpeedMph": 34.5,
      "averageSpeedMph": 13.2,
      "safetyEvents": []
    },
    {
      "id": "trip_42031656_20250627_25324",
      "vehicleId": "42031656",
      "driverId": "20000002",
      "startMs": 1751049094000,
      "endMs": 1751054983000,
      "startAddress": "1675 Evelyn Manor",
      "endAddress": "308 Cardenas Throughway Apt. 526",
      "startCoords": {
        "latitude": 39.754055,
        "longitude": -104.899772
      },
      "endCoords": {
        "latitude": 39.744348,
        "longitude": -104.963067
      },
      "distanceMeters": 24205.2,
      "durationMs": 5889000,
      "drivingDurationMs": 4438321,
      "idlingDurationMs": 1450679,
      "fuelConsumedMl": 3078,
      "fuelConsumedGallons": 0.813,
      "maxSpeedMph": 35.0,
      "averageSpeedMph": 9.2,
      "safetyEvents": []
    },
    {
      "id": "trip_42031656_20250628_25357",
      "vehicleId": "42031656",
      "driverId": "20000001",
      "startMs": 1751075679000,
      "endMs": 1751081300000,
      "startAddress": "9421 Richard Trail Apt. 509",
      "endAddress": "19384 Barbara Shoals Apt. 498",
      "startCoords": {
        "latitude": 39.822408,
        "longitude": -105.044377
      },
      "endCoords": {
        "latitude": 39.802278,
        "longitude": -104.998787
      },
      "distanceMeters": 38093.2,
      "durationMs": 5621000,
      "drivingDurationMs": 4540783,
      "idlingDurationMs": 1080217,
      "fuelConsumedMl": 4842,
      "fuelConsumedGallons": 1.279,
      "maxSpeedMph": 33.3,
      "averageSpeedMph": 15.2,
      "safetyEvents": []
    },
    {
      "id": "trip_42031656_20250628_25383",
      "vehicleId": "42031656",
      "driverId": "20000011",
      "startMs": 1751094963000,
      "endMs": 1751097243000,
      "startAddress": "48407 Burke Rue Apt. 258",
      "endAddress": "837 Jones Station",
      "startCoords": {
        "latitude": 39.735699,
        "longitude": -104.953178
      },
      "endCoords": {
        "latitude": 39.765712,
        "longitude": -105.081191
      },
      "distanceMeters": 12172.9,
      "durationMs": 2280000,
      "drivingDurationMs": 1770840,
      "idlingDurationMs": 509160,
      "fuelConsumedMl": 1548,
      "fuelConsumedGallons": 0.409,
      "maxSpeedMph": 35.1,
      "averageSpeedMph": 11.9,
      "safetyEvents": []
    },
    {
      "id": "trip_42031656_20250628_25408",
      "vehicleId": "42031656",
      "driverId": "20000006",
      "startMs": 1751108604000,
      "endMs": 1751110404000,
      "startAddress": "29080 Tina Fort Apt. 278",
      "endAddress": "1186 Mccullough Dale",
      "startCoords": {
        "latitude": 39.708871,
        "longitude": -104.932552
      },
      "endCoords": {
        "latitude": 39.758594,
        "longitude": -104.959292
      },
      "distanceMeters": 8648.8,
      "durationMs": 1800000,
      "drivingDurationMs": 1577122,
      "idlingDurationMs": 222878,
      "fuelConsumedMl": 1098,
      "fuelConsumedGallons": 0.29,
      "maxSpeedMph": 33.7,
      "averageSpeedMph": 10.7,
      "safetyEvents": []
    },
    {
      "id": "trip_42031656_20250628_25440",
      "vehicleId": "42031656",
      "driverId": "20000015",
      "startMs": 1751127164000,
      "endMs": 1751129024000,
      "startAddress": "3356 Robinson Harbors",
      "endAddress": "019 Robert Land",
      "startCoords": {
        "latitude": 39.739684,
        "longitude": -105.083892
      },
      "endCoords": {
        "latitude": 39.773181,
        "longitude": -104.997591
      },
      "distanceMeters": 11590.8,
      "durationMs": 1860000,
      "drivingDurationMs": 1648393,
      "idlingDurationMs": 211607,
      "fuelConsumedMl": 1473,
      "fuelConsumedGallons": 0.389,
      "maxSpeedMph": 28.7,
      "averageSpeedMph": 13.9,
      "safetyEvents": []
    },
    {
      "id": "trip_42031656_20250628_25471",
      "vehicleId": "42031656",
      "driverId": "20000002",
      "startMs": 1751141930000,
      "endMs": 1751144150000,
      "startAddress": "9922 Sherman Trail",
      "endAddress": "92881 Glenn Valleys",
      "startCoords": {
        "latitude": 39.699863,
        "longitude": -105.014619
      },
      "endCoords": {
        "latitude": 39.756911,
        "longitude": -104.919863
      },
      "distanceMeters": 10876.7,
      "durationMs": 2220000,
      "drivingDurationMs": 1808547,
      "idlingDurationMs": 411453,
      "fuelConsumedMl": 1382,
      "fuelConsumedGallons": 0.365,
      "maxSpeedMph": 27.4,
      "averageSpeedMph": 11.0,
      "safetyEvents": []
    },
    {
      "id": "trip_42031656_20250629_25498",
      "vehicleId": "42031656",
      "driverId": "20000010",
      "startMs": 1751166434000,
      "endMs": 1751168174000,
      "startAddress": "457 Brown Groves",
      "endAddress": "799 Lisa Isle Apt. 319",
      "startCoords": {
        "latitude": 39.736047,
        "longitude": -104.935842
      },
      "endCoords": {
        "latitude": 39.724513,
        "longitude": -104.970437
      },
      "distanceMeters": 10265.2,
      "durationMs": 1740000,
      "drivingDurationMs": 1385665,
      "idlingDurationMs": 354335,
      "fuelConsumedMl": 1306,
      "fuelConsumedGallons": 0.345,
      "maxSpeedMph": 26.4,
      "averageSpeedMph": 13.2,
      "safetyEvents": []
    },
    {
      "id": "trip_42031656_20250629_25530",
      "vehicleId": "42031656",
      "driverId": "20000012",
      "startMs": 1751193951000,
      "endMs": 1751201666000,
      "startAddress": "3763 James Shoals Suite 861",
      "endAddress": "157 Brent Plain Suite 063",
      "startCoords": {
        "latitude": 39.766106,
        "longitude": -104.925099
      },
      "endCoords": {
        "latitude": 39.700413,
        "longitude": -105.073966
      },