{
  "vehicleId": "48291001",
  "vehicleName": "DEN-CAR-02",
  "month": "2025_06",
  "pagination": {
    "endCursor": "trip_48291001_20250630_002",
    "hasNextPage": false
  },
  "trips": [
    {
      "id": "trip_48291001_20250601_001",
      "vehicleId": "48291001",
      "driverId": "22831000",
      "startMs": 1748760780000,
      "endMs": 1748769472326,
      "startLocation": {
        "latitude": 39.792477,
        "longitude": -105.036405
      },
      "endLocation": {
        "latitude": 39.689584,
        "longitude": -105.061859
      },
      "startAddress": "426 Fritz Lakes",
      "endAddress": "305 Max Valley",
      "startCoords": {
        "latitude": 39.712395,
        "longitude": -105.019524
      },
      "endCoords": {
        "latitude": 39.698804,
        "longitude": -105.05245
      },
      "distanceMeters": 47500.5,
      "durationMs": 8692326,
      "drivingDurationMs": 7845369,
      "idlingDurationMs": 846957,
      "fuelConsumedMl": 6038,
      "fuelConsumedGallons": 1.595,
      "maxSpeedMph": 50.2,
      "averageSpeedMph": 12.2,
      "safetyEvents": [],
      "_no_driver_login": false,
      "_fuel_note": "QUIRK 5: fuelConsumedGallons is in US gallons. Multiply by 3.785 for litres. Samsara does not link fuel to specific Onfleet tasks."
    },
    {
      "id": "trip_48291001_20250602_001",
      "vehicleId": "48291001",
      "driverId": "22831000",
      "startMs": 1748858460000,
      "endMs": 1748867712771,
      "startLocation": {
        "latitude": 39.743917,
        "longitude": -104.99861
      },
      "endLocation": {
        "latitude": 39.74358,
        "longitude": -105.074678
      },
      "startAddress": "6914 Carter Prairie",
      "endAddress": "5000 Jensen Wall",
      "startCoords": {
        "latitude": 39.700099,
        "longitude": -104.968661
      },
      "endCoords": {
        "latitude": 39.776649,
        "longitude": -105.032898
      },
      "distanceMeters": 43849.5,
      "durationMs": 9252771,
      "drivingDurationMs": 8608248,
      "idlingDurationMs": 644523,
      "fuelConsumedMl": 5576,
      "fuelConsumedGallons": 1.473,
      "maxSpeedMph": 63.4,
      "averageSpeedMph": 10.6,
      "safetyEvents": [],
      "_no_driver_login": false,
      "_fuel_note": "QUIRK 5: fuelConsumedGallons is in US gallons. Multiply by 3.785 for litres. Samsara does not link fuel to specific Onfleet tasks."
    },
    {
      "id": "trip_48291001_20250602_002",
      "vehicleId": "48291001",
      "driverId": "22831000",
      "startMs": 1748862240000,
      "endMs": 1748866720061,
      "startLocation": {
        "latitude": 39.777149,
        "longitude": -104.970148
      },
      "endLocation": {
        "latitude": 39.713983,
        "longitude": -105.074233
      },
      "startAddress": "44899 Thompson Gateway Suite 137",
      "endAddress": "124 Guzman Keys Apt. 336",
      "startCoords": {
        "latitude": 39.740215,
        "longitude": -105.036804
      },
      "endCoords": {
        "latitude": 39.797059,
        "longitude": -105.043413
      },
      "distanceMeters": 21942.0,
      "durationMs": 4480061,
      "drivingDurationMs": 4180117,
      "idlingDurationMs": 299944,
      "fuelConsumedMl": 2790,
      "fuelConsumedGallons": 0.737,
      "maxSpeedMph": 65.1,
      "averageSpeedMph": 11.0,
      "safetyEvents": [
        {
          "type": "speeding",
          "startMs": 1748862900000,
          "maxSpeedMph": 65.1
        }
      ],
      "_no_driver_login": false,
      "_fuel_note": ""
    },
    {
      "id": "trip_48291001_20250602_003",
      "vehicleId": "48291001",
      "driverId": "22831000",
      "startMs": 1748866140000,
      "endMs": 1748875506215,
      "startLocation": {
        "latitude": 39.707841,
        "longitude": -105.051476
      },
      "endLocation": {
        "latitude": 39.786638,
        "longitude": -104.946305
      },
      "startAddress": "02784 Lopez Trail",
      "endAddress": "389 David Street Apt. 736",
      "startCoords": {
        "latitude": 39.823041,
        "longitude": -105.085395
      },
      "endCoords": {
        "latitude": 39.742888,
        "longitude": -105.078235
      },
      "distanceMeters": 40717.6,
      "durationMs": 9366216,
      "drivingDurationMs": 7659846,
      "idlingDurationMs": 1706370,
      "fuelConsumedMl": 5178,
      "fuelConsumedGallons": 1.368,
      "maxSpeedMph": 61.4,
      "averageSpeedMph": 9.7,
      "safetyEvents": [],
      "_no_driver_login": false,
      "_fuel_note": ""
    },
    {
      "id": "trip_48291001_20250602_004",
      "vehicleId": "48291001",
      "driverId": "22831000",
      "startMs": 1748872500000,
      "endMs": 1748878045323,
      "startLocation": {
        "latitude": 39.697361,
        "longitude": -105.079303
      },
      "endLocation": {
        "latitude": 39.718748,
        "longitude": -105.083654
      },
      "startAddress": "9958 Kimberly Parkway",
      "endAddress": "174 Virginia Island Apt. 230",
      "startCoords": {
        "latitude": 39.810642,
        "longitude": -104.990664
      },
      "endCoords": {
        "latitude": 39.736375,
        "longitude": -104.951525
      },
      "distanceMeters": 38384.4,
      "durationMs": 5545324,
      "drivingDurationMs": 5223678,
      "idlingDurationMs": 321646,
      "fuelConsumedMl": 4879,
      "fuelConsumedGallons": 1.289,
      "maxSpeedMph": 34.1,
      "averageSpeedMph": 15.5,
      "safetyEvents": [],
      "_no_driver_login": false,
      "_fuel_note": ""
    },
    {
      "id": "trip_48291001_20250602_005",
      "vehicleId": "48291001",
      "driverId": "22831000",
      "startMs": 1748866260000,
      "endMs": 1748871842759,
      "startLocation": {
        "latitude": 39.81613,
        "longitude": -105.082609
      },
      "endLocation": {
        "latitude": 39.820979,
        "longitude": -104.92772
      },
      "startAddress": "731 Debbie Locks",
      "endAddress": "29839 Miranda Grove Suite 319",
      "startCoords": {
        "latitude": 39.745192,
        "longitude": -104.972371
      },
      "endCoords": {
        "latitude": 39.764955,
        "longitude": -104.975992
      },
      "distanceMeters": 35015.4,
      "durationMs": 5582760,
      "drivingDurationMs": 5241585,
      "idlingDurationMs": 341175,
      "fuelConsumedMl": 4452,
      "fuelConsumedGallons": 1.176,
      "maxSpeedMph": 51.4,
      "averageSpeedMph": 14.0,
      "safetyEvents": [],
      "_no_driver_login": false,
      "_fuel_note": ""
    },
    {
      "id": "trip_48291001_20250603_001",
      "vehicleId": "48291001",
      "driverId": "22831000",
      "startMs": 1748965020000,
      "endMs": 1748966725662,
      "startLocation": {
        "latitude": 39.756159,
        "longitude": -105.039964
      },
      "endLocation": {
        "latitude": 39.797081,
        "longitude": -105.01596
      },
      "startAddress": "0010 Jacqueline Corner",
      "endAddress": "39895 Patricia Village",
      "startCoords": {
        "latitude": 39.748453,
        "longitude": -105.040418
      },
      "endCoords": {
        "latitude": 39.6898,
        "longitude": -104.911342
      },
      "distanceMeters": 12202.9,
      "durationMs": 1705662,
      "drivingDurationMs": 1474317,
      "idlingDurationMs": 231345,
      "fuelConsumedMl": 1552,
      "fuelConsumedGallons": 0.41,
      "maxSpeedMph": 46.6,
      "averageSpeedMph": 16.0,
      "safetyEvents": [],
      "_no_driver_login": false,
      "_fuel_note": "QUIRK 5: fuelConsumedGallons is in US gallons. Multiply by 3.785 for litres. Samsara does not link fuel to specific Onfleet tasks."
    },
    {
      "id": "trip_48291001_20250603_002",
      "vehicleId": "48291001",
      "driverId": "22831000",
      "startMs": 1748949480000,
      "endMs": 1748960410499,
      "startLocation": {
        "latitude": 39.796185,
        "longitude": -104.93541
      },
      "endLocation": {
        "latitude": 39.764683,
        "longitude": -105.035952
      },
      "startAddress": "4961 Douglas Vista Apt. 812",
      "endAddress": "4318 Adrian Ridge Suite 109",
      "startCoords": {
        "latitude": 39.701261,
        "longitude": -104.91014
      },
      "endCoords": {
        "latitude": 39.785605,
        "longitude": -105.001485
      },
      "distanceMeters": 67459.0,
      "durationMs": 10930500,
      "drivingDurationMs": 9549773,
      "idlingDurationMs": 1380727,
      "fuelConsumedMl": 8578,
      "fuelConsumedGallons": 2.266,
      "maxSpeedMph": 71.3,
      "averageSpeedMph": 13.8,
      "safetyEvents": [
        {
          "type": "speeding",
          "startMs": 1748953500000,
          "maxSpeedMph": 71.3
        }
      ],
      "_no_driver_login": false,
      "_fuel_note": ""
    },
    {
      "id": "trip_48291001_20250603_003",
      "vehicleId": "48291001",
      "driverId": "22831000",
      "startMs": 1748970420000,
      "endMs": 1748981482883,
      "startLocation": {
        "latitude": 39.7237,
        "longitude": -104.915789
      },
      "endLocation": {
        "latitude": 39.824104,
        "longitude": -104.908249
      },
      "startAddress": "836 Goodwin Freeway",
      "endAddress": "0146 Booker Stream Suite 040",
      "startCoords": {
        "latitude": 39.704643,
        "longitude": -104.999636
      },
      "endCoords": {
        "latitude": 39.763096,
        "longitude": -104.979592
      },
      "distanceMeters": 46187.5,
      "durationMs": 11062883,
      "drivingDurationMs": 9210289,
      "idlingDurationMs": 1852594,
      "fuelConsumedMl": 5871,
      "fuelConsumedGallons": 1.551,
      "maxSpeedMph": 71.5,
      "averageSpeedMph": 9.3,
      "safetyEvents": [
        {
          "type": "speeding",
          "startMs": 1748979600000,
          "maxSpeedMph": 71.5
        }
      ],
      "_no_driver_login": false,
      "_fuel_note": ""
    },
    {
      "id": "trip_48291001_20250603_004",
      "vehicleId": "48291001",
      "driverId": "22831000",
      "startMs": 1748963700000,
      "endMs": 1748965791006,
      "startLocation": {
        "latitude": 39.810592,
        "longitude": -105.001583
      },
      "endLocation": {
        "latitude": 39.724774,
        "longitude": -104.924525
      },
      "startAddress": "78999 Peterson Drive Apt. 372",
      "endAddress": "32539 Christine Stream Suite 446",
      "startCoords": {
        "latitude": 39.762025,
        "longitude": -105.072216
      },
      "endCoords": {
        "latitude": 39.795245,
        "longitude": -105.03549
      },
      "distanceMeters": 10646.9,
      "durationMs": 2091006,
      "drivingDurationMs": 1856261,
      "idlingDurationMs": 234745,
      "fuelConsumedMl": 1355,
      "fuelConsumedGallons": 0.358,
      "maxSpeedMph": 44.9,
      "averageSpeedMph": 11.4,
      "safetyEvents": [],
      "_no_driver_login": false,
      "_fuel_note": ""
    },
    {
      "id": "trip_48291001_20250603_005",
      "vehicleId": "48291001",
      "driverId": "22831000",
      "startMs": 1748939940000,
      "endMs": 1748955004657,
      "startLocation": {
        "latitude": 39.691119,
        "longitude": -104.991866
      },
      "endLocation": {
        "latitude": 39.781417,
        "longitude": -105.03797
      },
      "startAddress": "543 Michael Canyon",
      "endAddress": "63363 Parks Street",
      "startCoords": {
        "latitude": 39.810558,
        "longitude": -105.031844
      },
      "endCoords": {
        "latitude": 39.687838,
        "longitude": -104.909963
      },
      "distanceMeters": 67613.0,
      "durationMs": 15064658,
      "drivingDurationMs": 13257309,
      "idlingDurationMs": 1807349,
      "fuelConsumedMl": 8597,
      "fuelConsumedGallons": 2.271,
      "maxSpeedMph": 36.3,
      "averageSpeedMph": 10.0,
      "safetyEvents": [],
      "_no_driver_login": false,
      "_fuel_note": ""
    },
    {
      "id": "trip_48291001_20250604_001",
      "vehicleId": "48291001",
      "driverId": "22831000",
      "startMs": 1749056460000,
      "endMs": 1749062642585,
      "startLocation": {
        "latitude": 39.778455,
        "longitude": -104.922694
      },
      "endLocation": {
        "latitude": 39.807491,
        "longitude": -105.019995
      },
      "startAddress": "29150 Baker Shoal Apt. 206",
      "endAddress": "3715 Karen Turnpike Suite 444",
      "startCoords": {
        "latitude": 39.813801,
        "longitude": -105.087143
      },
      "endCoords": {
        "latitude": 39.789848,
        "longitude": -104.999395
      },
      "distanceMeters": 43556.8,
      "durationMs": 6182586,
      "drivingDurationMs": 5015100,
      "idlingDurationMs": 1167486,
      "fuelConsumedMl": 5538,
      "fuelConsumedGallons": 1.463,
      "maxSpeedMph": 41.6,
      "averageSpeedMph": 15.8,
      "safetyEvents": [],
      "_no_driver_login": false,
      "_fuel_note": "QUIRK 5: fuelConsumedGallons is in US gallons. Multiply by 3.785 for litres. Samsara does not link fuel to specific Onfleet tasks."
    },
    {
      "id": "trip_48291001_20250604_002",
      "vehicleId": "48291001",
      "driverId": "22831000",
      "startMs": 1749027660000,
      "endMs": 1749046889339,
      "startLocation": {
        "latitude": 39.715949,
        "longitude": -104.971586
      },
      "endLocation": {
        "latitude": 39.73607,
        "longitude": -104.977648
      },
      "startAddress": "99441 Braun Crest",
      "endAddress": "84329 Stephanie Via",
      "startCoords": {
        "latitude": 39.746453,
        "longitude": -104.930037
      },
      "endCoords": {
        "latitude": 39.788928,
        "longitude": -105.036699
      },
      "distanceMeters": 84941.0,
      "durationMs": 19229340,
      "drivingDurationMs": 15585756,
      "idlingDurationMs": 3643584,
      "fuelConsumedMl": 10800,
      "fuelConsumedGallons": 2.853,
      "maxSpeedMph": 58.4,
      "averageSpeedMph": 9.9,
      "safetyEvents": [],
      "_no_driver_login": false,
      "_fuel_note": ""
    },
    {
      "id": "trip_48291001_20250604_003",
      "vehicleId": "48291001",
      "driverId": "22831000",
      "startMs": 1749060300000,
      "endMs": 1749070800000,
      "startLocation": {
        "latitude": 39.709019,
        "longitude": -105.029539
      },
      "endLocation": {
        "latitude": 39.817835,
        "longitude": -105.00023
      },
      "startAddress": "16954 Turner Lakes",
      "endAddress": "974 Erin Turnpike Apt. 508",
      "startCoords": {
        "latitude": 39.785591,
        "longitude": -104.976114
      },
      "endCoords": {
        "latitude": 39.780145,
        "longitude": -104.904437
      },
      "distanceMeters": 75299.0,
      "durationMs": 10500000,
      "drivingDurationMs": 9594853,
      "idlingDurationMs": 905147,
      "fuelConsumedMl": 9573,
      "fuelConsumedGallons": 2.529,
      "maxSpeedMph": 36.2,
      "averageSpeedMph": 16.0,
      "safetyEvents": [],
      "_no_driver_login": false,
      "_fuel_note": ""
    },
    {
      "id": "trip_48291001_20250604_004",
      "vehicleId": "48291001",
      "driverId": "22831000",
      "startMs": 1749043740000,
      "endMs": 1749053838335,
      "startLocation": {
        "latitude": 39.745827,
        "longitude": -104.926936
      },
      "endLocation": {
        "latitude": 39.744766,
        "longitude": -104.930632
      },
      "startAddress": "82058 Meyers Isle",
      "endAddress": "96532 James Mountain",
      "startCoords": {
        "latitude": 39.80102,
        "longitude": -104.922581
      },
      "endCoords": {
        "latitude": 39.793532,
        "longitude": -105.019093
      },
      "distanceMeters": 67255.4,
      "durationMs": 10098336,
      "drivingDurationMs": 9375077,
      "idlingDurationMs": 723259,
      "fuelConsumedMl": 8551,
      "fuelConsumedGallons": 2.259,
      "maxSpeedMph": 32.7,
      "averageSpeedMph": 14.9,
      "safetyEvents": [],
      "_no_driver_login": false,
      "_fuel_note": ""
    },
    {
      "id": "trip_48291001_20250604_005",
      "vehicleId": "48291001",
      "driverId": "22831000",
      "startMs": 1749041400000,
      "endMs": 1749042383924,
      "startLocation": {
        "latitude": 39.817781,
        "longitude": -105.07621
      },
      "endLocation": {
        "latitude": 39.759498,
        "longitude": -105.045809
      },
      "startAddress": "8893 Phillips Field Apt. 888",
      "endAddress": "60605 Ethan Park",
      "startCoords": {
        "latitude": 39.810592,
        "longitude": -104.926459
      },
      "endCoords": {
        "latitude": 39.777375,
        "longitude": -104.948157
      },
      "distanceMeters": 5391.7,
      "durationMs": 983924,
      "drivingDurationMs": 801491,
      "idlingDurationMs": 182434,
      "fuelConsumedMl": 685,
      "fuelConsumedGallons": 0.181,
      "maxSpeedMph": 49.6,
      "averageSpeedMph": 12.3,
      "safetyEvents": [],
      "_no_driver_login": false,
      "_fuel_note": ""
    },
    {
      "id": "trip_48291001_20250605_001",
      "vehicleId": "48291001",
      "driverId": "22831000",
      "startMs": 1749119100000,
      "endMs": 1749121004156,
      "startLocation": {
        "latitude": 39.8056,
        "longitude": -104.913104
      },
      "endLocation": {
        "latitude": 39.694906,
        "longitude": -104.957174
      },
      "startAddress": "132 Rogers Walks Suite 288",
      "endAddress": "6927 Lori Manor Suite 345",
      "startCoords": {
        "latitude": 39.76544,
        "longitude": -104.997996
      },
      "endCoords": {
        "latitude": 39.794553,
        "longitude": -105.086412
      },
      "distanceMeters": 8216.2,
      "durationMs": 1904157,
      "drivingDurationMs": 1616874,
      "idlingDurationMs": 287283,
      "fuelConsumedMl": 1045,
      "fuelConsumedGallons": 0.276,
      "maxSpeedMph": 65.6,
      "averageSpeedMph": 9.7,
      "safetyEvents": [
        {
          "type": "speeding",
          "startMs": 1749120480000,
          "maxSpeedMph": 65.6
        }
      ],
      "_no_driver_login": false,
      "_fuel_note": "QUIRK 5: fuelConsumedGallons is in US gallons. Multiply by 3.785 for litres. Samsara does not link fuel to specific Onfleet tasks."
    },
    {
      "id": "trip_48291001_20250605_002",
      "vehicleId": "48291001",
      "driverId": "22831000",
      "startMs": 1749105600000,
      "endMs": 1749109002530,
      "startLocation": {
        "latitude": 39.802768,
        "longitude": -105.02594
      },
      "endLocation": {
        "latitude": 39.748757,
        "longitude": -104.963777
      },
      "startAddress": "5908 Melissa Throughway Apt. 996",
      "endAddress": "7187 James Inlet Suite 276",
      "startCoords": {
        "latitude": 39.758938,
        "longitude": -104.930719
      },
      "endCoords": {
        "latitude": 39.776207,
        "longitude": -104.933868
      },
      "distanceMeters": 24858.1,
      "durationMs": 3402531,
      "drivingDurationMs": 2857102,
      "idlingDurationMs": 545429,
      "fuelConsumedMl": 3161,
      "fuelConsumedGallons": 0.835,
      "maxSpeedMph": 35.2,
      "averageSpeedMph": 16.3,
      "safetyEvents": [],
      "_no_driver_login": false,
      "_fuel_note": ""
    },
    {
      "id": "trip_48291001_20250605_003",
      "vehicleId": "48291001",
      "driverId": "22831000",
      "startMs": 1749111060000,
      "endMs": 1749117298013,
      "startLocation": {
        "latitude": 39.795885,
        "longitude": -105.016001
      },
      "endLocation": {
        "latitude": 39.747702,
        "longitude": -104.957452
      },
      "startAddress": "8171 David Extension Apt. 839",
      "endAddress": "6991 James Mill Suite 955",
      "startCoords": {
        "latitude": 39.703391,
        "longitude": -105.0239
      },
      "endCoords": {
        "latitude": 39.731521,
        "longitude": -105.013597
      },
      "distanceMeters": 32114.0,
      "durationMs": 6238013,
      "drivingDurationMs": 5877798,
      "idlingDurationMs": 360215,
      "fuelConsumedMl": 4084,
      "fuelConsumedGallons": 1.079,
      "maxSpeedMph": 32.3,
      "averageSpeedMph": 11.5,
      "safetyEvents": [],
      "_no_driver_login": false,
      "_fuel_note": ""
    },
    {
      "id": "trip_48291001_20250606_001",
      "vehicleId": "48291001",
      "driverId": "22831000",
      "startMs": 1749211380000,
      "endMs": 1749222541165,
      "startLocation": {
        "latitude": 39.747139,
        "longitude": -104.958107
      },
      "endLocation": {
        "latitude": 39.764774,
        "longitude": -104.931402
      },
      "startAddress": "21760 Williams Fields Apt. 255",
      "endAddress": "6840 Garcia Heights Apt. 210",
      "startCoords": {
        "latitude": 39.710622,
        "longitude": -105.000193
      },
      "endCoords": {
        "latitude": 39.826023,
        "longitude": -105.012661
      },
      "distanceMeters": 54464.5,
      "durationMs": 11161166,
      "drivingDurationMs": 9643753,
      "idlingDurationMs": 1517413,
      "fuelConsumedMl": 6924,
      "fuelConsumedGallons": 1.829,
      "maxSpeedMph": 32.2,
      "averageSpeedMph": 10.9,
      "safetyEvents": [],
      "_no_driver_login": false,
      "_fuel_note": "QUIRK 5: fuelConsumedGallons is in US gallons. Multiply by 3.785 for litres. Samsara does not link fuel to specific Onfleet tasks."
    },
    {
      "id": "trip_48291001_20250606_002",
      "vehicleId": "48291001",
      "driverId": "22831000",
      "startMs": 1749189600000,
      "endMs": 1749197143379,
      "startLocation": {
        "latitude": 39.796907,
        "longitude": -105.030432
      },
      "endLocation": {
        "latitude": 39.709461,
        "longitude": -104.997454
      },
      "startAddress": "002 Julia Ville",
      "endAddress": "051 Smith Flat",
      "startCoords": {
        "latitude": 39.751988,
        "longitude": -105.040514
      },
      "endCoords": {
        "latitude": 39.735958,
        "longitude": -104.90326
      },
      "distanceMeters": 52135.9,
      "durationMs": 7543379,
      "drivingDurationMs": 6319945,
      "idlingDurationMs": 1223435,
      "fuelConsumedMl": 6628,
      "fuelConsumedGallons": 1.751,
      "maxSpeedMph": 32.7,
      "averageSpeedMph": 15.5,
      "safetyEvents": [],
      "_no_driver_login": false,
      "_fuel_note": ""
    },
    {
      "id": "trip_48291001_20250606_003",
      "vehicleId": "48291001",
      "driverId": "22831000",
      "startMs": 1749202140000,
      "endMs": 1749211283731,
      "startLocation": {
        "latitude": 39.690469,
        "longitude": -105.005687
      },
      "endLocation": {
        "latitude": 39.826025,
        "longitude": -105.030087
      },
      "startAddress": "61669 Robinson Harbor",
      "endAddress": "770 Moore Inlet Suite 341",
      "startCoords": {
        "latitude": 39.702513,
        "longitude": -105.048503
      },
      "endCoords": {
        "latitude": 39.791183,
        "longitude": -104.942681
      },
      "distanceMeters": 62088.2,
      "durationMs": 9143732,
      "drivingDurationMs": 7522174,
      "idlingDurationMs": 1621558,
      "fuelConsumedMl": 7893,
      "fuelConsumedGallons": 2.085,
      "maxSpeedMph": 38.7,
      "averageSpeedMph": 15.2,
      "safetyEvents": [],
      "_no_driver_login": false,
      "_fuel_note": ""
    },
    {
      "id": "trip_48291001_20250606_004",
      "vehicleId": "48291001",
      "driverId": "22831000",
      "startMs": 1749216120000,
      "endMs": 1749219267237,
      "startLocation": {
        "latitude": 39.763148,
        "longitude": -104.944454
      },
      "endLocation": {
        "latitude": 39.72544,
        "longitude": -105.034175
      },
      "startAddress": "378 Aguirre Trail Suite 852",
      "endAddress": "5400 Anne Parkway Apt. 591",
      "startCoords": {
        "latitude": 39.73175,
        "longitude": -105.081428
      },
      "endCoords": {
        "latitude": 39.735442,
        "longitude": -104.986763
      },
      "distanceMeters": 18738.4,
      "durationMs": 3147237,
      "drivingDurationMs": 2678612,
      "idlingDurationMs": 468625,
      "fuelConsumedMl": 2381,
      "fuelConsumedGallons": 0.629,
      "maxSpeedMph": 31.4,
      "averageSpeedMph": 13.3,
      "safetyEvents": [],
      "_no_driver_login": false,
      "_fuel_note": ""
    },
    {
      "id": "trip_48291001_20250607_001",
      "vehicleId": "48291001",
      "driverId": "22831000",
      "startMs": 1749317640000,
      "endMs": 1749324008913,
      "startLocation": {
        "latitude": 39.773952,
        "longitude": -105.024255
      },
      "endLocation": {
        "latitude": 39.772096,
        "longitude": -105.067519
      },
      "startAddress": "4211 Oliver Field Suite 056",
      "endAddress": "08577 Roberson Road",
      "startCoords": {
        "latitude": 39.696051,
        "longitude": -104.946087
      },
      "endCoords": {
        "latitude": 39.718623,
        "longitude": -104.90912
      },
      "distanceMeters": 38955.8,
      "durationMs": 6368914,
      "drivingDurationMs": 5433910,
      "idlingDurationMs": 935004,
      "fuelConsumedMl": 4951,
      "fuelConsumedGallons": 1.308,
      "maxSpeedMph": 53.7,
      "averageSpeedMph": 13.7,
      "safetyEvents": [],
      "_no_driver_login": false,
      "_fuel_note": "QUIRK 5: fuelConsumedGallons is in US gallons. Multiply by 3.785 for litres. Samsara does not link fuel to specific Onfleet tasks."
    },
    {
      "id": "trip_48291001_20250607_002",
      "vehicleId": "48291001",
      "driverId": "22831000",
      "startMs": 1749319860000,
      "endMs": 1749327942833,
      "startLocation": {
        "latitude": 39.799967,
        "longitude": -104.978715
      },
      "endLocation": {
        "latitude": 39.800481,
        "longitude": -105.079514
      },
      "startAddress": "0340 Terry Light",
      "endAddress": "744 Roberts Landing",
      "startCoords": {
        "latitude": 39.741235,
        "longitude": -104.908189
      },
      "endCoords": {
        "latitude": 39.758876,
        "longitude": -105.020264
      },
      "distanceMeters": 60873.1,
      "durationMs": 8082834,
      "drivingDurationMs": 7674583,
      "idlingDurationMs": 408251,
      "fuelConsumedMl": 7741,
      "fuelConsumedGallons": 2.045,
      "maxSpeedMph": 62.0,
      "averageSpeedMph": 16.8,
      "safetyEvents": [],
      "_no_driver_login": false,
      "_fuel_note": ""
    },
    {
      "id": "trip_48291001_20250607_003",
      "vehicleId": "48291001",
      "driverId": "22831000",
      "startMs": 1749293880000,
      "endMs": 1749301187682,
      "startLocation": {
        "latitude": 39.6861,
        "longitude": -104.961328
      },
      "endLocation": {
        "latitude": 39.821311,
        "longitude": -104.914231
      },
      "startAddress": "30513 Jordan Turnpike Apt. 038",
      "endAddress": "5574 Jessica Mall Suite 461",
      "startCoords": {
        "latitude": 39.762769,
        "longitude": -104.910364
      },
      "endCoords": {
        "latitude": 39.716521,
        "longitude": -105.079881
      },
      "distanceMeters": 47746.1,
      "durationMs": 7307683,
      "drivingDurationMs": 6151965,
      "idlingDurationMs": 1155718,
      "fuelConsumedMl": 6072,
      "fuelConsumedGallons": 1.604,
      "maxSpeedMph": 60.7,
      "averageSpeedMph": 14.6,
      "safetyEvents": [],
      "_no_driver_login": false,
      "_fuel_note": ""
    },
    {
      "id": "trip_48291001_20250608_001",
      "vehicleId": "48291001",
      "driverId": null,
      "startMs": 1749367860000,
      "endMs": 1749377325979,
      "startLocation": {
        "latitude": 39.758123,
        "longitude": -104.993104
      },
      "endLocation": {
        "latitude": 39.804845,
        "longitude": -104.928715
      },
      "startAddress": "912 Wilson Ports Suite 727",
      "endAddress": "0765 Gabriela Cliff",
      "startCoords": {
        "latitude": 39.746357,
        "longitude": -105.042757
      },
      "endCoords": {
        "latitude": 39.692899,
        "longitude": -105.0691
      },
      "distanceMeters": 61246.0,
      "durationMs": 9465980,
      "drivingDurationMs": 8719940,
      "idlingDurationMs": 746040,
      "fuelConsumedMl": 7787,
      "fuelConsumedGallons": 2.057,
      "maxSpeedMph": 68.2,
      "averageSpeedMph": 14.5,
      "safetyEvents": [
        {
          "type": "speeding",
          "startMs": 1749369360000,
          "maxSpeedMph": 68.2
        }
      ],
      "_no_driver_login": true,
      "_fuel_note": "QUIRK 5: fuelConsumedGallons is in US gallons. Multiply by 3.785 for litres. Samsara does not link fuel to specific Onfleet tasks."
    },
    {
      "id": "trip_48291001_20250608_002",
      "vehicleId": "48291001",
      "driverId": "22831000",
      "startMs": 1749369360000,
      "endMs": 1749371990343,
      "startLocation": {
        "latitude": 39.731951,
        "longitude": -104.950858
      },
      "endLocation": {
        "latitude": 39.794313,
        "longitude": -105.061284
      },
      "startAddress": "789 Lucas Brook",
      "endAddress": "1835 Mercado Camp Apt. 531",
      "startCoords": {
        "latitude": 39.760325,
        "longitude": -105.032218
      },
      "endCoords": {
        "latitude": 39.786975,
        "longitude": -104.982247
      },
      "distanceMeters": 18343.8,
      "durationMs": 2630344,
      "drivingDurationMs": 2331640,
      "idlingDurationMs": 298703,
      "fuelConsumedMl": 2332,
      "fuelConsumedGallons": 0.616,
      "maxSpeedMph": 35.5,
      "averageSpeedMph": 15.6,
      "safetyEvents": [],
      "_no_driver_login": false,
      "_fuel_note": ""
    },
    {
      "id": "trip_48291001_20250609_001",
      "vehicleId": "48291001",
      "driverId": "22831000",
      "startMs": 1749492780000,
      "endMs": 1749500843646,
      "startLocation": {
        "latitude": 39.696631,
        "longitude": -105.04538
      },
      "endLocation": {
        "latitude": 39.800344,
        "longitude": -104.961558
      },
      "startAddress": "21641 Harris Junction Apt. 230",
      "endAddress": "1360 Robert Ferry Apt. 372",
      "startCoords": {
        "latitude": 39.712655,
        "longitude": -104.909311
      },
      "endCoords": {
        "latitude": 39.727429,
        "longitude": -104.941456
      },
      "distanceMeters": 52912.2,
      "durationMs": 8063647,
      "drivingDurationMs": 6890955,
      "idlingDurationMs": 1172692,
      "fuelConsumedMl": 6727,
      "fuelConsumedGallons": 1.777,
      "maxSpeedMph": 38.6,
      "averageSpeedMph": 14.7,
      "safetyEvents": [],
      "_no_driver_login": false,
      "_fuel_note": "QUIRK 5: fuelConsumedGallons is in US gallons. Multiply by 3.785 for litres. Samsara does not link fuel to specific Onfleet tasks."
    },
    {
      "id": "trip_48291001_20250609_002",
      "vehicleId": "48291001",
      "driverId": "22831000",
      "startMs": 1749459600000,
      "endMs": 1749468549464,
      "startLocation": {
        "latitude": 39.811857,
        "longitude": -105.067126
      },
      "endLocation": {
        "latitude": 39.710903,
        "longitude": -104.942315
      },
      "startAddress": "84577 Gray Highway",
      "endAddress": "3219 Paula Manors Suite 952",
      "startCoords": {
        "latitude": 39.712499,
        "longitude": -105.006487
      },
      "endCoords": {
        "latitude": 39.759315,
        "longitude": -104.905829
      },
      "distanceMeters": 62529.3,
      "durationMs": 8949464,
      "drivingDurationMs": 7784847,
      "idlingDurationMs": 1164618,
      "fuelConsumedMl": 7949,
      "fuelConsumedGallons": 2.1,
      "maxSpeedMph": 68.8,
      "averageSpeedMph": 15.6,
      "safetyEvents": [
        {
          "type": "speeding",
          "startMs": 1749462360000,
          "maxSpeedMph": 68.8
        }
      ],
      "_no_driver_login": false,
      "_fuel_note": ""
    },
    {
      "id": "trip_48291001_20250609_003",
      "vehicleId": "48291001",
      "driverId": "22831000",
      "startMs": 1749492900000,
      "endMs": 1749495614661,
      "startLocation": {
        "latitude": 39.75111,
        "longitude": -105.071835
      },
      "endLocation": {
        "latitude": 39.820867,
        "longitude": -105.084225
      },
      "startAddress": "5983 James Field Apt. 697",
      "endAddress": "637 Smith Squares",
      "startCoords": {
        "latitude": 39.797758,
        "longitude": -105.030304
      },
      "endCoords": {
        "latitude": 39.685746,
        "longitude": -104.937158
      },
      "distanceMeters": 17723.4,
      "durationMs": 2714662,
      "drivingDurationMs": 2295852,
      "idlingDurationMs": 418809,
      "fuelConsumedMl": 2252,
      "fuelConsumedGallons": 0.595,
      "maxSpeedMph": 63.7,
      "averageSpeedMph": 14.6,
      "safetyEvents": [],
      "_no_driver_login": false,
      "_fuel_note": ""
    },
    {
      "id": "trip_48291001_20250609_004",
      "vehicleId": "48291001",
      "driverId": "22831000",
      "startMs": 1749491220000,
      "endMs": 1749502800000,
      "startLocation": {
        "latitude": 39.746879,
        "longitude": -104.915808
      },
      "endLocation": {
        "latitude": 39.825301,
        "longitude": -105.009278
      },
      "startAddress": "21847 Suzanne Common Apt. 207",
      "endAddress": "3027 Taylor Causeway",
      "startCoords": {
        "latitude": 39.736905,
        "longitude": -105.039912
      },
      "endCoords": {
        "latitude": 39.803004,
        "longitude": -105.03628
      },
      "distanceMeters": 51491.6,
      "durationMs": 11580000,
      "drivingDurationMs": 9389797,
      "idlingDurationMs": 2190203,
      "fuelConsumedMl": 6545,
      "fuelConsumedGallons": 1.729,
      "maxSpeedMph": 33.4,
      "averageSpeedMph": 9.9,
      "safetyEvents": [],
      "_no_driver_login": false,
      "_fuel_note": ""
    },
    {
      "id": "trip_48291001_20250609_005",
      "vehicleId": "48291001",
      "driverId": "22831000",
      "startMs": 1749477000000,
      "endMs": 1749485105403,
      "startLocation": {
        "latitude": 39.684621,
        "longitude": -104.921867
      },
      "endLocation": {
        "latitude": 39.750041,
        "longitude": -105.085532
      },
      "startAddress": "6618 Williams Turnpike Suite 902",
      "endAddress": "864 Joseph Flats Suite 243",
      "startCoords": {
        "latitude": 39.743645,
        "longitude": -105.024381
      },
      "endCoords": {
        "latitude": 39.778592,
        "longitude": -105.039856
      },
      "distanceMeters": 50907.0,
      "durationMs": 8105403,
      "drivingDurationMs": 6584736,
      "idlingDurationMs": 1520667,
      "fuelConsumedMl": 6473,
      "fuelConsumedGallons": 1.71,
      "maxSpeedMph": 59.5,
      "averageSpeedMph": 14.0,
      "safetyEvents": [],
      "_no_driver_login": false,
      "_fuel_note": ""
    },
    {
      "id": "trip_48291001_20250609_006",
      "vehicleId": "48291001",
      "driverId": "22831000",
      "startMs": 1749460200000,
      "endMs": 1749463782976,
      "startLocation": {
        "latitude": 39.736045,
        "longitude": -105.0821
      },
      "endLocation": {
        "latitude": 39.735196,
        "longitude": -105.045845
      },
      "startAddress": "927 Jorge Divide",
      "endAddress": "03430 Kevin View Suite 653",
      "startCoords": {
        "latitude": 39.810074,
        "longitude": -105.024404
      },
      "endCoords": {
        "latitude": 39.789459,
        "longitude": -105.063674
      },
      "distanceMeters": 24348.1,
      "durationMs": 3582977,
      "drivingDurationMs": 2970306,
      "idlingDurationMs": 612671,
      "fuelConsumedMl": 3096,
      "fuelConsumedGallons": 0.818,
      "maxSpeedMph": 64.5,
      "averageSpeedMph": 15.2,
      "safetyEvents": [],
      "_no_driver_login": false,
      "_fuel_note": ""
    },
    {
      "id": "trip_48291001_20250610_001",
      "vehicleId": "48291001",
      "driverId": "22831000",
      "startMs": 1749565440000,
      "endMs": 1749572894454,
      "startLocation": {
        "latitude": 39.814345,
        "longitude": -104.924335
      },
      "endLocation": {
        "latitude": 39.765183,
        "longitude": -104.959263
      },
      "startAddress": "14031 Howard Terrace Suite 517",
      "endAddress": "354 Lopez Neck",
      "startCoords": {
        "latitude": 39.819054,
        "longitude": -104.997078
      },
      "endCoords": {
        "latitude": 39.684805,
        "longitude": -105.051294
      },
      "distanceMeters": 51336.3,
      "durationMs": 7454454,
      "drivingDurationMs": 7109925,
      "idlingDurationMs": 344530,
      "fuelConsumedMl": 6526,
      "fuelConsumedGallons": 1.724,
      "maxSpeedMph": 62.2,
      "averageSpeedMph": 15.4,
      "safetyEvents": [],
      "_no_driver_login": false,
      "_fuel_note": "QUIRK 5: fuelConsumedGallons is in US gallons. Multiply by 3.785 for litres. Samsara does not link fuel to specific Onfleet tasks."
    },
    {
      "id": "trip_48291001_20250610_002",
      "vehicleId": "48291001",
      "driverId": "22831000",
      "startMs": 1749561360000,
      "endMs": 1749565951379,
      "startLocation": {
        "latitude": 39.811277,
        "longitude": -104.97531
      },
      "endLocation": {
        "latitude": 39.745394,
        "longitude": -105.00337
      },
      "startAddress": "8445 James Junctions",
      "endAddress": "384 Megan Gateway Suite 707",
      "startCoords": {
        "latitude": 39.808635,
        "longitude": -104.997393
      },
      "endCoords": {
        "latitude": 39.726543,
        "longitude": -104.983448
      },
      "distanceMeters": 22451.6,
      "durationMs": 4591380,
      "drivingDurationMs": 4261029,
      "idlingDurationMs": 330351,
      "fuelConsumedMl": 2854,
      "fuelConsumedGallons": 0.754,
      "maxSpeedMph": 39.1,
      "averageSpeedMph": 10.9,
      "safetyEvents": [],
      "_no_driver_login": false,
      "_fuel_note": ""
    },
    {
      "id": "trip_48291001_20250610_003",
      "vehicleId": "48291001",
      "driverId": "22831000",
      "startMs": 1749558240000,
      "endMs": 1749571109863,
      "startLocation": {
        "latitude": 39.795457,
        "longitude": -104.952068
      },
      "endLocation": {
        "latitude": 39.70124,
        "longitude": -105.016702
      },
      "startAddress": "4006 Ortiz Valley",
      "endAddress": "7324 Shelia Highway Apt. 394",
      "startCoords": {
        "latitude": 39.825174,
        "longitude": -104.969463
      },
      "endCoords": {
        "latitude": 39.744785,
        "longitude": -105.056389
      },
      "distanceMeters": 73739.1,
      "durationMs": 12869864,
      "drivingDurationMs": 12125371,
      "idlingDurationMs": 744493,
      "fuelConsumedMl": 9376,
      "fuelConsumedGallons": 2.477,
      "maxSpeedMph": 51.1,
      "averageSpeedMph": 12.8,
      "safetyEvents": [],
      "_no_driver_login": false,
      "_fuel_note": ""
    },
    {
      "id": "trip_48291001_20250610_004",
      "vehicleId": "48291001",
      "driverId": "22831000",
      "startMs": 1749537120000,
      "endMs": 1749547028949,
      "startLocation": {
        "latitude": 39.722807,
        "longitude": -104.984845
      },
      "endLocation": {
        "latitude": 39.727905,
        "longitude": -105.040263
      },
      "startAddress": "14736 Taylor Mountains",
      "endAddress": "45210 Lopez Forest",
      "startCoords": {
        "latitude": 39.736935,
        "longitude": -104.933614
      },
      "endCoords": {
        "latitude": 39.714551,
        "longitude": -105.077379
      },
      "distanceMeters": 43460.8,
      "durationMs": 9908949,
      "drivingDurationMs": 8054642,
      "idlingDurationMs": 1854307,
      "fuelConsumedMl": 5527,
      "fuelConsumedGallons": 1.46,
      "maxSpeedMph": 39.3,
      "averageSpeedMph": 9.8,
      "safetyEvents": [],
      "_no_driver_login": false,
      "_fuel_note": ""
    },
    {
      "id": "trip_48291001_20250611_001",
      "vehicleId": "48291001",
      "driverId": "22831000",
      "startMs": 1749627120000,
      "endMs": 1749632989828,
      "startLocation": {
        "latitude": 39.812317,
        "longitude": -104.986496
      },
      "endLocation": {
        "latitude": 39.776564,
        "longitude": -104.919602
      },
      "startAddress": "49277 Jane Motorway",
      "endAddress": "81961 Jennifer Point",
      "startCoords": {
        "latitude": 39.814829,
        "longitude": -105.067065
      },
      "endCoords": {
        "latitude": 39.750263,
        "longitude": -105.073528
      },
      "distanceMeters": 35429.1,
      "durationMs": 5869829,
      "drivingDurationMs": 5553654,
      "idlingDurationMs": 316175,
      "fuelConsumedMl": 4505,
      "fuelConsumedGallons": 1.19,
      "maxSpeedMph": 59.3,
      "averageSpeedMph": 13.5,
      "safetyEvents": [],
      "_no_driver_login": false,
      "_fuel_note": "QUIRK 5: fuelConsumedGallons is in US gallons. Multiply by 3.785 for litres. Samsara does not link fuel to specific Onfleet tasks."
    },
    {
      "id": "trip_48291001_20250611_002",
      "vehicleId": "48291001",
      "driverId": null,
      "startMs": 1749646860000,
      "endMs": 1749648470077,
      "startLocation": {
        "latitude": 39.783756,
        "longitude": -105.043973
      },
      "endLocation": {
        "latitude": 39.686215,
        "longitude": -105.068967
      },
      "startAddress": "5896 John Stravenue Apt. 389",
      "endAddress": "3548 Stephanie Crest",
      "startCoords": {
        "latitude": 39.755672,
        "longitude": -104.943294
      },
      "endCoords": {
        "latitude": 39.812819,
        "longitude": -105.07118
      },
      "distanceMeters": 7089.3,
      "durationMs": 1610077,
      "drivingDurationMs": 1289106,
      "idlingDurationMs": 320972,
      "fuelConsumedMl": 901,
      "fuelConsumedGallons": 0.238,
      "maxSpeedMph": 39.6,
      "averageSpeedMph": 9.8,
      "safetyEvents": [],
      "_no_driver_login": true,
      "_fuel_note": ""
    },
    {
      "id": "trip_48291001_20250611_003",
      "vehicleId": "48291001",
      "driverId": "22831000",
      "startMs": 1749640200000,
      "endMs": 1749647649151,
      "startLocation": {
        "latitude": 39.754232,
        "longitude": -105.050803
      },
      "endLocation": {
        "latitude": 39.715094,
        "longitude": -104.906001
      },
      "startAddress": "4311 Jennifer Brooks Apt. 387",
      "endAddress": "3330 David Mission Suite 885",
      "startCoords": {
        "latitude": 39.752478,
        "longitude": -105.006812
      },
      "endCoords": {
        "latitude": 39.818831,
        "longitude": -105.044142
      },
      "distanceMeters": 61245.9,
      "durationMs": 7449152,
      "drivingDurationMs": 6988101,
      "idlingDurationMs": 461051,
      "fuelConsumedMl": 7787,
      "fuelConsumedGallons": 2.057,
      "maxSpeedMph": 52.7,
      "averageSpeedMph": 18.4,
      "safetyEvents": [],
      "_no_driver_login": false,
      "_fuel_note": ""
    },
    {
      "id": "trip_48291001_20250611_004",
      "vehicleId": "48291001",
      "driverId": "22831000",
      "startMs": 1749638640000,
      "endMs": 1749644843348,
      "startLocation": {
        "latitude": 39.813621,
        "longitude": -104.962822
      },
      "endLocation": {
        "latitude": 39.695077,
        "longitude": -104.939579
      },
      "startAddress": "13169 Pierce Falls Apt. 463",
      "endAddress": "2014 Angela Inlet Suite 387",
      "startCoords": {
        "latitude": 39.741892,
        "longitude": -105.069033
      },
      "endCoords": {
        "latitude": 39.731133,
        "longitude": -105.079464
      },
      "distanceMeters": 41025.2,
      "durationMs": 6203348,
      "drivingDurationMs": 5397588,
      "idlingDurationMs": 805761,
      "fuelConsumedMl": 5216,
      "fuelConsumedGallons": 1.378,
      "maxSpeedMph": 57.3,
      "averageSpeedMph": 14.8,
      "safetyEvents": [],
      "_no_driver_login": false,
      "_fuel_note": ""
    },
    {
      "id": "trip_48291001_20250612_001",
      "vehicleId": "48291001",
      "driverId": "22831000",
      "startMs": 1749746940000,
      "endMs": 1749750619631,
      "startLocation": {
        "latitude": 39.700622,
        "longitude": -104.982602
      },
      "endLocation": {
        "latitude": 39.819145,
        "longitude": -104.956709
      },
      "startAddress": "3688 Parker Manor Apt. 902",
      "endAddress": "707 Johnson Villages",
      "startCoords": {
        "latitude": 39.784239,
        "longitude": -105.073868
      },
      "endCoords": {
        "latitude": 39.760671,
        "longitude": -104.976184
      },
      "distanceMeters": 29693.7,
      "durationMs": 3679632,
      "drivingDurationMs": 3442132,
      "idlingDurationMs": 237500,
      "fuelConsumedMl": 3774,
      "fuelConsumedGallons": 0.997,
      "maxSpeedMph": 41.6,
      "averageSpeedMph": 18.1,
      "safetyEvents": [],
      "_no_driver_login": false,
      "_fuel_note": "QUIRK 5: fuelConsumedGallons is in US gallons. Multiply by 3.785 for litres. Samsara does not link fuel to specific Onfleet tasks."
    },
    {
      "id": "trip_48291001_20250612_002",
      "vehicleId": "48291001",
      "driverId": "22831000",
      "startMs": 1749713880000,
      "endMs": 1749721656919,
      "startLocation": {
        "latitude": 39.790868,
        "longitude": -105.049384
      },
      "endLocation": {
        "latitude": 39.807181,
        "longitude": -105.070056
      },
      "startAddress": "080 Courtney Knoll",
      "endAddress": "57260 Erica Parkway",
      "startCoords": {
        "latitude": 39.741021,
        "longitude": -105.008567
      },
      "endCoords": {
        "latitude": 39.799277,
        "longitude": -105.057333
      },
      "distanceMeters": 53537.9,
      "durationMs": 7776920,
      "drivingDurationMs": 7326844,
      "idlingDurationMs": 450075,
      "fuelConsumedMl": 6806,
      "fuelConsumedGallons": 1.798,
      "maxSpeedMph": 71.0,
      "averageSpeedMph": 15.4,
      "safetyEvents": [
        {
          "type": "speeding",
          "startMs": 1749716280000,
          "maxSpeedMph": 71.0
        }
      ],
      "_no_driver_login": false,
      "_fuel_note": ""
    },
    {
      "id": "trip_48291001_20250613_001",
      "vehicleId": "48291001",
      "driverId": "22831000",
      "startMs": 1749819420000,
      "endMs": 1749830041556,
      "startLocation": {
        "latitude": 39.72123,
        "longitude": -104.944558
      },
      "endLocation": {
        "latitude": 39.789164,
        "longitude": -105.080823
      },
      "startAddress": "30548 Brown Trail",
      "endAddress": "0587 Stevens Locks",
      "startCoords": {
        "latitude": 39.808439,
        "longitude": -104.947213
      },
      "endCoords": {
        "latitude": 39.688849,
        "longitude": -105.064049
      },
      "distanceMeters": 68832.5,
      "durationMs": 10621557,
      "drivingDurationMs": 8640420,
      "idlingDurationMs": 1981137,
      "fuelConsumedMl": 8752,
      "fuelConsumedGallons": 2.312,
      "maxSpeedMph": 65.1,
      "averageSpeedMph": 14.5,
      "safetyEvents": [
        {
          "type": "speeding",
          "startMs": 1749828600000,
          "maxSpeedMph": 65.1
        }
      ],
      "_no_driver_login": false,
      "_fuel_note": "QUIRK 5: fuelConsumedGallons is in US gallons. Multiply by 3.785 for litres. Samsara does not link fuel to specific Onfleet tasks."
    },
    {
      "id": "trip_48291001_20250613_002",
      "vehicleId": "48291001",
      "driverId": "22831000",
      "startMs": 1749794760000,
      "endMs": 1749802128733,
      "startLocation": {
        "latitude": 39.766551,
        "longitude": -105.033624
      },
      "endLocation": {
        "latitude": 39.824669,
        "longitude": -104.909471
      },
      "startAddress": "52970 Jenkins Way Suite 926",
      "endAddress": "327 Wesley Ferry Suite 546",
      "startCoords": {
        "latitude": 39.755182,
        "longitude": -104.934448
      },
      "endCoords": {
        "latitude": 39.700848,
        "longitude": -105.037607
      },
      "distanceMeters": 44053.9,
      "durationMs": 7368734,
      "drivingDurationMs": 6516515,
      "idlingDurationMs": 852219,
      "fuelConsumedMl": 5602,
      "fuelConsumedGallons": 1.48,
      "maxSpeedMph": 59.4,
      "averageSpeedMph": 13.4,
      "safetyEvents": [],
      "_no_driver_login": false,
      "_fuel_note": ""
    },
    {
      "id": "trip_48291001_20250613_003",
      "vehicleId": "48291001",
      "driverId": "22831000",
      "startMs": 1749828660000,
      "endMs": 1749831306126,
      "startLocation": {
        "latitude": 39.813816,
        "longitude": -105.060306
      },
      "endLocation": {
        "latitude": 39.824691,
        "longitude": -104.923648
      },
      "startAddress": "6644 Cooper Mountains",
      "endAddress": "60593 Patricia Inlet",
      "startCoords": {
        "latitude": 39.725622,
        "longitude": -104.935755
      },
      "endCoords": {
        "latitude": 39.746282,
        "longitude": -104.965232
      },
      "distanceMeters": 19007.6,
      "durationMs": 2646126,
      "drivingDurationMs": 2164021,
      "idlingDurationMs": 482105,
      "fuelConsumedMl": 2415,
      "fuelConsumedGallons": 0.638,
      "maxSpeedMph": 53.2,
      "averageSpeedMph": 16.1,
      "safetyEvents": [],
      "_no_driver_login": false,
      "_fuel_note": ""
    },
    {
      "id": "trip_48291001_20250613_004",
      "vehicleId": "48291001",
      "driverId": "22831000",
      "startMs": 1749819600000,
      "endMs": 1749835746990,
      "startLocation": {
        "latitude": 39.753331,
        "longitude": -105.071707
      },
      "endLocation": {
        "latitude": 39.813925,
        "longitude": -105.022958
      },
      "startAddress": "61133 Gonzalez Road",
      "endAddress": "3129 Clark Cape Suite 447",
      "startCoords": {
        "latitude": 39.795887,
        "longitude": -104.913798
      },
      "endCoords": {
        "latitude": 39.733013,
        "longitude": -104.955569
      },
      "distanceMeters": 74020.0,
      "durationMs": 16146991,
      "drivingDurationMs": 13807440,
      "idlingDurationMs": 2339551,
      "fuelConsumedMl": 9411,
      "fuelConsumedGallons": 2.486,
      "maxSpeedMph": 61.4,
      "averageSpeedMph": 10.3,
      "safetyEvents": [],
      "_no_driver_login": false,
      "_fuel_note": ""
    },
    {
      "id": "trip_48291001_20250614_001",
      "vehicleId": "48291001",
      "driverId": "22831000",
      "startMs": 1749906180000,
      "endMs": 1749910198440,
      "startLocation": {
        "latitude": 39.822984,
        "longitude": -105.070497
      },
      "endLocation": {
        "latitude": 39.707428,
        "longitude": -105.085633
      },
      "startAddress": "611 Cynthia Wall Apt. 521",
      "endAddress": "49513 Warren Pine Suite 218",
      "startCoords": {
        "latitude": 39.737767,
        "longitude": -105.082939
      },
      "endCoords": {
        "latitude": 39.750178,
        "longitude": -105.078483
      },
      "distanceMeters": 20801.1,
      "durationMs": 4018440,
      "drivingDurationMs": 3582250,
      "idlingDurationMs": 436190,
      "fuelConsumedMl": 2646,
      "fuelConsumedGallons": 0.699,
      "maxSpeedMph": 31.6,
      "averageSpeedMph": 11.6,
      "safetyEvents": [],
      "_no_driver_login": false,
      "_fuel_note": "QUIRK 5: fuelConsumedGallons is in US gallons. Multiply by 3.785 for litres. Samsara does not link fuel to specific Onfleet tasks."
    },
    {
      "id": "trip_48291001_20250615_001",
      "vehicleId": "48291001",
      "driverId": "22831000",
      "startMs": 1749996540000,
      "endMs": 1750009856752,
      "startLocation": {
        "latitude": 39.768122,
        "longitude": -104.951823
      },
      "endLocation": {
        "latitude": 39.81407,
        "longitude": -105.035128
      },
      "startAddress": "14185 Burns Glens",
      "endAddress": "27323 Conway Village Suite 702",
      "startCoords": {
        "latitude": 39.825691,
        "longitude": -105.056453
      },
      "endCoords": {
        "latitude": 39.789913,
        "longitude": -105.037327
      },
      "distanceMeters": 69089.7,
      "durationMs": 13316753,
      "drivingDurationMs": 11056856,
      "idlingDurationMs": 2259897,
      "fuelConsumedMl": 8786,
      "fuelConsumedGallons": 2.321,
      "maxSpeedMph": 31.1,
      "averageSpeedMph": 11.6,
      "safetyEvents": [],
      "_no_driver_login": false,
      "_fuel_note": "QUIRK 5: fuelConsumedGallons is in US gallons. Multiply by 3.785 for litres. Samsara does not link fuel to specific Onfleet tasks."
    },
    {
      "id": "trip_48291001_20250615_002",
      "vehicleId": "48291001",
      "driverId": "22831000",
      "startMs": 1750006440000,
      "endMs": 1750012451275,
      "startLocation": {
        "latitude": 39.806059,
        "longitude": -105.046572
      },
      "endLocation": {
        "latitude": 39.683885,
        "longitude": -104.949562
      },
      "startAddress": "3699 Harris Shoals Apt. 687",
      "endAddress": "3058 Joshua Gardens Apt. 689",
      "startCoords": {
        "latitude": 39.72132,
        "longitude": -104.907616
      },
      "endCoords": {
        "latitude": 39.797181,
        "longitude": -105.044219
      },
      "distanceMeters": 27758.2,
      "durationMs": 6011276,
      "drivingDurationMs": 4916364,
      "idlingDurationMs": 1094911,
      "fuelConsumedMl": 3528,
      "fuelConsumedGallons": 0.932,
      "maxSpeedMph": 70.2,
      "averageSpeedMph": 10.3,
      "safetyEvents": [
        {
          "type": "speeding",
          "startMs": 1750011360000,
          "maxSpeedMph": 70.2
        }
      ],
      "_no_driver_login": false,
      "_fuel_note": ""
    },
    {
      "id": "trip_48291001_20250615_003",
      "vehicleId": "48291001",
      "driverId": "22831000",
      "startMs": 1749972480000,
      "endMs": 1749975462810,
      "startLocation": {
        "latitude": 39.735159,
        "longitude": -104.986927
      },
      "endLocation": {
        "latitude": 39.699867,
        "longitude": -104.981878
      },
      "startAddress": "5573 Anderson Station",
      "endAddress": "9255 Donald Mills Suite 113",
      "startCoords": {
        "latitude": 39.759945,
        "longitude": -105.008747
      },
      "endCoords": {
        "latitude": 39.800751,
        "longitude": -104.982322
      },
      "distanceMeters": 14257.9,
      "durationMs": 2982811,
      "drivingDurationMs": 2421616,
      "idlingDurationMs": 561195,
      "fuelConsumedMl": 1813,
      "fuelConsumedGallons": 0.479,
      "maxSpeedMph": 44.9,
      "averageSpeedMph": 10.7,
      "safetyEvents": [],
      "_no_driver_login": false,
      "_fuel_note": ""
    },
    {
      "id": "trip_48291001_20250615_004",
      "vehicleId": "48291001",
      "driverId": "22831000",
      "startMs": 1749969120000,
      "endMs": 1749975903483,
      "startLocation": {
        "latitude": 39.774867,
        "longitude": -104.962533
      },
      "endLocation": {
        "latitude": 39.72053,
        "longitude": -104.923401
      },
      "startAddress": "1738 Jones Roads Suite 904",
      "endAddress": "6789 Santiago Dam",
      "startCoords": {
        "latitude": 39.685324,
        "longitude": -104.982584
      },
      "endCoords": {
        "latitude": 39.809386,
        "longitude": -104.96125
      },
      "distanceMeters": 40760.3,
      "durationMs": 6783483,
      "drivingDurationMs": 5500282,
      "idlingDurationMs": 1283201,
      "fuelConsumedMl": 5182,
      "fuelConsumedGallons": 1.369,
      "maxSpeedMph": 57.4,
      "averageSpeedMph": 13.4,
      "safetyEvents": [],
      "_no_driver_login": false,
      "_fuel_note": ""
    },
    {
      "id": "trip_48291001_20250616_001",
      "vehicleId": "48291001",
      "driverId": "22831000",
      "startMs": 1750063260000,
      "endMs": 1750073517628,
      "startLocation": {
        "latitude": 39.73464,
        "longitude": -104.910829
      },
      "endLocation": {
        "latitude": 39.767074,
        "longitude": -105.063407
      },
      "startAddress": "6249 Martin Trace",
      "endAddress": "65984 Kelley Village Suite 035",
      "startCoords": {
        "latitude": 39.789875,
        "longitude": -104.901312
      },
      "endCoords": {
        "latitude": 39.746572,
        "longitude": -104.966465
      },
      "distanceMeters": 52772.1,
      "durationMs": 10257628,
      "drivingDurationMs": 9356668,
      "idlingDurationMs": 900960,
      "fuelConsumedMl": 6708,
      "fuelConsumedGallons": 1.772,
      "maxSpeedMph": 43.4,
      "averageSpeedMph": 11.5,
      "safetyEvents": [],
      "_no_driver_login": false,
      "_fuel_note": "QUIRK 5: fuelConsumedGallons is in US gallons. Multiply by 3.785 for litres. Samsara does not link fuel to specific Onfleet tasks."
    },
    {
      "id": "trip_48291001_20250616_002",
      "vehicleId": "48291001",
      "driverId": "22831000",
      "startMs": 1750084260000,
      "endMs": 1750098211322,
      "startLocation": {
        "latitude": 39.707073,
        "longitude": -104.938062
      },
      "endLocation": {
        "latitude": 39.787153,
        "longitude": -104.947224
      },
      "startAddress": "723 Strickland Extension Apt. 759",
      "endAddress": "268 Jones Pines Suite 800",
      "startCoords": {
        "latitude": 39.736488,
        "longitude": -105.046465
      },
      "endCoords": {
        "latitude": 39.760976,
        "longitude": -105.033687
      },
      "distanceMeters": 84684.9,
      "durationMs": 13951322,
      "drivingDurationMs": 11735237,
      "idlingDurationMs": 2216085,
      "fuelConsumedMl": 10766,
      "fuelConsumedGallons": 2.844,
      "maxSpeedMph": 40.1,
      "averageSpeedMph": 13.6,
      "safetyEvents": [],
      "_no_driver_login": false,
      "_fuel_note": ""
    },
    {
      "id": "trip_48291001_20250616_003",
      "vehicleId": "48291001",
      "driverId": "22831000",
      "startMs": 1750071180000,
      "endMs": 1750075102321,
      "startLocation": {
        "latitude": 39.704386,
        "longitude": -104.974695
      },
      "endLocation": {
        "latitude": 39.715522,
        "longitude": -105.052225
      },
      "startAddress": "66063 Jonathan Underpass",
      "endAddress": "65715 Suzanne Manor Suite 092",
      "startCoords": {
        "latitude": 39.742729,
        "longitude": -104.900025
      },
      "endCoords": {
        "latitude": 39.798592,
        "longitude": -105.012136
      },
      "distanceMeters": 27347.7,
      "durationMs": 3922322,
      "drivingDurationMs": 3461619,
      "idlingDurationMs": 460703,
      "fuelConsumedMl": 3479,
      "fuelConsumedGallons": 0.919,
      "maxSpeedMph": 51.8,
      "averageSpeedMph": 15.6,
      "safetyEvents": [],
      "_no_driver_login": false,
      "_fuel_note": ""
    },
    {
      "id": "trip_48291001_20250617_001",
      "vehicleId": "48291001",
      "driverId": "22831000",
      "startMs": 1750147500000,
      "endMs": 1750153252876,
      "startLocation": {
        "latitude": 39.736135,
        "longitude": -105.08207
      },
      "endLocation": {
        "latitude": 39.734885,
        "longitude": -104.928611
      },
      "startAddress": "199 Ray Ways Suite 139",
      "endAddress": "360 Gonzalez Keys Apt. 450",
      "startCoords": {
        "latitude": 39.757829,
        "longitude": -104.933105
      },
      "endCoords": {
        "latitude": 39.707728,
        "longitude": -105.026092
      },
      "distanceMeters": 39386.8,
      "durationMs": 5752876,
      "drivingDurationMs": 4767654,
      "idlingDurationMs": 985222,
      "fuelConsumedMl": 5008,
      "fuelConsumedGallons": 1.323,
      "maxSpeedMph": 63.6,
      "averageSpeedMph": 15.3,
      "safetyEvents": [],
      "_no_driver_login": false,
      "_fuel_note": "QUIRK 5: fuelConsumedGallons is in US gallons. Multiply by 3.785 for litres. Samsara does not link fuel to specific Onfleet tasks."
    },
    {
      "id": "trip_48291001_20250617_002",
      "vehicleId": "48291001",
      "driverId": "22831000",
      "startMs": 1750184340000,
      "endMs": 1750187178321,
      "startLocation": {
        "latitude": 39.733435,
        "longitude": -104.97693
      },
      "endLocation": {
        "latitude": 39.806307,
        "longitude": -105.051354
      },
      "startAddress": "8666 Sutton Avenue",
      "endAddress": "45646 Jacob Cove Suite 187",
      "startCoords": {
        "latitude": 39.783594,
        "longitude": -105.026998
      },
      "endCoords": {
        "latitude": 39.708882,
        "longitude": -105.073705
      },
      "distanceMeters": 19130.9,
      "durationMs": 2838322,
      "drivingDurationMs": 2370697,
      "idlingDurationMs": 467625,
      "fuelConsumedMl": 2434,
      "fuelConsumedGallons": 0.643,
      "maxSpeedMph": 47.5,
      "averageSpeedMph": 15.1,
      "safetyEvents": [],
      "_no_driver_login": false,
      "_fuel_note": ""
    },
    {
      "id": "trip_48291001_20250617_003",
      "vehicleId": "48291001",
      "driverId": null,
      "startMs": 1750168320000,
      "endMs": 1750177907668,
      "startLocation": {
        "latitude": 39.826936,
        "longitude": -105.0056
      },
      "endLocation": {
        "latitude": 39.687893,
        "longitude": -104.969995
      },
      "startAddress": "46807 Susan Roads",
      "endAddress": "24136 Nicholas Field",
      "startCoords": {
        "latitude": 39.803245,
        "longitude": -104.90557
      },
      "endCoords": {
        "latitude": 39.811991,
        "longitude": -105.042658
      },
      "distanceMeters": 49895.3,
      "durationMs": 9587669,
      "drivingDurationMs": 8219621,
      "idlingDurationMs": 1368047,
      "fuelConsumedMl": 6344,
      "fuelConsumedGallons": 1.676,
      "maxSpeedMph": 66.4,
      "averageSpeedMph": 11.6,
      "safetyEvents": [
        {
          "type": "speeding",
          "startMs": 1750169880000,
          "maxSpeedMph": 66.4
        }
      ],
      "_no_driver_login": true,
      "_fuel_note": ""
    },
    {
      "id": "trip_48291001_20250617_004",
      "vehicleId": "48291001",
      "driverId": "22831000",
      "startMs": 1750147140000,
      "endMs": 1750149129136,
      "startLocation": {
        "latitude": 39.823915,
        "longitude": -104.97018
      },
      "endLocation": {
        "latitude": 39.827005,
        "longitude": -104.935827
      },
      "startAddress": "1869 Harry Mall Suite 091",
      "endAddress": "740 Melendez Key Suite 783",
      "startCoords": {
        "latitude": 39.75133,
        "longitude": -105.028818
      },
      "endCoords": {
        "latitude": 39.826061,
        "longitude": -104.947193
      },
      "distanceMeters": 8715.6,
      "durationMs": 1989136,
      "drivingDurationMs": 1699497,
      "idlingDurationMs": 289640,
      "fuelConsumedMl": 1109,
      "fuelConsumedGallons": 0.293,
      "maxSpeedMph": 32.8,
      "averageSpeedMph": 9.8,
      "safetyEvents": [],
      "_no_driver_login": false,
      "_fuel_note": ""
    },
    {
      "id": "trip_48291001_20250618_001",
      "vehicleId": "48291001",
      "driverId": "22831000",
      "startMs": 1750231020000,
      "endMs": 1750242734240,
      "startLocation": {
        "latitude": 39.736164,
        "longitude": -105.072491
      },
      "endLocation": {
        "latitude": 39.735832,
        "longitude": -104.987991
      },
      "startAddress": "3201 Smith Ville Apt. 947",
      "endAddress": "46742 Walker Ramp",
      "startCoords": {
        "latitude": 39.740014,
        "longitude": -104.933559
      },
      "endCoords": {
        "latitude": 39.732578,
        "longitude": -105.00714
      },
      "distanceMeters": 62581.0,
      "durationMs": 11714240,
      "drivingDurationMs": 10855380,
      "idlingDurationMs": 858860,
      "fuelConsumedMl": 7957,
      "fuelConsumedGallons": 2.102,
      "maxSpeedMph": 44.2,
      "averageSpeedMph": 12.0,
      "safetyEvents": [],
      "_no_driver_login": false,
      "_fuel_note": "QUIRK 5: fuelConsumedGallons is in US gallons. Multiply by 3.785 for litres. Samsara does not link fuel to specific Onfleet tasks."
    },
    {
      "id": "trip_48291001_20250618_002",
      "vehicleId": "48291001",
      "driverId": "22831000",
      "startMs": 1750265640000,
      "endMs": 1750276579196,
      "startLocation": {
        "latitude": 39.708786,
        "longitude": -104.988458
      },
      "endLocation": {
        "latitude": 39.793103,
        "longitude": -104.900394
      },
      "startAddress": "3073 Cannon Mills Apt. 989",
      "endAddress": "23066 Chase Well",
      "startCoords": {
        "latitude": 39.823262,
        "longitude": -105.053633
      },
      "endCoords": {
        "latitude": 39.812119,
        "longitude": -105.008408
      },
      "distanceMeters": 79553.6,
      "durationMs": 10939197,
      "drivingDurationMs": 9299457,
      "idlingDurationMs": 1639740,
      "fuelConsumedMl": 10115,
      "fuelConsumedGallons": 2.672,
      "maxSpeedMph": 64.2,
      "averageSpeedMph": 16.3,
      "safetyEvents": [],
      "_no_driver_login": false,
      "_fuel_note": ""
    },
    {
      "id": "trip_48291001_20250618_003",
      "vehicleId": "48291001",
      "driverId": "22831000",
      "startMs": 1750248240000,
      "endMs": 1750251232932,
      "startLocation": {
        "latitude": 39.812178,
        "longitude": -104.915459
      },
      "endLocation": {
        "latitude": 39.804398,
        "longitude": -104.945953
      },
      "startAddress": "28655 Meghan Street",
      "endAddress": "10576 Gregory Pass Suite 633",
      "startCoords": {
        "latitude": 39.81499,
        "longitude": -105.027979
      },
      "endCoords": {
        "latitude": 39.75508,
        "longitude": -105.00559
      },
      "distanceMeters": 23260.3,
      "durationMs": 2992933,
      "drivingDurationMs": 2739647,
      "idlingDurationMs": 253286,
      "fuelConsumedMl": 2956,
      "fuelConsumedGallons": 0.781,
      "maxSpeedMph": 36.1,
      "averageSpeedMph": 17.4,
      "safetyEvents": [],
      "_no_driver_login": false,
      "_fuel_note": ""
    },
    {
      "id": "trip_48291001_20250618_004",
      "vehicleId": "48291001",
      "driverId": null,
      "startMs": 1750246980000,
      "endMs": 1750252105197,
      "startLocation": {
        "latitude": 39.752713,
        "longitude": -105.064264
      },
      "endLocation": {
        "latitude": 39.823449,
        "longitude": -104.961854
      },
      "startAddress": "5714 Jermaine Station",
      "endAddress": "6836 Greene Square Suite 870",
      "startCoords": {
        "latitude": 39.801391,
        "longitude": -105.087708
      },
      "endCoords": {
        "latitude": 39.807925,
        "longitude": -105.009089
      },
      "distanceMeters": 30752.3,
      "durationMs": 5125198,
      "drivingDurationMs": 4602612,
      "idlingDurationMs": 522586,
      "fuelConsumedMl": 3910,
      "fuelConsumedGallons": 1.033,
      "maxSpeedMph": 53.9,
      "averageSpeedMph": 13.4,
      "safetyEvents": [],
      "_no_driver_login": true,
      "_fuel_note": ""
    },
    {
      "id": "trip_48291001_20250618_005",
      "vehicleId": "48291001",
      "driverId": "22831000",
      "startMs": 1750266840000,
      "endMs": 1750277516935,
      "startLocation": {
        "latitude": 39.694692,
        "longitude": -105.000816
      },
      "endLocation": {
        "latitude": 39.820643,
        "longitude": -105.06685
      },
      "startAddress": "813 Perez Center Apt. 264",
      "endAddress": "4184 Morrison Curve",
      "startCoords": {
        "latitude": 39.759248,
        "longitude": -104.940513
      },
      "endCoords": {
        "latitude": 39.740303,
        "longitude": -104.998217
      },
      "distanceMeters": 76840.0,
      "durationMs": 10676935,
      "drivingDurationMs": 9710396,
      "idlingDurationMs": 966539,
      "fuelConsumedMl": 9770,
      "fuelConsumedGallons": 2.581,
      "maxSpeedMph": 29.4,
      "averageSpeedMph": 16.1,
      "safetyEvents": [],
      "_no_driver_login": false,
      "_fuel_note": ""
    },
    {
      "id": "trip_48291001_20250618_006",
      "vehicleId": "48291001",
      "driverId": "22831000",
      "startMs": 1750251420000,
      "endMs": 1750253238497,
      "startLocation": {
        "latitude": 39.806308,
        "longitude": -104.954404
      },
      "endLocation": {
        "latitude": 39.750704,
        "longitude": -104.935301
      },
      "startAddress": "51212 Richard Ridges Apt. 679",
      "endAddress": "141 Smith Mews Apt. 732",
      "startCoords": {
        "latitude": 39.773681,
        "longitude": -104.919932
      },
      "endCoords": {
        "latitude": 39.816168,
        "longitude": -105.066495
      },
      "distanceMeters": 11406.2,
      "durationMs": 1818497,
      "drivingDurationMs": 1528845,
      "idlingDurationMs": 289652,
      "fuelConsumedMl": 1450,
      "fuelConsumedGallons": 0.383,
      "maxSpeedMph": 36.9,
      "averageSpeedMph": 14.0,
      "safetyEvents": [],
      "_no_driver_login": false,
      "_fuel_note": ""
    },
    {
      "id": "trip_48291001_20250619_001",
      "vehicleId": "48291001",
      "driverId": "22831000",
      "startMs": 1750328460000,
      "endMs": 1750335961704,
      "startLocation": {
        "latitude": 39.69759,
        "longitude": -105.013535
      },
      "endLocation": {
        "latitude": 39.779233,
        "longitude": -104.984324
      },
      "startAddress": "8566 Christopher Ranch",
      "endAddress": "797 Jamie Summit Apt. 297",
      "startCoords": {
        "latitude": 39.709149,
        "longitude": -105.006891
      },
      "endCoords": {
        "latitude": 39.807798,
        "longitude": -104.900593
      },
      "distanceMeters": 50933.7,
      "durationMs": 7501704,
      "drivingDurationMs": 6581549,
      "idlingDurationMs": 920156,
      "fuelConsumedMl": 6477,
      "fuelConsumedGallons": 1.711,
      "maxSpeedMph": 45.8,
      "averageSpeedMph": 15.2,
      "safetyEvents": [],
      "_no_driver_login": false,
      "_fuel_note": "QUIRK 5: fuelConsumedGallons is in US gallons. Multiply by 3.785 for litres. Samsara does not link fuel to specific Onfleet tasks."
    },
    {
      "id": "trip_48291001_20250619_002",
      "vehicleId": "48291001",
      "driverId": "22831000",
      "startMs": 1750326240000,
      "endMs": 1750335675723,
      "startLocation": {
        "latitude": 39.727405,
        "longitude": -105.054006
      },
      "endLocation": {
        "latitude": 39.757895,
        "longitude": -104.996947
      },
      "startAddress": "97616 Antonio Plains Suite 398",
      "endAddress": "8578 Short Corner Apt. 113",
      "startCoords": {
        "latitude": 39.702104,
        "longitude": -105.033118
      },
      "endCoords": {
        "latitude": 39.809261,
        "longitude": -104.934575
      },
      "distanceMeters": 58900.5,
      "durationMs": 9435724,
      "drivingDurationMs": 8304947,
      "idlingDurationMs": 1130776,
      "fuelConsumedMl": 7488,
      "fuelConsumedGallons": 1.978,
      "maxSpeedMph": 66.9,
      "averageSpeedMph": 14.0,
      "safetyEvents": [
        {
          "type": "speeding",
          "startMs": 1750327500000,
          "maxSpeedMph": 66.9
        }
      ],
      "_no_driver_login": false,
      "_fuel_note": ""
    },
    {
      "id": "trip_48291001_20250619_003",
      "vehicleId": "48291001",
      "driverId": "22831000",
      "startMs": 1750330140000,
      "endMs": 1750335531787,
      "startLocation": {
        "latitude": 39.802993,
        "longitude": -104.911376
      },
      "endLocation": {
        "latitude": 39.72317,
        "longitude": -105.00108
      },
      "startAddress": "714 Hernandez Centers Apt. 737",
      "endAddress": "08589 David Highway Apt. 358",
      "startCoords": {
        "latitude": 39.723634,
        "longitude": -104.979663
      },
      "endCoords": {
        "latitude": 39.807163,
        "longitude": -104.901135
      },
      "distanceMeters": 40565.7,
      "durationMs": 5391787,
      "drivingDurationMs": 5070111,
      "idlingDurationMs": 321676,
      "fuelConsumedMl": 5160,
      "fuelConsumedGallons": 1.363,
      "maxSpeedMph": 69.7,
      "averageSpeedMph": 16.8,
      "safetyEvents": [
        {
          "type": "speeding",
          "startMs": 1750334040000,
          "maxSpeedMph": 69.7
        }
      ],
      "_no_driver_login": false,
      "_fuel_note": ""
    },
    {
      "id": "trip_48291001_20250620_001",
      "vehicleId": "48291001",
      "driverId": "22831000",
      "startMs": 1750400580000,
      "endMs": 1750402867576,
      "startLocation": {
        "latitude": 39.709903,
        "longitude": -105.046376
      },
      "endLocation": {
        "latitude": 39.783191,
        "longitude": -104.916615
      },
      "startAddress": "97884 Christina Drive Apt. 518",
      "endAddress": "2593 Shannon Road Suite 624",
      "startCoords": {
        "latitude": 39.775513,
        "longitude": -104.922571
      },
      "endCoords": {
        "latitude": 39.762232,
        "longitude": -104.943046
      },
      "distanceMeters": 15124.2,
      "durationMs": 2287576,
      "drivingDurationMs": 1929065,
      "idlingDurationMs": 358511,
      "fuelConsumedMl": 1923,
      "fuelConsumedGallons": 0.508,
      "maxSpeedMph": 48.5,
      "averageSpeedMph": 14.8,
      "safetyEvents": [],
      "_no_driver_login": false,
      "_fuel_note": "QUIRK 5: fuelConsumedGallons is in US gallons. Multiply by 3.785 for litres. Samsara does not link fuel to specific Onfleet tasks."
    },
    {
      "id": "trip_48291001_20250620_002",
      "vehicleId": "48291001",
      "driverId": "22831000",
      "startMs": 1750415460000,
      "endMs": 1750425561331,
      "startLocation": {
        "latitude": 39.719499,
        "longitude": -105.025842
      },
      "endLocation": {
        "latitude": 39.725671,
        "longitude": -104.969709
      },
      "startAddress": "0220 Franklin Mount Suite 993",
      "endAddress": "2193 Diaz Pike Apt. 506",
      "startCoords": {
        "latitude": 39.763934,
        "longitude": -104.957822
      },
      "endCoords": {
        "latitude": 39.794572,
        "longitude": -105.009589
      },
      "distanceMeters": 76845.0,
      "durationMs": 10101331,
      "drivingDurationMs": 8994613,
      "idlingDurationMs": 1106718,
      "fuelConsumedMl": 9770,
      "fuelConsumedGallons": 2.581,
      "maxSpeedMph": 30.0,
      "averageSpeedMph": 17.0,
      "safetyEvents": [],
      "_no_driver_login": false,
      "_fuel_note": ""
    },
    {
      "id": "trip_48291001_20250620_003",
      "vehicleId": "48291001",
      "driverId": "22831000",
      "startMs": 1750421520000,
      "endMs": 1750427866123,
      "startLocation": {
        "latitude": 39.69463,
        "longitude": -105.032787
      },
      "endLocation": {
        "latitude": 39.822462,
        "longitude": -104.978888
      },
      "startAddress": "4142 Emma Dam Suite 397",
      "endAddress": "94386 Chan Trafficway Apt. 958",
      "startCoords": {
        "latitude": 39.81715,
        "longitude": -105.003347
      },
      "endCoords": {
        "latitude": 39.712546,
        "longitude": -105.055952
      },
      "distanceMeters": 47341.6,
      "durationMs": 6346124,
      "drivingDurationMs": 5650102,
      "idlingDurationMs": 696021,
      "fuelConsumedMl": 6019,
      "fuelConsumedGallons": 1.59,
      "maxSpeedMph": 58.9,
      "averageSpeedMph": 16.7,
      "safetyEvents": [],
      "_no_driver_login": false,
      "_fuel_note": ""
    },
    {
      "id": "trip_48291001_20250620_004",
      "vehicleId": "48291001",
      "driverId": "22831000",
      "startMs": 1750402200000,
      "endMs": 1750412309929,
      "startLocation": {
        "latitude": 39.761192,
        "longitude": -105.068311
      },
      "endLocation": {
        "latitude": 39.76705,
        "longitude": -104.960797
      },
      "startAddress": "7558 Lisa Brooks",
      "endAddress": "5032 Mora Trafficway",
      "startCoords": {
        "latitude": 39.685197,
        "longitude": -104.926121
      },
      "endCoords": {
        "latitude": 39.737199,
        "longitude": -104.956155
      },
      "distanceMeters": 66423.0,
      "durationMs": 10109929,
      "drivingDurationMs": 9191345,
      "idlingDurationMs": 918584,
      "fuelConsumedMl": 8445,
      "fuelConsumedGallons": 2.231,
      "maxSpeedMph": 61.7,
      "averageSpeedMph": 14.7,
      "safetyEvents": [],
      "_no_driver_login": false,
      "_fuel_note": ""
    },
    {
      "id": "trip_48291001_20250621_001",
      "vehicleId": "48291001",
      "driverId": "22831000",
      "startMs": 1750505400000,
      "endMs": 1750507808362,
      "startLocation": {
        "latitude": 39.70338,
        "longitude": -105.054344
      },
      "endLocation": {
        "latitude": 39.778205,
        "longitude": -104.899601
      },
      "startAddress": "74873 Cynthia Stravenue Apt. 200",
      "endAddress": "6517 Rebecca Lakes",
      "startCoords": {
        "latitude": 39.802763,
        "longitude": -104.998969
      },
      "endCoords": {
        "latitude": 39.711376,
        "longitude": -105.002852
      },
      "distanceMeters": 18473.0,
      "durationMs": 2408362,
      "drivingDurationMs": 2080998,
      "idlingDurationMs": 327364,
      "fuelConsumedMl": 2347,
      "fuelConsumedGallons": 0.62,
      "maxSpeedMph": 53.9,
      "averageSpeedMph": 17.2,
      "safetyEvents": [],
      "_no_driver_login": false,
      "_fuel_note": "QUIRK 5: fuelConsumedGallons is in US gallons. Multiply by 3.785 for litres. Samsara does not link fuel to specific Onfleet tasks."
    },
    {
      "id": "trip_48291001_20250621_002",
      "vehicleId": "48291001",
      "driverId": "22831000",
      "startMs": 1750499940000,
      "endMs": 1750504228114,
      "startLocation": {
        "latitude": 39.820361,
        "longitude": -104.917499
      },
      "endLocation": {
        "latitude": 39.690893,
        "longitude": -105.021154
      },
      "startAddress": "66342 Cindy Knoll",
      "endAddress": "14917 Calderon Flat Suite 779",
      "startCoords": {
        "latitude": 39.813151,
        "longitude": -104.949547
      },
      "endCoords": {
        "latitude": 39.768226,
        "longitude": -104.978799
      },
      "distanceMeters": 28148.7,
      "durationMs": 4288114,
      "drivingDurationMs": 3676607,
      "idlingDurationMs": 611507,
      "fuelConsumedMl": 3577,
      "fuelConsumedGallons": 0.945,
      "maxSpeedMph": 68.4,
      "averageSpeedMph": 14.7,
      "safetyEvents": [
        {
          "type": "speeding",
          "startMs": 1750503180000,
          "maxSpeedMph": 68.4
        }
      ],
      "_no_driver_login": false,
      "_fuel_note": ""
    },
    {
      "id": "trip_48291001_20250622_001",
      "vehicleId": "48291001",
      "driverId": "22831000",
      "startMs": 1750592640000,
      "endMs": 1750593709248,
      "startLocation": {
        "latitude": 39.784139,
        "longitude": -104.93673
      },
      "endLocation": {
        "latitude": 39.704177,
        "longitude": -104.966191
      },
      "startAddress": "5736 Gina Underpass",
      "endAddress": "598 Garcia Freeway",
      "startCoords": {
        "latitude": 39.710306,
        "longitude": -104.926318
      },
      "endCoords": {
        "latitude": 39.760621,
        "longitude": -104.909543
      },
      "distanceMeters": 5652.9,
      "durationMs": 1069248,
      "drivingDurationMs": 882982,
      "idlingDurationMs": 186266,
      "fuelConsumedMl": 719,
      "fuelConsumedGallons": 0.19,
      "maxSpeedMph": 54.4,
      "averageSpeedMph": 11.8,
      "safetyEvents": [],
      "_no_driver_login": false,
      "_fuel_note": "QUIRK 5: fuelConsumedGallons is in US gallons. Multiply by 3.785 for litres. Samsara does not link fuel to specific Onfleet tasks."
    },
    {
      "id": "trip_48291001_20250623_001",
      "vehicleId": "48291001",
      "driverId": "22831000",
      "startMs": 1750679040000,
      "endMs": 1750691908655,
      "startLocation": {
        "latitude": 39.696062,
        "longitude": -105.010575
      },
      "endLocation": {
        "latitude": 39.708552,
        "longitude": -105.033064
      },
      "startAddress": "599 Cindy Manors Suite 551",
      "endAddress": "7876 Lewis Highway Apt. 098",
      "startCoords": {
        "latitude": 39.724176,
        "longitude": -105.05729
      },
      "endCoords": {
        "latitude": 39.771676,
        "longitude": -105.071178
      },
      "distanceMeters": 81364.1,
      "durationMs": 12868656,
      "drivingDurationMs": 11271363,
      "idlingDurationMs": 1597293,
      "fuelConsumedMl": 10346,
      "fuelConsumedGallons": 2.733,
      "maxSpeedMph": 56.3,
      "averageSpeedMph": 14.1,
      "safetyEvents": [],
      "_no_driver_login": false,
      "_fuel_note": "QUIRK 5: fuelConsumedGallons is in US gallons. Multiply by 3.785 for litres. Samsara does not link fuel to specific Onfleet tasks."
    },
    {
      "id": "trip_48291001_20250623_002",
      "vehicleId": "48291001",
      "driverId": "22831000",
      "startMs": 1750697880000,
      "endMs": 1750704045290,
      "startLocation": {
        "latitude": 39.793959,
        "longitude": -105.03062
      },
      "endLocation": {
        "latitude": 39.725786,
        "longitude": -105.061188
      },
      "startAddress": "65372 Amanda Loop Apt. 067",
      "endAddress": "68037 Howard Underpass Apt. 082",
      "startCoords": {
        "latitude": 39.785551,
        "longitude": -104.916076
      },
      "endCoords": {
        "latitude": 39.739344,
        "longitude": -104.926071
      },
      "distanceMeters": 47968.1,
      "durationMs": 6165291,
      "drivingDurationMs": 5792242,
      "idlingDurationMs": 373049,
      "fuelConsumedMl": 6098,
      "fuelConsumedGallons": 1.611,
      "maxSpeedMph": 37.7,
      "averageSpeedMph": 17.4,
      "safetyEvents": [],
      "_no_driver_login": false,
      "_fuel_note": ""
    },
    {
      "id": "trip_48291001_20250623_003",
      "vehicleId": "48291001",
      "driverId": "22831000",
      "startMs": 1750693860000,
      "endMs": 1750695784974,
      "startLocation": {
        "latitude": 39.807757,
        "longitude": -105.001521
      },
      "endLocation": {
        "latitude": 39.759935,
        "longitude": -104.940781
      },
      "startAddress": "493 Brian Lock Apt. 057",
      "endAddress": "218 Matthew Ville",
      "startCoords": {
        "latitude": 39.765941,
        "longitude": -105.069985
      },
      "endCoords": {
        "latitude": 39.687816,
        "longitude": -105.016783
      },
      "distanceMeters": 12858.2,
      "durationMs": 1924974,
      "drivingDurationMs": 1586885,
      "idlingDurationMs": 338089,
      "fuelConsumedMl": 1635,
      "fuelConsumedGallons": 0.432,
      "maxSpeedMph": 64.1,
      "averageSpeedMph": 14.9,
      "safetyEvents": [],
      "_no_driver_login": false,
      "_fuel_note": ""
    },
    {
      "id": "trip_48291001_20250624_001",
      "vehicleId": "48291001",
      "driverId": "22831000",
      "startMs": 1750786980000,
      "endMs": 1750789327311,
      "startLocation": {
        "latitude": 39.757824,
        "longitude": -104.906672
      },
      "endLocation": {
        "latitude": 39.791616,
        "longitude": -105.0141
      },
      "startAddress": "337 Mccarthy Drive Suite 406",
      "endAddress": "7573 Sharon Lodge Apt. 331",
      "startCoords": {
        "latitude": 39.716124,
        "longitude": -104.964196
      },
      "endCoords": {
        "latitude": 39.719793,
        "longitude": -104.997632
      },
      "distanceMeters": 11144.8,
      "durationMs": 2347311,
      "drivingDurationMs": 2022173,
      "idlingDurationMs": 325138,
      "fuelConsumedMl": 1416,
      "fuelConsumedGallons": 0.374,
      "maxSpeedMph": 63.9,
      "averageSpeedMph": 10.6,
      "safetyEvents": [],
      "_no_driver_login": false,
      "_fuel_note": "QUIRK 5: fuelConsumedGallons is in US gallons. Multiply by 3.785 for litres. Samsara does not link fuel to specific Onfleet tasks."
    },
    {
      "id": "trip_48291001_20250624_002",
      "vehicleId": "48291001",
      "driverId": "22831000",
      "startMs": 1750784280000,
      "endMs": 1750795345170,
      "startLocation": {
        "latitude": 39.818295,
        "longitude": -104.956441
      },
      "endLocation": {
        "latitude": 39.81049,
        "longitude": -105.014372
      },
      "startAddress": "8659 Vincent Prairie Apt. 221",
      "endAddress": "8235 Calvin Parkways",
      "startCoords": {
        "latitude": 39.707885,
        "longitude": -104.914882
      },
      "endCoords": {
        "latitude": 39.709335,
        "longitude": -104.980652
      },
      "distanceMeters": 49789.0,
      "durationMs": 11065170,
      "drivingDurationMs": 9039226,
      "idlingDurationMs": 2025944,
      "fuelConsumedMl": 6329,
      "fuelConsumedGallons": 1.672,
      "maxSpeedMph": 29.6,
      "averageSpeedMph": 10.1,
      "safetyEvents": [],
      "_no_driver_login": false,
      "_fuel_note": ""
    },
    {
      "id": "trip_48291001_20250624_003",
      "vehicleId": "48291001",
      "driverId": "22831000",
      "startMs": 1750788360000,
      "endMs": 1750792704787,
      "startLocation": {
        "latitude": 39.720098,
        "longitude": -105.046432
      },
      "endLocation": {
        "latitude": 39.789129,
        "longitude": -104.99858
      },
      "startAddress": "88805 Kristin Alley",
      "endAddress": "57854 Jamie Tunnel",
      "startCoords": {
        "latitude": 39.758404,
        "longitude": -105.085147
      },
      "endCoords": {
        "latitude": 39.760991,
        "longitude": -105.071474
      },
      "distanceMeters": 32939.8,
      "durationMs": 4344788,
      "drivingDurationMs": 4116634,
      "idlingDurationMs": 228154,
      "fuelConsumedMl": 4187,
      "fuelConsumedGallons": 1.106,
      "maxSpeedMph": 46.5,
      "averageSpeedMph": 17.0,
      "safetyEvents": [],
      "_no_driver_login": false,
      "_fuel_note": ""
    },
    {
      "id": "trip_48291001_20250625_001",
      "vehicleId": "48291001",
      "driverId": "22831000",
      "startMs": 1750871100000,
      "endMs": 1750885200000,
      "startLocation": {
        "latitude": 39.770866,
        "longitude": -104.99892
      },
      "endLocation": {
        "latitude": 39.796825,
        "longitude": -104.911032
      },
      "startAddress": "378 Day Curve Apt. 382",
      "endAddress": "6298 Tony Lock",
      "startCoords": {
        "latitude": 39.770467,
        "longitude": -105.045268
      },
      "endCoords": {
        "latitude": 39.774088,
        "longitude": -104.992948
      },
      "distanceMeters": 61828.7,
      "durationMs": 14100000,
      "drivingDurationMs": 12063747,
      "idlingDurationMs": 2036253,
      "fuelConsumedMl": 7862,
      "fuelConsumedGallons": 2.077,
      "maxSpeedMph": 59.9,
      "averageSpeedMph": 9.8,
      "safetyEvents": [],
      "_no_driver_login": false,
      "_fuel_note": "QUIRK 5: fuelConsumedGallons is in US gallons. Multiply by 3.785 for litres. Samsara does not link fuel to specific Onfleet tasks."
    },
    {
      "id": "trip_48291001_20250625_002",
      "vehicleId": "48291001",
      "driverId": "22831000",
      "startMs": 1750855680000,
      "endMs": 1750862215189,
      "startLocation": {
        "latitude": 39.787625,
        "longitude": -104.984133
      },
      "endLocation": {
        "latitude": 39.772501,
        "longitude": -104.904408
      },
      "startAddress": "42415 Eric Estate",
      "endAddress": "9671 Kimberly Parkway",
      "startCoords": {
        "latitude": 39.79002,
        "longitude": -104.92732
      },
      "endCoords": {
        "latitude": 39.749497,
        "longitude": -104.940248
      },
      "distanceMeters": 50515.0,
      "durationMs": 6535190,
      "drivingDurationMs": 5924220,
      "idlingDurationMs": 610969,
      "fuelConsumedMl": 6424,
      "fuelConsumedGallons": 1.697,
      "maxSpeedMph": 70.2,
      "averageSpeedMph": 17.3,
      "safetyEvents": [
        {
          "type": "speeding",
          "startMs": 1750859220000,
          "maxSpeedMph": 70.2
        }
      ],
      "_no_driver_login": false,
      "_fuel_note": ""
    },
    {
      "id": "trip_48291001_20250625_003",
      "vehicleId": "48291001",
      "driverId": "22831000",
      "startMs": 1750871580000,
      "endMs": 1750873667788,
      "startLocation": {
        "latitude": 39.700016,
        "longitude": -104.989797
      },
      "endLocation": {
        "latitude": 39.696871,
        "longitude": -104.954612
      },
      "startAddress": "802 Haley Turnpike",
      "endAddress": "1817 Campbell Pass Suite 457",
      "startCoords": {
        "latitude": 39.799153,
        "longitude": -105.013951
      },
      "endCoords": {
        "latitude": 39.740436,
        "longitude": -104.923268
      },
      "distanceMeters": 11439.4,
      "durationMs": 2087789,
      "drivingDurationMs": 1837664,
      "idlingDurationMs": 250125,
      "fuelConsumedMl": 1454,
      "fuelConsumedGallons": 0.384,
      "maxSpeedMph": 69.3,
      "averageSpeedMph": 12.3,
      "safetyEvents": [
        {
          "type": "speeding",
          "startMs": 1750872600000,
          "maxSpeedMph": 69.3
        }
      ],
      "_no_driver_login": false,
      "_fuel_note": ""
    },
    {
      "id": "trip_48291001_20250625_004",
      "vehicleId": "48291001",
      "driverId": "22831000",
      "startMs": 1750837680000,
      "endMs": 1750839185272,
      "startLocation": {
        "latitude": 39.744715,
        "longitude": -105.005591
      },
      "endLocation": {
        "latitude": 39.796442,
        "longitude": -105.048436
      },
      "startAddress": "373 Frederick Wells Suite 290",
      "endAddress": "94690 Jason Locks",
      "startCoords": {
        "latitude": 39.766029,
        "longitude": -104.90952
      },
      "endCoords": {
        "latitude": 39.701335,
        "longitude": -105.057454
      },
      "distanceMeters": 10525.9,
      "durationMs": 1505273,
      "drivingDurationMs": 1209634,
      "idlingDurationMs": 295639,
      "fuelConsumedMl": 1340,
      "fuelConsumedGallons": 0.354,
      "maxSpeedMph": 40.1,
      "averageSpeedMph": 15.6,
      "safetyEvents": [],
      "_no_driver_login": false,
      "_fuel_note": ""
    },
    {
      "id": "trip_48291001_20250625_005",
      "vehicleId": "48291001",
      "driverId": "22831000",
      "startMs": 1750863060000,
      "endMs": 1750867332264,
      "startLocation": {
        "latitude": 39.754805,
        "longitude": -105.032882
      },
      "endLocation": {
        "latitude": 39.802888,
        "longitude": -105.086381
      },
      "startAddress": "5398 Charles Port",
      "endAddress": "908 Steven Radial",
      "startCoords": {
        "latitude": 39.720859,
        "longitude": -105.048723
      },
      "endCoords": {
        "latitude": 39.779097,
        "longitude": -105.033513
      },
      "distanceMeters": 31527.7,
      "durationMs": 4272265,
      "drivingDurationMs": 3698007,
      "idlingDurationMs": 574257,
      "fuelConsumedMl": 4009,
      "fuelConsumedGallons": 1.059,
      "maxSpeedMph": 31.4,
      "averageSpeedMph": 16.5,
      "safetyEvents": [],
      "_no_driver_login": false,
      "_fuel_note": ""
    },
    {
      "id": "trip_48291001_20250626_001",
      "vehicleId": "48291001",
      "driverId": "22831000",
      "startMs": 1750935720000,
      "endMs": 1750939607930,
      "startLocation": {
        "latitude": 39.740181,
        "longitude": -105.017471
      },
      "endLocation": {
        "latitude": 39.776784,
        "longitude": -105.031038
      },
      "startAddress": "143 Guerra Gateway Suite 519",
      "endAddress": "711 Jennifer Path",
      "startCoords": {
        "latitude": 39.727766,
        "longitude": -104.937063
      },
      "endCoords": {
        "latitude": 39.76141,
        "longitude": -105.048877
      },
      "distanceMeters": 24441.0,
      "durationMs": 3887931,
      "drivingDurationMs": 3389644,
      "idlingDurationMs": 498286,
      "fuelConsumedMl": 3108,
      "fuelConsumedGallons": 0.821,
      "maxSpeedMph": 42.2,
      "averageSpeedMph": 14.1,
      "safetyEvents": [],
      "_no_driver_login": false,
      "_fuel_note": "QUIRK 5: fuelConsumedGallons is in US gallons. Multiply by 3.785 for litres. Samsara does not link fuel to specific Onfleet tasks."
    },
    {
      "id": "trip_48291001_20250626_002",
      "vehicleId": "48291001",
      "driverId": "22831000",
      "startMs": 1750929000000,
      "endMs": 1750944903239,
      "startLocation": {
        "latitude": 39.690059,
        "longitude": -104.990179
      },
      "endLocation": {
        "latitude": 39.716834,
        "longitude": -105.004482
      },
      "startAddress": "73772 Peterson Valleys",
      "endAddress": "661 Brown Parkways",
      "startCoords": {
        "latitude": 39.827609,
        "longitude": -105.082377
      },
      "endCoords": {
        "latitude": 39.782979,
        "longitude": -105.003604
      },
      "distanceMeters": 71255.3,
      "durationMs": 15903239,
      "drivingDurationMs": 13220006,
      "idlingDurationMs": 2683234,
      "fuelConsumedMl": 9058,
      "fuelConsumedGallons": 2.393,
      "maxSpeedMph": 70.6,
      "averageSpeedMph": 10.0,
      "safetyEvents": [
        {
          "type": "speeding",
          "startMs": 1750939740000,
          "maxSpeedMph": 70.6
        }
      ],
      "_no_driver_login": false,
      "_fuel_note": ""
    },
    {
      "id": "trip_48291001_20250626_003",
      "vehicleId": "48291001",
      "driverId": "22831000",
      "startMs": 1750935300000,
      "endMs": 1750938494922,
      "startLocation": {
        "latitude": 39.684525,
        "longitude": -105.07551
      },
      "endLocation": {
        "latitude": 39.816625,
        "longitude": -105.079405
      },
      "startAddress": "9406 Maxwell Squares",
      "endAddress": "15559 Sanchez Port",
      "startCoords": {
        "latitude": 39.813045,
        "longitude": -104.943455
      },
      "endCoords": {
        "latitude": 39.771336,
        "longitude": -105.046013
      },
      "distanceMeters": 14113.7,
      "durationMs": 3194922,
      "drivingDurationMs": 2692777,
      "idlingDurationMs": 502145,
      "fuelConsumedMl": 1794,
      "fuelConsumedGallons": 0.474,
      "maxSpeedMph": 45.0,
      "averageSpeedMph": 9.9,
      "safetyEvents": [],
      "_no_driver_login": false,
      "_fuel_note": ""
    },
    {
      "id": "trip_48291001_20250626_004",
      "vehicleId": "48291001",
      "driverId": "22831000",
      "startMs": 1750959780000,
      "endMs": 1750971600000,
      "startLocation": {
        "latitude": 39.745649,
        "longitude": -105.067269
      },
      "endLocation": {
        "latitude": 39.799985,
        "longitude": -105.06334
      },
      "startAddress": "3067 David Lane",
      "endAddress": "3026 Lee Valley Suite 515",
      "startCoords": {
        "latitude": 39.731516,
        "longitude": -105.06258
      },
      "endCoords": {
        "latitude": 39.813207,
        "longitude": -104.990836
      },
      "distanceMeters": 64029.3,
      "durationMs": 11820000,
      "drivingDurationMs": 9456000,
      "idlingDurationMs": 2364000,
      "fuelConsumedMl": 8142,
      "fuelConsumedGallons": 2.151,
      "maxSpeedMph": 57.7,
      "averageSpeedMph": 12.1,
      "safetyEvents": [],
      "_no_driver_login": false,
      "_fuel_note": ""
    },
    {
      "id": "trip_48291001_20250626_005",
      "vehicleId": "48291001",
      "driverId": "22831000",
      "startMs": 1750956300000,
      "endMs": 1750967170518,
      "startLocation": {
        "latitude": 39.824989,
        "longitude": -105.010185
      },
      "endLocation": {
        "latitude": 39.73026,
        "longitude": -104.930473
      },
      "startAddress": "98923 Love Spring Suite 499",
      "endAddress": "84119 Alyssa Gardens",
      "startCoords": {
        "latitude": 39.806787,
        "longitude": -105.075513
      },
      "endCoords": {
        "latitude": 39.706529,
        "longitude": -104.971565
      },
      "distanceMeters": 48551.2,
      "durationMs": 10870519,
      "drivingDurationMs": 9696926,
      "idlingDurationMs": 1173592,
      "fuelConsumedMl": 6174,
      "fuelConsumedGallons": 1.631,
      "maxSpeedMph": 62.5,
      "averageSpeedMph": 10.0,
      "safetyEvents": [],
      "_no_driver_login": false,
      "_fuel_note": ""
    },
    {
      "id": "trip_48291001_20250627_001",
      "vehicleId": "48291001",
      "driverId": "22831000",
      "startMs": 1751014980000,
      "endMs": 1751020304534,
      "startLocation": {
        "latitude": 39.686006,
        "longitude": -104.974763
      },
      "endLocation": {
        "latitude": 39.68487,
        "longitude": -104.998238
      },
      "startAddress": "314 Johnson Fork",
      "endAddress": "532 Hamilton Route Suite 113",
      "startCoords": {
        "latitude": 39.718585,
        "longitude": -104.902943
      },
      "endCoords": {
        "latitude": 39.692075,
        "longitude": -104.913775
      },
      "distanceMeters": 30786.8,
      "durationMs": 5324534,
      "drivingDurationMs": 4484710,
      "idlingDurationMs": 839825,
      "fuelConsumedMl": 3914,
      "fuelConsumedGallons": 1.034,
      "maxSpeedMph": 51.3,
      "averageSpeedMph": 12.9,
      "safetyEvents": [],
      "_no_driver_login": false,
      "_fuel_note": "QUIRK 5: fuelConsumedGallons is in US gallons. Multiply by 3.785 for litres. Samsara does not link fuel to specific Onfleet tasks."
    },
    {
      "id": "trip_48291001_20250627_002",
      "vehicleId": "48291001",
      "driverId": "22831000",
      "startMs": 1751038140000,
      "endMs": 1751039205342,
      "startLocation": {
        "latitude": 39.801461,
        "longitude": -104.919929
      },
      "endLocation": {
        "latitude": 39.734731,
        "longitude": -105.024455
      },
      "startAddress": "17705 Townsend Drive Suite 309",
      "endAddress": "06056 Kline Mills",
      "startCoords": {
        "latitude": 39.797721,
        "longitude": -104.916937
      },
      "endCoords": {
        "latitude": 39.812396,
        "longitude": -104.968516
      },
      "distanceMeters": 5587.9,
      "durationMs": 1065343,
      "drivingDurationMs": 873327,
      "idlingDurationMs": 192016,
      "fuelConsumedMl": 712,
      "fuelConsumedGallons": 0.188,
      "maxSpeedMph": 33.5,
      "averageSpeedMph": 11.7,
      "safetyEvents": [],
      "_no_driver_login": false,
      "_fuel_note": ""
    },
    {
      "id": "trip_48291001_20250627_003",
      "vehicleId": "48291001",
      "driverId": "22831000",
      "startMs": 1751026440000,
      "endMs": 1751029231639,
      "startLocation": {
        "latitude": 39.742387,
        "longitude": -104.931452
      },
      "endLocation": {
        "latitude": 39.716697,
        "longitude": -105.014819
      },
      "startAddress": "484 Trevor Squares Apt. 074",
      "endAddress": "31002 Mccormick Court Suite 499",
      "startCoords": {
        "latitude": 39.751916,
        "longitude": -105.054848
      },
      "endCoords": {
        "latitude": 39.776156,
        "longitude": -104.988735
      },