{
  "vehicleId": "42717522",
  "vehicleName": "DEN-VAN-11",
  "month": "2025_04",
  "pagination": {
    "endCursor": "trip_42717522_20250430_004",
    "hasNextPage": false
  },
  "trips": [
    {
      "id": "trip_42717522_20250401_001",
      "vehicleId": "42717522",
      "driverId": "20000021",
      "startMs": 1743533340000,
      "endMs": 1743541200000,
      "startAddress": "9352 Holland Summit",
      "endAddress": "8237 Parker Point",
      "startCoords": {
        "latitude": 39.700896,
        "longitude": -104.906231
      },
      "endCoords": {
        "latitude": 39.704131,
        "longitude": -105.078245
      },
      "distanceMeters": 37489.4,
      "durationMs": 7860000,
      "drivingDurationMs": 6714204,
      "idlingDurationMs": 1145796,
      "fuelConsumedMl": 4766,
      "fuelConsumedGallons": 1.259,
      "maxSpeedMph": 37.7,
      "averageSpeedMph": 10.7,
      "safetyEvents": []
    },
    {
      "id": "trip_42717522_20250401_002",
      "vehicleId": "42717522",
      "driverId": "20000021",
      "startMs": 1743533880000,
      "endMs": 1743541200000,
      "startAddress": "455 Colin Ports Suite 064",
      "endAddress": "9810 Brown Inlet",
      "startCoords": {
        "latitude": 39.716908,
        "longitude": -104.954953
      },
      "endCoords": {
        "latitude": 39.706171,
        "longitude": -104.949089
      },
      "distanceMeters": 59564.1,
      "durationMs": 7320000,
      "drivingDurationMs": 6984256,
      "idlingDurationMs": 335744,
      "fuelConsumedMl": 7575,
      "fuelConsumedGallons": 2.001,
      "maxSpeedMph": 32.1,
      "averageSpeedMph": 18.2,
      "safetyEvents": []
    },
    {
      "id": "trip_42717522_20250401_003",
      "vehicleId": "42717522",
      "driverId": "20000021",
      "startMs": 1743512100000,
      "endMs": 1743516003561,
      "startAddress": "4133 Victoria Fork Apt. 088",
      "endAddress": "8343 Deborah Locks",
      "startCoords": {
        "latitude": 39.690099,
        "longitude": -105.046202
      },
      "endCoords": {
        "latitude": 39.807356,
        "longitude": -104.932727
      },
      "distanceMeters": 18115.4,
      "durationMs": 3903561,
      "drivingDurationMs": 3397765,
      "idlingDurationMs": 505796,
      "fuelConsumedMl": 2302,
      "fuelConsumedGallons": 0.608,
      "maxSpeedMph": 30.9,
      "averageSpeedMph": 10.4,
      "safetyEvents": []
    },
    {
      "id": "trip_42717522_20250401_004",
      "vehicleId": "42717522",
      "driverId": "20000021",
      "startMs": 1743510180000,
      "endMs": 1743517274132,
      "startAddress": "241 Crawford Springs Suite 618",
      "endAddress": "580 Velez Ports Suite 230",
      "startCoords": {
        "latitude": 39.81544,
        "longitude": -104.996416
      },
      "endCoords": {
        "latitude": 39.752623,
        "longitude": -105.04744
      },
      "distanceMeters": 55470.9,
      "durationMs": 7094132,
      "drivingDurationMs": 6377667,
      "idlingDurationMs": 716465,
      "fuelConsumedMl": 7052,
      "fuelConsumedGallons": 1.863,
      "maxSpeedMph": 55.8,
      "averageSpeedMph": 17.5,
      "safetyEvents": []
    },
    {
      "id": "trip_42717522_20250401_005",
      "vehicleId": "42717522",
      "driverId": "20000021",
      "startMs": 1743494280000,
      "endMs": 1743505698595,
      "startAddress": "531 Kevin Locks",
      "endAddress": "007 Geoffrey Harbor",
      "startCoords": {
        "latitude": 39.735474,
        "longitude": -104.942691
      },
      "endCoords": {
        "latitude": 39.744633,
        "longitude": -105.064576
      },
      "distanceMeters": 65669.4,
      "durationMs": 11418596,
      "drivingDurationMs": 10293829,
      "idlingDurationMs": 1124767,
      "fuelConsumedMl": 8351,
      "fuelConsumedGallons": 2.206,
      "maxSpeedMph": 37.7,
      "averageSpeedMph": 12.9,
      "safetyEvents": []
    },
    {
      "id": "trip_42717522_20250401_006",
      "vehicleId": "42717522",
      "driverId": "20000021",
      "startMs": 1743497160000,
      "endMs": 1743502076654,
      "startAddress": "27803 Robinson Flat Apt. 482",
      "endAddress": "47272 Eileen Parkways Suite 309",
      "startCoords": {
        "latitude": 39.82413,
        "longitude": -105.000181
      },
      "endCoords": {
        "latitude": 39.703892,
        "longitude": -104.999493
      },
      "distanceMeters": 27262.4,
      "durationMs": 4916654,
      "drivingDurationMs": 4139559,
      "idlingDurationMs": 777095,
      "fuelConsumedMl": 3467,
      "fuelConsumedGallons": 0.916,
      "maxSpeedMph": 57.2,
      "averageSpeedMph": 12.4,
      "safetyEvents": []
    },
    {
      "id": "trip_42717522_20250402_001",
      "vehicleId": "42717522",
      "driverId": "20000022",
      "startMs": 1743595140000,
      "endMs": 1743610827260,
      "startAddress": "0160 Lewis Wall",
      "endAddress": "1503 Colleen Meadow Apt. 373",
      "startCoords": {
        "latitude": 39.699349,
        "longitude": -105.07419
      },
      "endCoords": {
        "latitude": 39.822588,
        "longitude": -105.085509
      },
      "distanceMeters": 67568.2,
      "durationMs": 15687260,
      "drivingDurationMs": 13309854,
      "idlingDurationMs": 2377406,
      "fuelConsumedMl": 8589,
      "fuelConsumedGallons": 2.269,
      "maxSpeedMph": 55.0,
      "averageSpeedMph": 9.6,
      "safetyEvents": []
    },
    {
      "id": "trip_42717522_20250402_002",
      "vehicleId": "42717522",
      "driverId": "20000022",
      "startMs": 1743615720000,
      "endMs": 1743626542981,
      "startAddress": "659 Schneider Brooks Suite 934",
      "endAddress": "507 Walters Hollow",
      "startCoords": {
        "latitude": 39.688991,
        "longitude": -104.993939
      },
      "endCoords": {
        "latitude": 39.816839,
        "longitude": -105.05303
      },
      "distanceMeters": 73921.5,
      "durationMs": 10822981,
      "drivingDurationMs": 8982385,
      "idlingDurationMs": 1840596,
      "fuelConsumedMl": 9399,
      "fuelConsumedGallons": 2.483,
      "maxSpeedMph": 41.5,
      "averageSpeedMph": 15.3,
      "safetyEvents": []
    },
    {
      "id": "trip_42717522_20250402_003",
      "vehicleId": "42717522",
      "driverId": "20000022",
      "startMs": 1743595980000,
      "endMs": 1743604687797,
      "startAddress": "15640 Rachel Center",
      "endAddress": "925 Cain Dam Apt. 940",
      "startCoords": {
        "latitude": 39.694905,
        "longitude": -105.053105
      },
      "endCoords": {
        "latitude": 39.719567,
        "longitude": -104.930108
      },
      "distanceMeters": 61935.0,
      "durationMs": 8707797,
      "drivingDurationMs": 8034018,
      "idlingDurationMs": 673779,
      "fuelConsumedMl": 7874,
      "fuelConsumedGallons": 2.08,
      "maxSpeedMph": 48.2,
      "averageSpeedMph": 15.9,
      "safetyEvents": []
    },
    {
      "id": "trip_42717522_20250403_001",
      "vehicleId": "42717522",
      "driverId": "20000001",
      "startMs": 1743703860000,
      "endMs": 1743705843947,
      "startAddress": "04595 Hawkins Port",
      "endAddress": "84979 Neal Rue",
      "startCoords": {
        "latitude": 39.797352,
        "longitude": -104.916148
      },
      "endCoords": {
        "latitude": 39.795767,
        "longitude": -104.953526
      },
      "distanceMeters": 12472.6,
      "durationMs": 1983948,
      "drivingDurationMs": 1688929,
      "idlingDurationMs": 295018,
      "fuelConsumedMl": 1586,
      "fuelConsumedGallons": 0.419,
      "maxSpeedMph": 35.1,
      "averageSpeedMph": 14.1,
      "safetyEvents": []
    },
    {
      "id": "trip_42717522_20250403_002",
      "vehicleId": "42717522",
      "driverId": "20000001",
      "startMs": 1743686700000,
      "endMs": 1743687989042,
      "startAddress": "7228 Baker Course Suite 031",
      "endAddress": "009 James Heights",
      "startCoords": {
        "latitude": 39.758493,
        "longitude": -104.9921
      },
      "endCoords": {
        "latitude": 39.686355,
        "longitude": -104.951764
      },
      "distanceMeters": 8586.4,
      "durationMs": 1289042,
      "drivingDurationMs": 1054731,
      "idlingDurationMs": 234311,
      "fuelConsumedMl": 1090,
      "fuelConsumedGallons": 0.288,
      "maxSpeedMph": 38.4,
      "averageSpeedMph": 14.9,
      "safetyEvents": []
    },
    {
      "id": "trip_42717522_20250403_003",
      "vehicleId": "42717522",
      "driverId": "20000001",
      "startMs": 1743692820000,
      "endMs": 1743698801410,
      "startAddress": "59283 Oconnell Light Suite 194",
      "endAddress": "4199 Dale Freeway Apt. 221",
      "startCoords": {
        "latitude": 39.807419,
        "longitude": -105.059252
      },
      "endCoords": {
        "latitude": 39.699779,
        "longitude": -104.967022
      },
      "distanceMeters": 37721.0,
      "durationMs": 5981410,
      "drivingDurationMs": 5583984,
      "idlingDurationMs": 397426,
      "fuelConsumedMl": 4796,
      "fuelConsumedGallons": 1.267,
      "maxSpeedMph": 71.5,
      "averageSpeedMph": 14.1,
      "safetyEvents": [
        {
          "type": "speeding",
          "startMs": 1743697140000,
          "maxSpeedMph": 71.5
        }
      ]
    },
    {
      "id": "trip_42717522_20250403_004",
      "vehicleId": "42717522",
      "driverId": "20000001",
      "startMs": 1743686100000,
      "endMs": 1743688507694,
      "startAddress": "35417 Beasley Mews Suite 485",
      "endAddress": "18010 Jonathan Landing Suite 789",
      "startCoords": {
        "latitude": 39.776153,
        "longitude": -104.985172
      },
      "endCoords": {
        "latitude": 39.818228,
        "longitude": -104.943898
      },
      "distanceMeters": 17820.1,
      "durationMs": 2407694,
      "drivingDurationMs": 2056528,
      "idlingDurationMs": 351166,
      "fuelConsumedMl": 2267,
      "fuelConsumedGallons": 0.599,
      "maxSpeedMph": 46.6,
      "averageSpeedMph": 16.6,
      "safetyEvents": []
    },
    {
      "id": "trip_42717522_20250403_005",
      "vehicleId": "42717522",
      "driverId": "20000001",
      "startMs": 1743687780000,
      "endMs": 1743698766903,
      "startAddress": "103 Taylor Stravenue Apt. 392",
      "endAddress": "0286 Jonathan Cliffs",
      "startCoords": {
        "latitude": 39.745092,
        "longitude": -104.990552
      },
      "endCoords": {
        "latitude": 39.762921,
        "longitude": -104.943661
      },
      "distanceMeters": 67563.8,
      "durationMs": 10986904,
      "drivingDurationMs": 9518821,
      "idlingDurationMs": 1468083,
      "fuelConsumedMl": 8589,
      "fuelConsumedGallons": 2.269,
      "maxSpeedMph": 69.8,
      "averageSpeedMph": 13.8,
      "safetyEvents": [
        {
          "type": "speeding",
          "startMs": 1743691200000,
          "maxSpeedMph": 69.8
        }
      ]
    },
    {
      "id": "trip_42717522_20250404_001",
      "vehicleId": "42717522",
      "driverId": "20000022",
      "startMs": 1743757860000,
      "endMs": 1743768199591,
      "startAddress": "043 Ashley Meadows",
      "endAddress": "377 Pham Mountains Apt. 937",
      "startCoords": {
        "latitude": 39.740162,
        "longitude": -105.032097
      },
      "endCoords": {
        "latitude": 39.746548,
        "longitude": -104.900374
      },
      "distanceMeters": 75558.9,
      "durationMs": 10339591,
      "drivingDurationMs": 9457349,
      "idlingDurationMs": 882242,
      "fuelConsumedMl": 9607,
      "fuelConsumedGallons": 2.538,
      "maxSpeedMph": 63.1,
      "averageSpeedMph": 16.3,
      "safetyEvents": []
    },
    {
      "id": "trip_42717522_20250404_002",
      "vehicleId": "42717522",
      "driverId": "20000022",
      "startMs": 1743755880000,
      "endMs": 1743766404346,
      "startAddress": "8220 William Extension Suite 257",
      "endAddress": "365 Martin Island",
      "startCoords": {
        "latitude": 39.799408,
        "longitude": -104.929493
      },
      "endCoords": {
        "latitude": 39.805066,
        "longitude": -104.93847
      },
      "distanceMeters": 71677.2,
      "durationMs": 10524347,
      "drivingDurationMs": 8436675,
      "idlingDurationMs": 2087672,
      "fuelConsumedMl": 9111,
      "fuelConsumedGallons": 2.407,
      "maxSpeedMph": 58.9,
      "averageSpeedMph": 15.2,
      "safetyEvents": []
    },
    {
      "id": "trip_42717522_20250404_003",
      "vehicleId": "42717522",
      "driverId": "20000022",
      "startMs": 1743759180000,
      "endMs": 1743775404749,
      "startAddress": "3990 Anna Wall",
      "endAddress": "0495 Moore Throughway Suite 609",
      "startCoords": {
        "latitude": 39.732519,
        "longitude": -105.0005
      },
      "endCoords": {
        "latitude": 39.822636,
        "longitude": -104.997251
      },
      "distanceMeters": 76595.7,
      "durationMs": 16224750,
      "drivingDurationMs": 14353885,
      "idlingDurationMs": 1870865,
      "fuelConsumedMl": 9740,
      "fuelConsumedGallons": 2.573,
      "maxSpeedMph": 34.8,
      "averageSpeedMph": 10.6,
      "safetyEvents": []
    },
    {
      "id": "trip_42717522_20250405_001",
      "vehicleId": "42717522",
      "driverId": "20000004",
      "startMs": 1743848220000,
      "endMs": 1743860930764,
      "startAddress": "540 Daniel Points",
      "endAddress": "0751 Matthew Mills",
      "startCoords": {
        "latitude": 39.824423,
        "longitude": -104.93408
      },
      "endCoords": {
        "latitude": 39.751556,
        "longitude": -105.014636
      },
      "distanceMeters": 74148.7,
      "durationMs": 12710765,
      "drivingDurationMs": 11640976,
      "idlingDurationMs": 1069789,
      "fuelConsumedMl": 9426,
      "fuelConsumedGallons": 2.49,
      "maxSpeedMph": 70.2,
      "averageSpeedMph": 13.0,
      "safetyEvents": [
        {
          "type": "speeding",
          "startMs": 1743854280000,
          "maxSpeedMph": 70.2
        }
      ]
    },
    {
      "id": "trip_42717522_20250405_002",
      "vehicleId": "42717522",
      "driverId": "20000004",
      "startMs": 1743851460000,
      "endMs": 1743857692565,
      "startAddress": "39320 Lewis Mall",
      "endAddress": "76239 Hampton Stream",
      "startCoords": {
        "latitude": 39.698991,
        "longitude": -105.003657
      },
      "endCoords": {
        "latitude": 39.782296,
        "longitude": -104.967818
      },
      "distanceMeters": 34612.9,
      "durationMs": 6232566,
      "drivingDurationMs": 5151195,
      "idlingDurationMs": 1081370,
      "fuelConsumedMl": 4402,
      "fuelConsumedGallons": 1.163,
      "maxSpeedMph": 54.2,
      "averageSpeedMph": 12.4,
      "safetyEvents": []
    },
    {
      "id": "trip_42717522_20250405_003",
      "vehicleId": "42717522",
      "driverId": "20000004",
      "startMs": 1743835680000,
      "endMs": 1743847382856,
      "startAddress": "3033 Pollard Rest Suite 327",
      "endAddress": "91245 Kelley Branch",
      "startCoords": {
        "latitude": 39.700994,
        "longitude": -104.923493
      },
      "endCoords": {
        "latitude": 39.698109,
        "longitude": -104.912844
      },
      "distanceMeters": 68823.1,
      "durationMs": 11702857,
      "drivingDurationMs": 10519364,
      "idlingDurationMs": 1183493,
      "fuelConsumedMl": 8752,
      "fuelConsumedGallons": 2.312,
      "maxSpeedMph": 47.6,
      "averageSpeedMph": 13.2,
      "safetyEvents": []
    },
    {
      "id": "trip_42717522_20250405_004",
      "vehicleId": "42717522",
      "driverId": "20000004",
      "startMs": 1743845700000,
      "endMs": 1743861515639,
      "startAddress": "5752 Martinez Mountain Apt. 586",
      "endAddress": "9419 Bill Walk",
      "startCoords": {
        "latitude": 39.790621,
        "longitude": -105.042999
      },
      "endCoords": {
        "latitude": 39.744069,
        "longitude": -105.02486
      },
      "distanceMeters": 69810.0,
      "durationMs": 15815639,
      "drivingDurationMs": 13245408,
      "idlingDurationMs": 2570231,
      "fuelConsumedMl": 8877,
      "fuelConsumedGallons": 2.345,
      "maxSpeedMph": 31.9,
      "averageSpeedMph": 9.9,
      "safetyEvents": []
    },
    {
      "id": "trip_42717522_20250406_001",
      "vehicleId": "42717522",
      "driverId": "20000012",
      "startMs": 1743958320000,
      "endMs": 1743973200000,
      "startAddress": "13626 Hanson Point",
      "endAddress": "19352 David Crossing",
      "startCoords": {
        "latitude": 39.757765,
        "longitude": -104.966103
      },
      "endCoords": {
        "latitude": 39.724143,
        "longitude": -104.934057
      },
      "distanceMeters": 82368.7,
      "durationMs": 14880000,
      "drivingDurationMs": 12130420,
      "idlingDurationMs": 2749580,
      "fuelConsumedMl": 10474,
      "fuelConsumedGallons": 2.767,
      "maxSpeedMph": 38.1,
      "averageSpeedMph": 12.4,
      "safetyEvents": []
    },
    {
      "id": "trip_42717522_20250407_001",
      "vehicleId": "42717522",
      "driverId": "20000018",
      "startMs": 1744042920000,
      "endMs": 1744049370256,
      "startAddress": "20677 Rachel Lake Suite 313",
      "endAddress": "8877 Crystal Orchard",
      "startCoords": {
        "latitude": 39.766847,
        "longitude": -104.92341
      },
      "endCoords": {
        "latitude": 39.693549,
        "longitude": -105.048325
      },
      "distanceMeters": 35671.5,
      "durationMs": 6450256,
      "drivingDurationMs": 5862850,
      "idlingDurationMs": 587406,
      "fuelConsumedMl": 4535,
      "fuelConsumedGallons": 1.198,
      "maxSpeedMph": 42.4,
      "averageSpeedMph": 12.4,
      "safetyEvents": []
    },
    {
      "id": "trip_42717522_20250407_002",
      "vehicleId": "42717522",
      "driverId": "20000018",
      "startMs": 1744042500000,
      "endMs": 1744048991786,
      "startAddress": "34010 Jennifer Summit Apt. 714",
      "endAddress": "61193 Cindy Bypass Suite 118",
      "startCoords": {
        "latitude": 39.763284,
        "longitude": -105.017829
      },
      "endCoords": {
        "latitude": 39.724476,
        "longitude": -104.980618
      },
      "distanceMeters": 28404.3,
      "durationMs": 6491787,
      "drivingDurationMs": 5321964,
      "idlingDurationMs": 1169823,
      "fuelConsumedMl": 3611,
      "fuelConsumedGallons": 0.954,
      "maxSpeedMph": 39.4,
      "averageSpeedMph": 9.8,
      "safetyEvents": []
    },
    {
      "id": "trip_42717522_20250407_003",
      "vehicleId": "42717522",
      "driverId": "20000018",
      "startMs": 1744027380000,
      "endMs": 1744028890932,
      "startAddress": "2545 Spencer Locks",
      "endAddress": "76695 Webb Fords Suite 525",
      "startCoords": {
        "latitude": 39.750316,
        "longitude": -105.026625
      },
      "endCoords": {
        "latitude": 39.716687,
        "longitude": -104.943447
      },
      "distanceMeters": 8947.8,
      "durationMs": 1510933,
      "drivingDurationMs": 1233242,
      "idlingDurationMs": 277691,
      "fuelConsumedMl": 1139,
      "fuelConsumedGallons": 0.301,
      "maxSpeedMph": 68.7,
      "averageSpeedMph": 13.2,
      "safetyEvents": [
        {
          "type": "speeding",
          "startMs": 1744027740000,
          "maxSpeedMph": 68.7
        }
      ]
    },
    {
      "id": "trip_42717522_20250407_004",
      "vehicleId": "42717522",
      "driverId": "20000018",
      "startMs": 1744042680000,
      "endMs": 1744045314225,
      "startAddress": "9614 Linda Shore Apt. 569",
      "endAddress": "478 Michelle Rapids Apt. 993",
      "startCoords": {
        "latitude": 39.719758,
        "longitude": -105.06366
      },
      "endCoords": {
        "latitude": 39.820662,
        "longitude": -105.074415
      },
      "distanceMeters": 17526.3,
      "durationMs": 2634226,
      "drivingDurationMs": 2116573,
      "idlingDurationMs": 517653,
      "fuelConsumedMl": 2230,
      "fuelConsumedGallons": 0.589,
      "maxSpeedMph": 46.7,
      "averageSpeedMph": 14.9,
      "safetyEvents": []
    },
    {
      "id": "trip_42717522_20250407_005",
      "vehicleId": "42717522",
      "driverId": "20000018",
      "startMs": 1744018800000,
      "endMs": 1744030764153,
      "startAddress": "299 Washington Lodge Apt. 980",
      "endAddress": "98240 White Garden Suite 026",
      "startCoords": {
        "latitude": 39.759647,
        "longitude": -104.945141
      },
      "endCoords": {
        "latitude": 39.722455,
        "longitude": -105.037688
      },
      "distanceMeters": 65224.0,
      "durationMs": 11964154,
      "drivingDurationMs": 9824937,
      "idlingDurationMs": 2139216,
      "fuelConsumedMl": 8294,
      "fuelConsumedGallons": 2.191,
      "maxSpeedMph": 59.0,
      "averageSpeedMph": 12.2,
      "safetyEvents": []
    },
    {
      "id": "trip_42717522_20250407_006",
      "vehicleId": "42717522",
      "driverId": null,
      "startMs": 1744020240000,
      "endMs": 1744028575067,
      "startAddress": "863 Sydney Loaf",
      "endAddress": "994 Tracy Skyway",
      "startCoords": {
        "latitude": 39.804276,
        "longitude": -104.964961
      },
      "endCoords": {
        "latitude": 39.779531,
        "longitude": -104.968781
      },
      "distanceMeters": 47143.2,
      "durationMs": 8335068,
      "drivingDurationMs": 6797887,
      "idlingDurationMs": 1537181,
      "fuelConsumedMl": 5992,
      "fuelConsumedGallons": 1.583,
      "maxSpeedMph": 45.2,
      "averageSpeedMph": 12.7,
      "safetyEvents": []
    },
    {
      "id": "trip_42717522_20250408_001",
      "vehicleId": "42717522",
      "driverId": "20000005",
      "startMs": 1744115880000,
      "endMs": 1744123515160,
      "startAddress": "5092 Marcus Views",
      "endAddress": "081 Anne Square",
      "startCoords": {
        "latitude": 39.809249,
        "longitude": -105.080738
      },
      "endCoords": {
        "latitude": 39.73104,
        "longitude": -104.991581
      },
      "distanceMeters": 52329.4,
      "durationMs": 7635161,
      "drivingDurationMs": 6353672,
      "idlingDurationMs": 1281489,
      "fuelConsumedMl": 6655,
      "fuelConsumedGallons": 1.758,
      "maxSpeedMph": 63.2,
      "averageSpeedMph": 15.3,
      "safetyEvents": []
    },
    {
      "id": "trip_42717522_20250408_002",
      "vehicleId": "42717522",
      "driverId": "20000005",
      "startMs": 1744136340000,
      "endMs": 1744146000000,
      "startAddress": "1501 Walker Ramp",
      "endAddress": "254 Nicole Shoal",
      "startCoords": {
        "latitude": 39.69814,
        "longitude": -105.014119
      },
      "endCoords": {
        "latitude": 39.734301,
        "longitude": -105.032615
      },
      "distanceMeters": 41043.7,
      "durationMs": 9660000,
      "drivingDurationMs": 7728000,
      "idlingDurationMs": 1932000,
      "fuelConsumedMl": 5220,
      "fuelConsumedGallons": 1.379,
      "maxSpeedMph": 39.3,
      "averageSpeedMph": 9.5,
      "safetyEvents": []
    },
    {
      "id": "trip_42717522_20250408_003",
      "vehicleId": "42717522",
      "driverId": "20000005",
      "startMs": 1744114140000,
      "endMs": 1744115932332,
      "startAddress": "53596 Gonzalez Mission Suite 007",
      "endAddress": "9147 April Coves Suite 443",
      "startCoords": {
        "latitude": 39.802312,
        "longitude": -105.069752
      },
      "endCoords": {
        "latitude": 39.815572,
        "longitude": -104.971124
      },
      "distanceMeters": 10904.0,
      "durationMs": 1792333,
      "drivingDurationMs": 1565021,
      "idlingDurationMs": 227311,
      "fuelConsumedMl": 1385,
      "fuelConsumedGallons": 0.366,
      "maxSpeedMph": 71.8,
      "averageSpeedMph": 13.6,
      "safetyEvents": [
        {
          "type": "speeding",
          "startMs": 1744114500000,
          "maxSpeedMph": 71.8
        }
      ]
    },
    {
      "id": "trip_42717522_20250408_004",
      "vehicleId": "42717522",
      "driverId": null,
      "startMs": 1744102500000,
      "endMs": 1744110725920,
      "startAddress": "7671 Baldwin Creek Suite 106",
      "endAddress": "34947 Stephen Underpass Suite 087",
      "startCoords": {
        "latitude": 39.722822,
        "longitude": -105.043202
      },
      "endCoords": {
        "latitude": 39.827069,
        "longitude": -105.00911
      },
      "distanceMeters": 43399.0,
      "durationMs": 8225921,
      "drivingDurationMs": 6897770,
      "idlingDurationMs": 1328151,
      "fuelConsumedMl": 5519,
      "fuelConsumedGallons": 1.458,
      "maxSpeedMph": 30.7,
      "averageSpeedMph": 11.8,
      "safetyEvents": []
    },
    {
      "id": "trip_42717522_20250408_005",
      "vehicleId": "42717522",
      "driverId": "20000005",
      "startMs": 1744115400000,
      "endMs": 1744130276586,
      "startAddress": "528 Susan Trail Apt. 797",
      "endAddress": "214 Schroeder Rest",
      "startCoords": {
        "latitude": 39.771572,
        "longitude": -104.947003
      },
      "endCoords": {
        "latitude": 39.743119,
        "longitude": -104.933115
      },
      "distanceMeters": 77780.9,
      "durationMs": 14876586,
      "drivingDurationMs": 14012510,
      "idlingDurationMs": 864077,
      "fuelConsumedMl": 9887,
      "fuelConsumedGallons": 2.612,
      "maxSpeedMph": 45.2,
      "averageSpeedMph": 11.7,
      "safetyEvents": []
    },
    {
      "id": "trip_42717522_20250409_001",
      "vehicleId": "42717522",
      "driverId": "20000019",
      "startMs": 1744204620000,
      "endMs": 1744215615677,
      "startAddress": "13818 Andrew Villages Suite 137",
      "endAddress": "3200 Alexander Key",
      "startCoords": {
        "latitude": 39.722453,
        "longitude": -105.017257
      },
      "endCoords": {
        "latitude": 39.809653,
        "longitude": -104.990579
      },
      "distanceMeters": 56184.6,
      "durationMs": 10995678,
      "drivingDurationMs": 9057122,
      "idlingDurationMs": 1938555,
      "fuelConsumedMl": 7143,
      "fuelConsumedGallons": 1.887,
      "maxSpeedMph": 57.7,
      "averageSpeedMph": 11.4,
      "safetyEvents": []
    },
    {
      "id": "trip_42717522_20250409_002",
      "vehicleId": "42717522",
      "driverId": "20000019",
      "startMs": 1744214040000,
      "endMs": 1744217878177,
      "startAddress": "871 Sabrina Isle Suite 264",
      "endAddress": "4823 Atkins Viaduct Apt. 989",
      "startCoords": {
        "latitude": 39.742946,
        "longitude": -105.057503
      },
      "endCoords": {
        "latitude": 39.686866,
        "longitude": -104.902273
      },
      "distanceMeters": 26590.6,
      "durationMs": 3838177,
      "drivingDurationMs": 3612075,
      "idlingDurationMs": 226103,
      "fuelConsumedMl": 3380,
      "fuelConsumedGallons": 0.893,
      "maxSpeedMph": 31.6,
      "averageSpeedMph": 15.5,
      "safetyEvents": []
    },
    {
      "id": "trip_42717522_20250409_003",
      "vehicleId": "42717522",
      "driverId": "20000019",
      "startMs": 1744224120000,
      "endMs": 1744226267178,
      "startAddress": "3537 Tammy Throughway",
      "endAddress": "617 Ian Place",
      "startCoords": {
        "latitude": 39.796831,
        "longitude": -104.938972
      },
      "endCoords": {
        "latitude": 39.826811,
        "longitude": -104.906858
      },
      "distanceMeters": 12168.6,
      "durationMs": 2147178,
      "drivingDurationMs": 1920972,
      "idlingDurationMs": 226206,
      "fuelConsumedMl": 1548,
      "fuelConsumedGallons": 0.409,
      "maxSpeedMph": 54.5,
      "averageSpeedMph": 12.7,
      "safetyEvents": []
    },
    {
      "id": "trip_42717522_20250409_004",
      "vehicleId": "42717522",
      "driverId": "20000019",
      "startMs": 1744220940000,
      "endMs": 1744228197470,
      "startAddress": "319 Flores Forge Apt. 122",
      "endAddress": "8242 Horn Route Suite 525",
      "startCoords": {
        "latitude": 39.729691,
        "longitude": -105.053851
      },
      "endCoords": {
        "latitude": 39.763043,
        "longitude": -104.983782
      },
      "distanceMeters": 46975.6,
      "durationMs": 7257470,
      "drivingDurationMs": 5877017,
      "idlingDurationMs": 1380453,
      "fuelConsumedMl": 5973,
      "fuelConsumedGallons": 1.578,
      "maxSpeedMph": 28.3,
      "averageSpeedMph": 14.5,
      "safetyEvents": []
    },
    {
      "id": "trip_42717522_20250409_005",
      "vehicleId": "42717522",
      "driverId": "20000019",
      "startMs": 1744180740000,
      "endMs": 1744196520790,
      "startAddress": "7469 Joseph Forges",
      "endAddress": "601 Alvarez Mission Suite 208",
      "startCoords": {
        "latitude": 39.709875,
        "longitude": -104.91078
      },
      "endCoords": {
        "latitude": 39.734298,
        "longitude": -104.921879
      },
      "distanceMeters": 80839.7,
      "durationMs": 15780790,
      "drivingDurationMs": 15364596,
      "idlingDurationMs": 416194,
      "fuelConsumedMl": 10277,
      "fuelConsumedGallons": 2.715,
      "maxSpeedMph": 70.0,
      "averageSpeedMph": 11.5,
      "safetyEvents": [
        {
          "type": "speeding",
          "startMs": 1744190040000,
          "maxSpeedMph": 70.0
        }
      ]
    },
    {
      "id": "trip_42717522_20250409_006",
      "vehicleId": "42717522",
      "driverId": "20000019",
      "startMs": 1744212960000,
      "endMs": 1744222526575,
      "startAddress": "3310 Christy River Suite 834",
      "endAddress": "60764 Rowe Walks Suite 429",
      "startCoords": {
        "latitude": 39.764128,
        "longitude": -104.968928
      },
      "endCoords": {
        "latitude": 39.714939,
        "longitude": -104.987189
      },
      "distanceMeters": 49954.4,
      "durationMs": 9566576,
      "drivingDurationMs": 7720556,
      "idlingDurationMs": 1846019,
      "fuelConsumedMl": 6352,
      "fuelConsumedGallons": 1.678,
      "maxSpeedMph": 68.1,
      "averageSpeedMph": 11.7,
      "safetyEvents": [
        {
          "type": "speeding",
          "startMs": 1744222260000,
          "maxSpeedMph": 68.1
        }
      ]
    },
    {
      "id": "trip_42717522_20250410_001",
      "vehicleId": "42717522",
      "driverId": "20000005",
      "startMs": 1744302480000,
      "endMs": 1744315243538,
      "startAddress": "3532 Wilson Rue Apt. 629",
      "endAddress": "7517 Davis Drive Suite 931",
      "startCoords": {
        "latitude": 39.710217,
        "longitude": -104.985929
      },
      "endCoords": {
        "latitude": 39.74951,
        "longitude": -105.048177
      },
      "distanceMeters": 65894.5,
      "durationMs": 12763538,
      "drivingDurationMs": 11305440,
      "idlingDurationMs": 1458099,
      "fuelConsumedMl": 8377,
      "fuelConsumedGallons": 2.213,
      "maxSpeedMph": 35.5,
      "averageSpeedMph": 11.5,
      "safetyEvents": []
    },
    {
      "id": "trip_42717522_20250410_002",
      "vehicleId": "42717522",
      "driverId": "20000005",
      "startMs": 1744300800000,
      "endMs": 1744306842860,
      "startAddress": "40595 Samantha Wells Suite 419",
      "endAddress": "070 Carol Wall Suite 397",
      "startCoords": {
        "latitude": 39.748679,
        "longitude": -104.928473
      },
      "endCoords": {
        "latitude": 39.764277,
        "longitude": -105.033945
      },
      "distanceMeters": 47735.9,
      "durationMs": 6042860,
      "drivingDurationMs": 5741911,
      "idlingDurationMs": 300949,
      "fuelConsumedMl": 6068,
      "fuelConsumedGallons": 1.603,
      "maxSpeedMph": 32.8,
      "averageSpeedMph": 17.7,
      "safetyEvents": []
    },
    {
      "id": "trip_42717522_20250410_003",
      "vehicleId": "42717522",
      "driverId": "20000005",
      "startMs": 1744274280000,
      "endMs": 1744276981734,
      "startAddress": "05274 Lin Ridges Suite 789",
      "endAddress": "5463 Zachary Shores Apt. 105",
      "startCoords": {
        "latitude": 39.694879,
        "longitude": -105.024709
      },
      "endCoords": {
        "latitude": 39.708504,
        "longitude": -105.048933
      },
      "distanceMeters": 18659.7,
      "durationMs": 2701735,
      "drivingDurationMs": 2250344,
      "idlingDurationMs": 451391,
      "fuelConsumedMl": 2373,
      "fuelConsumedGallons": 0.627,
      "maxSpeedMph": 41.4,
      "averageSpeedMph": 15.4,
      "safetyEvents": []
    },
    {
      "id": "trip_42717522_20250410_004",
      "vehicleId": "42717522",
      "driverId": "20000005",
      "startMs": 1744308600000,
      "endMs": 1744318800000,
      "startAddress": "43467 Rodriguez Valley",
      "endAddress": "05444 Thompson Terrace",
      "startCoords": {
        "latitude": 39.762125,
        "longitude": -104.914842
      },
      "endCoords": {
        "latitude": 39.73505,
        "longitude": -104.912445
      },
      "distanceMeters": 44727.1,
      "durationMs": 10200000,
      "drivingDurationMs": 8172961,
      "idlingDurationMs": 2027039,
      "fuelConsumedMl": 5686,
      "fuelConsumedGallons": 1.502,
      "maxSpeedMph": 41.9,
      "averageSpeedMph": 9.8,
      "safetyEvents": []
    },
    {
      "id": "trip_42717522_20250410_005",
      "vehicleId": "42717522",
      "driverId": "20000005",
      "startMs": 1744271520000,
      "endMs": 1744274755315,
      "startAddress": "99917 Victor Keys Suite 709",
      "endAddress": "3687 Bobby Locks",
      "startCoords": {
        "latitude": 39.735565,
        "longitude": -105.039362
      },
      "endCoords": {
        "latitude": 39.792447,
        "longitude": -105.070774
      },
      "distanceMeters": 17958.9,
      "durationMs": 3235315,
      "drivingDurationMs": 2726968,
      "idlingDurationMs": 508347,
      "fuelConsumedMl": 2283,
      "fuelConsumedGallons": 0.603,
      "maxSpeedMph": 44.3,
      "averageSpeedMph": 12.4,
      "safetyEvents": []
    },
    {
      "id": "trip_42717522_20250410_006",
      "vehicleId": "42717522",
      "driverId": "20000005",
      "startMs": 1744302060000,
      "endMs": 1744307975636,
      "startAddress": "8954 Ian Point",
      "endAddress": "09715 William Summit",
      "startCoords": {
        "latitude": 39.784931,
        "longitude": -104.974405
      },
      "endCoords": {
        "latitude": 39.765789,
        "longitude": -105.050345
      },
      "distanceMeters": 29910.4,
      "durationMs": 5915636,
      "drivingDurationMs": 5414833,
      "idlingDurationMs": 500803,
      "fuelConsumedMl": 3804,
      "fuelConsumedGallons": 1.005,
      "maxSpeedMph": 51.0,
      "averageSpeedMph": 11.3,
      "safetyEvents": []
    },
    {
      "id": "trip_42717522_20250411_001",
      "vehicleId": "42717522",
      "driverId": "20000019",
      "startMs": 1744380780000,
      "endMs": 1744386291985,
      "startAddress": "9638 Tracy Mountains Suite 198",
      "endAddress": "3070 Teresa Canyon Suite 619",
      "startCoords": {
        "latitude": 39.818915,
        "longitude": -105.049173
      },
      "endCoords": {
        "latitude": 39.799635,
        "longitude": -104.903344
      },
      "distanceMeters": 34951.5,
      "durationMs": 5511986,
      "drivingDurationMs": 4664241,
      "idlingDurationMs": 847745,
      "fuelConsumedMl": 4444,
      "fuelConsumedGallons": 1.174,
      "maxSpeedMph": 49.2,
      "averageSpeedMph": 14.2,
      "safetyEvents": []
    },
    {
      "id": "trip_42717522_20250411_002",
      "vehicleId": "42717522",
      "driverId": "20000019",
      "startMs": 1744377540000,
      "endMs": 1744389810487,
      "startAddress": "619 Jennifer Island Apt. 643",
      "endAddress": "03341 Amy Cliff Apt. 487",
      "startCoords": {
        "latitude": 39.703337,
        "longitude": -104.924362
      },
      "endCoords": {
        "latitude": 39.685835,
        "longitude": -105.068838
      },
      "distanceMeters": 80908.0,
      "durationMs": 12270488,
      "drivingDurationMs": 11605553,
      "idlingDurationMs": 664934,
      "fuelConsumedMl": 10289,
      "fuelConsumedGallons": 2.718,
      "maxSpeedMph": 71.5,
      "averageSpeedMph": 14.7,
      "safetyEvents": [
        {
          "type": "speeding",
          "startMs": 1744385820000,
          "maxSpeedMph": 71.5
        }
      ]
    },
    {
      "id": "trip_42717522_20250411_003",
      "vehicleId": "42717522",
      "driverId": "20000019",
      "startMs": 1744376640000,
      "endMs": 1744391179951,
      "startAddress": "184 Tanner Causeway",
      "endAddress": "2395 Clark Island",
      "startCoords": {
        "latitude": 39.684171,
        "longitude": -105.04632
      },
      "endCoords": {
        "latitude": 39.73421,
        "longitude": -105.076495
      },
      "distanceMeters": 79622.2,
      "durationMs": 14539952,
      "drivingDurationMs": 13819158,
      "idlingDurationMs": 720794,
      "fuelConsumedMl": 10122,
      "fuelConsumedGallons": 2.674,
      "maxSpeedMph": 29.2,
      "averageSpeedMph": 12.2,
      "safetyEvents": []
    },
    {
      "id": "trip_42717522_20250411_004",
      "vehicleId": "42717522",
      "driverId": "20000019",
      "startMs": 1744389360000,
      "endMs": 1744392000482,
      "startAddress": "381 Curtis Trace Apt. 324",
      "endAddress": "03605 Butler Mill",
      "startCoords": {
        "latitude": 39.755513,
        "longitude": -105.036039
      },
      "endCoords": {
        "latitude": 39.706826,
        "longitude": -105.021337
      },
      "distanceMeters": 17132.1,
      "durationMs": 2640482,
      "drivingDurationMs": 2270499,
      "idlingDurationMs": 369983,
      "fuelConsumedMl": 2177,
      "fuelConsumedGallons": 0.575,
      "maxSpeedMph": 42.2,
      "averageSpeedMph": 14.5,
      "safetyEvents": []
    },
    {
      "id": "trip_42717522_20250411_005",
      "vehicleId": "42717522",
      "driverId": "20000019",
      "startMs": 1744361280000,
      "endMs": 1744370331716,
      "startAddress": "9825 Carlos Dale Suite 655",
      "endAddress": "226 Perkins Mount Apt. 184",
      "startCoords": {
        "latitude": 39.747172,
        "longitude": -104.948146
      },
      "endCoords": {
        "latitude": 39.733499,
        "longitude": -105.067521
      },
      "distanceMeters": 39196.3,
      "durationMs": 9051716,
      "drivingDurationMs": 7431449,
      "idlingDurationMs": 1620267,
      "fuelConsumedMl": 4985,
      "fuelConsumedGallons": 1.317,
      "maxSpeedMph": 40.2,
      "averageSpeedMph": 9.7,
      "safetyEvents": []
    },
    {
      "id": "trip_42717522_20250411_006",
      "vehicleId": "42717522",
      "driverId": "20000019",
      "startMs": 1744356000000,
      "endMs": 1744369177242,
      "startAddress": "6899 Kathy Tunnel",
      "endAddress": "46103 Hunter Falls",
      "startCoords": {
        "latitude": 39.81669,
        "longitude": -105.050683
      },
      "endCoords": {
        "latitude": 39.738875,
        "longitude": -105.018507
      },
      "distanceMeters": 73698.8,
      "durationMs": 13177242,
      "drivingDurationMs": 11671779,
      "idlingDurationMs": 1505463,
      "fuelConsumedMl": 9369,
      "fuelConsumedGallons": 2.475,
      "maxSpeedMph": 50.1,
      "averageSpeedMph": 12.5,
      "safetyEvents": []
    },
    {
      "id": "trip_42717522_20250412_001",
      "vehicleId": "42717522",
      "driverId": "20000007",
      "startMs": 1744452360000,
      "endMs": 1744458452002,
      "startAddress": "852 Beth Mission",
      "endAddress": "2176 James Coves",
      "startCoords": {
        "latitude": 39.70365,
        "longitude": -104.899837
      },
      "endCoords": {
        "latitude": 39.801788,
        "longitude": -105.022172
      },
      "distanceMeters": 49542.6,
      "durationMs": 6092003,
      "drivingDurationMs": 5817229,
      "idlingDurationMs": 274774,
      "fuelConsumedMl": 6299,
      "fuelConsumedGallons": 1.664,
      "maxSpeedMph": 42.9,
      "averageSpeedMph": 18.2,
      "safetyEvents": []
    },
    {
      "id": "trip_42717522_20250412_002",
      "vehicleId": "42717522",
      "driverId": "20000007",
      "startMs": 1744481880000,
      "endMs": 1744490030101,
      "startAddress": "67978 Barrett Turnpike",
      "endAddress": "990 Haynes Track Apt. 023",
      "startCoords": {
        "latitude": 39.810408,
        "longitude": -104.924044
      },
      "endCoords": {
        "latitude": 39.742047,
        "longitude": -105.046855
      },
      "distanceMeters": 45748.3,
      "durationMs": 8150101,
      "drivingDurationMs": 6832956,
      "idlingDurationMs": 1317145,
      "fuelConsumedMl": 5818,
      "fuelConsumedGallons": 1.537,
      "maxSpeedMph": 52.4,
      "averageSpeedMph": 12.6,
      "safetyEvents": []
    },
    {
      "id": "trip_42717522_20250412_003",
      "vehicleId": "42717522",
      "driverId": "20000007",
      "startMs": 1744453920000,
      "endMs": 1744458540496,
      "startAddress": "0458 Jamie Flat",
      "endAddress": "52590 Natasha Turnpike Apt. 678",
      "startCoords": {
        "latitude": 39.752303,
        "longitude": -105.003873
      },
      "endCoords": {
        "latitude": 39.808274,
        "longitude": -105.083438
      },
      "distanceMeters": 29451.4,
      "durationMs": 4620496,
      "drivingDurationMs": 3852058,
      "idlingDurationMs": 768438,
      "fuelConsumedMl": 3744,
      "fuelConsumedGallons": 0.989,
      "maxSpeedMph": 29.7,
      "averageSpeedMph": 14.3,
      "safetyEvents": []
    },
    {
      "id": "trip_42717522_20250412_004",
      "vehicleId": "42717522",
      "driverId": "20000007",
      "startMs": 1744448340000,
      "endMs": 1744459122385,
      "startAddress": "585 Shane Tunnel Suite 125",
      "endAddress": "958 Tonya Wells",
      "startCoords": {
        "latitude": 39.748734,
        "longitude": -105.005016
      },
      "endCoords": {
        "latitude": 39.760834,
        "longitude": -104.929735
      },
      "distanceMeters": 62048.9,
      "durationMs": 10782385,
      "drivingDurationMs": 9260043,
      "idlingDurationMs": 1522342,
      "fuelConsumedMl": 7889,
      "fuelConsumedGallons": 2.084,
      "maxSpeedMph": 34.3,
      "averageSpeedMph": 12.9,
      "safetyEvents": []
    },
    {
      "id": "trip_42717522_20250413_001",
      "vehicleId": "42717522",
      "driverId": "20000008",
      "startMs": 1744543560000,
      "endMs": 1744544961509,
      "startAddress": "714 Richards Lake Suite 372",
      "endAddress": "2109 Morgan Run",
      "startCoords": {
        "latitude": 39.79483,
        "longitude": -105.06255
      },
      "endCoords": {
        "latitude": 39.694103,
        "longitude": -105.057796
      },
      "distanceMeters": 8549.8,
      "durationMs": 1401510,
      "drivingDurationMs": 1146730,
      "idlingDurationMs": 254780,
      "fuelConsumedMl": 1086,
      "fuelConsumedGallons": 0.287,
      "maxSpeedMph": 63.9,
      "averageSpeedMph": 13.6,
      "safetyEvents": []
    },
    {
      "id": "trip_42717522_20250413_002",
      "vehicleId": "42717522",
      "driverId": "20000008",
      "startMs": 1744537320000,
      "endMs": 1744542455807,
      "startAddress": "639 Stout Court Apt. 428",
      "endAddress": "8031 Smith Square Apt. 674",
      "startCoords": {
        "latitude": 39.758151,
        "longitude": -104.970157
      },
      "endCoords": {
        "latitude": 39.823683,
        "longitude": -104.939981
      },
      "distanceMeters": 38011.2,
      "durationMs": 5135808,
      "drivingDurationMs": 4302600,
      "idlingDurationMs": 833207,
      "fuelConsumedMl": 4834,
      "fuelConsumedGallons": 1.277,
      "maxSpeedMph": 54.1,
      "averageSpeedMph": 16.6,
      "safetyEvents": []
    },
    {
      "id": "trip_42717522_20250413_003",
      "vehicleId": "42717522",
      "driverId": "20000008",
      "startMs": 1744536300000,
      "endMs": 1744538180238,
      "startAddress": "7775 Kathryn Road Suite 768",
      "endAddress": "236 Hoover Pike",
      "startCoords": {
        "latitude": 39.813589,
        "longitude": -105.027069
      },
      "endCoords": {
        "latitude": 39.794938,
        "longitude": -104.980798
      },
      "distanceMeters": 8558.2,
      "durationMs": 1880239,
      "drivingDurationMs": 1632854,
      "idlingDurationMs": 247385,
      "fuelConsumedMl": 1086,
      "fuelConsumedGallons": 0.287,
      "maxSpeedMph": 50.8,
      "averageSpeedMph": 10.2,
      "safetyEvents": []
    },
    {
      "id": "trip_42717522_20250413_004",
      "vehicleId": "42717522",
      "driverId": "20000008",
      "startMs": 1744529100000,
      "endMs": 1744534570356,
      "startAddress": "4555 Justin Divide Suite 431",
      "endAddress": "6935 Mark Mill Suite 081",
      "startCoords": {
        "latitude": 39.691301,
        "longitude": -104.920822
      },
      "endCoords": {
        "latitude": 39.729275,
        "longitude": -105.023521
      },
      "distanceMeters": 36966.5,
      "durationMs": 5470357,
      "drivingDurationMs": 4966567,
      "idlingDurationMs": 503790,
      "fuelConsumedMl": 4701,
      "fuelConsumedGallons": 1.242,
      "maxSpeedMph": 33.3,
      "averageSpeedMph": 15.1,
      "safetyEvents": []
    },
    {
      "id": "trip_42717522_20250414_001",
      "vehicleId": "42717522",
      "driverId": "20000010",
      "startMs": 1744651560000,
      "endMs": 1744655043882,
      "startAddress": "66776 Melanie Lock Apt. 418",
      "endAddress": "2160 Jones Villages Suite 959",
      "startCoords": {
        "latitude": 39.716847,
        "longitude": -105.070295
      },
      "endCoords": {
        "latitude": 39.804772,
        "longitude": -104.955935
      },
      "distanceMeters": 20800.0,
      "durationMs": 3483882,
      "drivingDurationMs": 3025601,
      "idlingDurationMs": 458281,
      "fuelConsumedMl": 2646,
      "fuelConsumedGallons": 0.699,
      "maxSpeedMph": 43.6,
      "averageSpeedMph": 13.4,
      "safetyEvents": []
    },
    {
      "id": "trip_42717522_20250414_002",
      "vehicleId": "42717522",
      "driverId": "20000010",
      "startMs": 1744649820000,
      "endMs": 1744654497139,
      "startAddress": "1272 Cabrera Land Suite 004",
      "endAddress": "00495 Dustin Skyway",
      "startCoords": {
        "latitude": 39.771568,
        "longitude": -104.936361
      },
      "endCoords": {
        "latitude": 39.756895,
        "longitude": -104.940139
      },
      "distanceMeters": 34584.1,
      "durationMs": 4677140,
      "drivingDurationMs": 4113345,
      "idlingDurationMs": 563795,
      "fuelConsumedMl": 4399,
      "fuelConsumedGallons": 1.162,
      "maxSpeedMph": 45.5,
      "averageSpeedMph": 16.5,
      "safetyEvents": []
    },
    {
      "id": "trip_42717522_20250414_003",
      "vehicleId": "42717522",
      "driverId": "20000010",
      "startMs": 1744643460000,
      "endMs": 1744652965567,
      "startAddress": "32897 Thomas Wall",
      "endAddress": "06292 Wallace Village",
      "startCoords": {
        "latitude": 39.714213,
        "longitude": -104.960277
      },
      "endCoords": {
        "latitude": 39.775892,
        "longitude": -105.005619
      },
      "distanceMeters": 62882.3,
      "durationMs": 9505567,
      "drivingDurationMs": 7865004,
      "idlingDurationMs": 1640563,
      "fuelConsumedMl": 7995,
      "fuelConsumedGallons": 2.112,
      "maxSpeedMph": 45.1,
      "averageSpeedMph": 14.8,
      "safetyEvents": []
    },
    {
      "id": "trip_42717522_20250414_004",
      "vehicleId": "42717522",
      "driverId": "20000010",
      "startMs": 1744650780000,
      "endMs": 1744662777470,
      "startAddress": "95461 Bryant Mission Suite 345",
      "endAddress": "85629 Snyder Mall",
      "startCoords": {
        "latitude": 39.795485,
        "longitude": -104.908529
      },
      "endCoords": {
        "latitude": 39.765999,
        "longitude": -105.043888
      },
      "distanceMeters": 67820.5,
      "durationMs": 11997470,
      "drivingDurationMs": 11270318,
      "idlingDurationMs": 727153,
      "fuelConsumedMl": 8623,
      "fuelConsumedGallons": 2.278,
      "maxSpeedMph": 61.2,
      "averageSpeedMph": 12.6,
      "safetyEvents": []
    },
    {
      "id": "trip_42717522_20250414_005",
      "vehicleId": "42717522",
      "driverId": "20000010",
      "startMs": 1744654380000,
      "endMs": 1744662689338,
      "startAddress": "51967 Jeremy Station Suite 982",
      "endAddress": "618 Breanna Wall Apt. 003",
      "startCoords": {
        "latitude": 39.823147,
        "longitude": -105.067144
      },
      "endCoords": {
        "latitude": 39.696143,
        "longitude": -104.925077
      },
      "distanceMeters": 54099.3,
      "durationMs": 8309339,
      "drivingDurationMs": 7302065,
      "idlingDurationMs": 1007273,
      "fuelConsumedMl": 6878,
      "fuelConsumedGallons": 1.817,
      "maxSpeedMph": 37.6,
      "averageSpeedMph": 14.6,
      "safetyEvents": []
    },
    {
      "id": "trip_42717522_20250415_001",
      "vehicleId": "42717522",
      "driverId": "20000002",
      "startMs": 1744736760000,
      "endMs": 1744742169780,
      "startAddress": "699 Alvarez Alley",
      "endAddress": "8397 Griffin Circle Suite 648",
      "startCoords": {
        "latitude": 39.765967,
        "longitude": -105.038388
      },
      "endCoords": {
        "latitude": 39.795815,
        "longitude": -105.026359
      },
      "distanceMeters": 34123.4,
      "durationMs": 5409780,
      "drivingDurationMs": 5001515,
      "idlingDurationMs": 408265,
      "fuelConsumedMl": 4338,
      "fuelConsumedGallons": 1.146,
      "maxSpeedMph": 69.8,
      "averageSpeedMph": 14.1,
      "safetyEvents": [
        {
          "type": "speeding",
          "startMs": 1744738260000,
          "maxSpeedMph": 69.8
        }
      ]
    },
    {
      "id": "trip_42717522_20250415_002",
      "vehicleId": "42717522",
      "driverId": "20000002",
      "startMs": 1744709220000,
      "endMs": 1744711012333,
      "startAddress": "83960 Hamilton Route Suite 812",
      "endAddress": "355 Jose Shore",
      "startCoords": {
        "latitude": 39.824889,
        "longitude": -104.942701
      },
      "endCoords": {
        "latitude": 39.762462,
        "longitude": -105.061149
      },
      "distanceMeters": 11674.1,
      "durationMs": 1792334,
      "drivingDurationMs": 1442620,
      "idlingDurationMs": 349714,
      "fuelConsumedMl": 1484,
      "fuelConsumedGallons": 0.392,
      "maxSpeedMph": 42.8,
      "averageSpeedMph": 14.6,
      "safetyEvents": []
    },
    {
      "id": "trip_42717522_20250415_003",
      "vehicleId": "42717522",
      "driverId": "20000002",
      "startMs": 1744729980000,
      "endMs": 1744740267603,
      "startAddress": "01997 Lowery Estates Apt. 564",
      "endAddress": "33678 Hatfield Union Suite 109",
      "startCoords": {
        "latitude": 39.778089,
        "longitude": -105.0638
      },
      "endCoords": {
        "latitude": 39.693212,
        "longitude": -104.958156
      },
      "distanceMeters": 53666.3,
      "durationMs": 10287604,
      "drivingDurationMs": 9233896,
      "idlingDurationMs": 1053708,
      "fuelConsumedMl": 6825,
      "fuelConsumedGallons": 1.803,
      "maxSpeedMph": 29.8,
      "averageSpeedMph": 11.7,
      "safetyEvents": []
    },
    {
      "id": "trip_42717522_20250415_004",
      "vehicleId": "42717522",
      "driverId": "20000002",
      "startMs": 1744731660000,
      "endMs": 1744733091081,
      "startAddress": "762 Patton Pass",
      "endAddress": "482 Dawn Ramp",
      "startCoords": {
        "latitude": 39.71702,
        "longitude": -105.046925
      },
      "endCoords": {
        "latitude": 39.827273,
        "longitude": -104.987911
      },
      "distanceMeters": 6348.7,
      "durationMs": 1431081,
      "drivingDurationMs": 1183658,
      "idlingDurationMs": 247423,
      "fuelConsumedMl": 806,
      "fuelConsumedGallons": 0.213,
      "maxSpeedMph": 59.1,
      "averageSpeedMph": 9.9,
      "safetyEvents": []
    },
    {
      "id": "trip_42717522_20250415_005",
      "vehicleId": "42717522",
      "driverId": "20000002",
      "startMs": 1744711320000,
      "endMs": 1744722465715,
      "startAddress": "201 Monica Path Suite 291",
      "endAddress": "9828 Stewart Crossing Suite 189",
      "startCoords": {
        "latitude": 39.76658,
        "longitude": -105.076141
      },
      "endCoords": {
        "latitude": 39.734068,
        "longitude": -105.064759
      },
      "distanceMeters": 51890.7,
      "durationMs": 11145716,
      "drivingDurationMs": 9928671,
      "idlingDurationMs": 1217045,
      "fuelConsumedMl": 6598,
      "fuelConsumedGallons": 1.743,
      "maxSpeedMph": 52.5,
      "averageSpeedMph": 10.4,
      "safetyEvents": []
    },
    {
      "id": "trip_42717522_20250416_001",
      "vehicleId": "42717522",
      "driverId": "20000005",
      "startMs": 1744795080000,
      "endMs": 1744807053811,
      "startAddress": "4876 Hawkins Throughway Suite 940",
      "endAddress": "45782 James Via Suite 020",
      "startCoords": {
        "latitude": 39.736302,
        "longitude": -104.916566
      },
      "endCoords": {
        "latitude": 39.794453,
        "longitude": -104.921145
      },
      "distanceMeters": 66759.3,
      "durationMs": 11973811,
      "drivingDurationMs": 10078941,
      "idlingDurationMs": 1894870,
      "fuelConsumedMl": 8487,
      "fuelConsumedGallons": 2.242,
      "maxSpeedMph": 49.8,
      "averageSpeedMph": 12.5,
      "safetyEvents": []
    },
    {
      "id": "trip_42717522_20250416_002",
      "vehicleId": "42717522",
      "driverId": "20000005",
      "startMs": 1744805220000,
      "endMs": 1744810137645,
      "startAddress": "323 Tammy Motorway Suite 022",
      "endAddress": "711 Nicholas Shore",
      "startCoords": {
        "latitude": 39.794654,
        "longitude": -104.928892
      },
      "endCoords": {
        "latitude": 39.808906,
        "longitude": -104.907307
      },
      "distanceMeters": 29255.6,
      "durationMs": 4917645,
      "drivingDurationMs": 4426675,
      "idlingDurationMs": 490971,
      "fuelConsumedMl": 3721,
      "fuelConsumedGallons": 0.983,
      "maxSpeedMph": 56.9,
      "averageSpeedMph": 13.3,
      "safetyEvents": []
    },
    {
      "id": "trip_42717522_20250417_001",
      "vehicleId": "42717522",
      "driverId": null,
      "startMs": 1744911540000,
      "endMs": 1744921310619,
      "startAddress": "961 Jesse Ways Apt. 086",
      "endAddress": "97943 Delacruz Roads",
      "startCoords": {
        "latitude": 39.806645,
        "longitude": -104.902891
      },
      "endCoords": {
        "latitude": 39.819377,
        "longitude": -105.012742
      },
      "distanceMeters": 61896.8,
      "durationMs": 9770620,
      "drivingDurationMs": 8418705,
      "idlingDurationMs": 1351915,
      "fuelConsumedMl": 7870,
      "fuelConsumedGallons": 2.079,
      "maxSpeedMph": 55.5,
      "averageSpeedMph": 14.2,
      "safetyEvents": []
    },
    {
      "id": "trip_42717522_20250417_002",
      "vehicleId": "42717522",
      "driverId": "20000016",
      "startMs": 1744903920000,
      "endMs": 1744910893925,
      "startAddress": "0954 Tiffany Light Suite 558",
      "endAddress": "336 Daisy Cliff",
      "startCoords": {
        "latitude": 39.732201,
        "longitude": -105.011033
      },
      "endCoords": {
        "latitude": 39.725129,
        "longitude": -105.047453
      },
      "distanceMeters": 42870.3,
      "durationMs": 6973925,
      "drivingDurationMs": 5980096,
      "idlingDurationMs": 993830,
      "fuelConsumedMl": 5451,
      "fuelConsumedGallons": 1.44,
      "maxSpeedMph": 63.4,
      "averageSpeedMph": 13.8,
      "safetyEvents": []
    },
    {
      "id": "trip_42717522_20250417_003",
      "vehicleId": "42717522",
      "driverId": "20000016",
      "startMs": 1744892580000,
      "endMs": 1744897798793,
      "startAddress": "3124 Timothy Ports Suite 421",
      "endAddress": "090 Paul Valleys Apt. 598",
      "startCoords": {
        "latitude": 39.737581,
        "longitude": -105.020889
      },
      "endCoords": {
        "latitude": 39.816345,
        "longitude": -104.993182
      },
      "distanceMeters": 32435.1,
      "durationMs": 5218794,
      "drivingDurationMs": 4861417,
      "idlingDurationMs": 357377,
      "fuelConsumedMl": 4122,
      "fuelConsumedGallons": 1.089,
      "maxSpeedMph": 40.8,
      "averageSpeedMph": 13.9,
      "safetyEvents": []
    },
    {
      "id": "trip_42717522_20250417_004",
      "vehicleId": "42717522",
      "driverId": "20000016",
      "startMs": 1744898100000,
      "endMs": 1744903579855,
      "startAddress": "75803 Cantrell Greens Apt. 624",
      "endAddress": "292 Katie Gateway",
      "startCoords": {
        "latitude": 39.71531,
        "longitude": -104.9907
      },
      "endCoords": {
        "latitude": 39.8003,
        "longitude": -105.08312
      },
      "distanceMeters": 41415.6,
      "durationMs": 5479855,
      "drivingDurationMs": 4802538,
      "idlingDurationMs": 677317,
      "fuelConsumedMl": 5266,
      "fuelConsumedGallons": 1.391,
      "maxSpeedMph": 61.7,
      "averageSpeedMph": 16.9,
      "safetyEvents": []
    },
    {
      "id": "trip_42717522_20250417_005",
      "vehicleId": "42717522",
      "driverId": "20000016",
      "startMs": 1744900560000,
      "endMs": 1744913410169,
      "startAddress": "734 Kenneth Radial Suite 630",
      "endAddress": "639 Steve Lock Apt. 412",
      "startCoords": {
        "latitude": 39.807775,
        "longitude": -104.943278
      },
      "endCoords": {
        "latitude": 39.686701,
        "longitude": -105.063688
      },
      "distanceMeters": 78741.5,
      "durationMs": 12850170,
      "drivingDurationMs": 11680322,
      "idlingDurationMs": 1169847,
      "fuelConsumedMl": 10012,
      "fuelConsumedGallons": 2.645,
      "maxSpeedMph": 38.8,
      "averageSpeedMph": 13.7,
      "safetyEvents": []
    },
    {
      "id": "trip_42717522_20250417_006",
      "vehicleId": "42717522",
      "driverId": "20000016",
      "startMs": 1744907100000,
      "endMs": 1744908889927,
      "startAddress": "0746 Adams Village",
      "endAddress": "681 Davis Oval Apt. 252",
      "startCoords": {
        "latitude": 39.816792,
        "longitude": -105.038314
      },
      "endCoords": {
        "latitude": 39.72996,
        "longitude": -104.941494
      },
      "distanceMeters": 12598.6,
      "durationMs": 1789928,
      "drivingDurationMs": 1474501,
      "idlingDurationMs": 315427,
      "fuelConsumedMl": 1601,
      "fuelConsumedGallons": 0.423,
      "maxSpeedMph": 29.1,
      "averageSpeedMph": 15.7,
      "safetyEvents": []
    },
    {
      "id": "trip_42717522_20250418_001",
      "vehicleId": "42717522",
      "driverId": "20000006",
      "startMs": 1744993020000,
      "endMs": 1745002254659,
      "startAddress": "07798 Charles View",
      "endAddress": "85051 Anderson Forge Apt. 304",
      "startCoords": {
        "latitude": 39.810308,
        "longitude": -104.913271
      },
      "endCoords": {
        "latitude": 39.709901,
        "longitude": -104.917389
      },
      "distanceMeters": 64346.8,
      "durationMs": 9234659,
      "drivingDurationMs": 8477845,
      "idlingDurationMs": 756815,
      "fuelConsumedMl": 8180,
      "fuelConsumedGallons": 2.161,
      "maxSpeedMph": 44.3,
      "averageSpeedMph": 15.6,
      "safetyEvents": []
    },
    {
      "id": "trip_42717522_20250418_002",
      "vehicleId": "42717522",
      "driverId": "20000006",
      "startMs": 1744972500000,
      "endMs": 1744988077387,
      "startAddress": "0468 Wendy Coves Suite 564",
      "endAddress": "220 Teresa Square Apt. 744",
      "startCoords": {
        "latitude": 39.693122,
        "longitude": -105.036906
      },
      "endCoords": {
        "latitude": 39.754584,
        "longitude": -104.912936
      },
      "distanceMeters": 75148.3,
      "durationMs": 15577387,
      "drivingDurationMs": 13800080,
      "idlingDurationMs": 1777308,
      "fuelConsumedMl": 9554,
      "fuelConsumedGallons": 2.524,
      "maxSpeedMph": 65.4,
      "averageSpeedMph": 10.8,
      "safetyEvents": [
        {
          "type": "speeding",
          "startMs": 1744979820000,
          "maxSpeedMph": 65.4
        }
      ]
    },
    {
      "id": "trip_42717522_20250418_003",
      "vehicleId": "42717522",
      "driverId": "20000006",
      "startMs": 1744985160000,
      "endMs": 1744996104074,
      "startAddress": "10049 Valenzuela Isle",
      "endAddress": "0792 Chapman Radial",
      "startCoords": {
        "latitude": 39.698708,
        "longitude": -105.025559
      },
      "endCoords": {
        "latitude": 39.791256,
        "longitude": -105.011423
      },
      "distanceMeters": 77316.7,
      "durationMs": 10944075,
      "drivingDurationMs": 10680299,
      "idlingDurationMs": 263775,
      "fuelConsumedMl": 9831,
      "fuelConsumedGallons": 2.597,
      "maxSpeedMph": 37.4,
      "averageSpeedMph": 15.8,
      "safetyEvents": []
    },
    {
      "id": "trip_42717522_20250418_004",
      "vehicleId": "42717522",
      "driverId": null,
      "startMs": 1744957920000,
      "endMs": 1744964276412,
      "startAddress": "58270 Madeline Hill",
      "endAddress": "63724 Rodriguez Haven Suite 843",
      "startCoords": {
        "latitude": 39.827695,
        "longitude": -104.943835
      },
      "endCoords": {
        "latitude": 39.720984,
        "longitude": -104.994326
      },
      "distanceMeters": 40852.5,
      "durationMs": 6356413,
      "drivingDurationMs": 6055897,
      "idlingDurationMs": 300516,
      "fuelConsumedMl": 5194,
      "fuelConsumedGallons": 1.372,
      "maxSpeedMph": 44.8,
      "averageSpeedMph": 14.4,
      "safetyEvents": []
    },
    {
      "id": "trip_42717522_20250418_005",
      "vehicleId": "42717522",
      "driverId": "20000006",
      "startMs": 1744993560000,
      "endMs": 1745010000000,
      "startAddress": "18051 Colleen Valley Apt. 399",
      "endAddress": "01735 Green Vista Apt. 797",
      "startCoords": {
        "latitude": 39.7989,
        "longitude": -105.062581
      },
      "endCoords": {
        "latitude": 39.803438,
        "longitude": -105.039735
      },
      "distanceMeters": 70509.3,
      "durationMs": 16440000,
      "drivingDurationMs": 14036701,
      "idlingDurationMs": 2403299,
      "fuelConsumedMl": 8964,
      "fuelConsumedGallons": 2.368,
      "maxSpeedMph": 44.9,
      "averageSpeedMph": 9.6,
      "safetyEvents": []
    },
    {
      "id": "trip_42717522_20250419_001",
      "vehicleId": "42717522",
      "driverId": "20000012",
      "startMs": 1745081700000,
      "endMs": 1745083554558,
      "startAddress": "32314 Hicks Cove Suite 118",
      "endAddress": "38244 Gonzalez Camp",
      "startCoords": {
        "latitude": 39.716345,
        "longitude": -104.970274
      },
      "endCoords": {
        "latitude": 39.701349,
        "longitude": -105.014007
      },
      "distanceMeters": 12254.9,
      "durationMs": 1854558,
      "drivingDurationMs": 1653473,
      "idlingDurationMs": 201085,
      "fuelConsumedMl": 1560,
      "fuelConsumedGallons": 0.412,
      "maxSpeedMph": 55.9,
      "averageSpeedMph": 14.8,
      "safetyEvents": []
    },
    {
      "id": "trip_42717522_20250419_002",
      "vehicleId": "42717522",
      "driverId": "20000012",
      "startMs": 1745082360000,
      "endMs": 1745092460652,
      "startAddress": "027 Donna Cape Apt. 031",
      "endAddress": "733 Elliott Islands",
      "startCoords": {
        "latitude": 39.793547,
        "longitude": -105.069111
      },
      "endCoords": {
        "latitude": 39.698499,
        "longitude": -105.063495
      },
      "distanceMeters": 56680.3,
      "durationMs": 10100653,
      "drivingDurationMs": 8084492,
      "idlingDurationMs": 2016161,
      "fuelConsumedMl": 7207,
      "fuelConsumedGallons": 1.904,
      "maxSpeedMph": 28.5,
      "averageSpeedMph": 12.6,
      "safetyEvents": []
    },
    {
      "id": "trip_42717522_20250419_003",
      "vehicleId": "42717522",
      "driverId": "20000012",
      "startMs": 1745079060000,
      "endMs": 1745093946809,
      "startAddress": "34219 Harris Valleys Suite 759",
      "endAddress": "77149 Dawson Burg Suite 361",
      "startCoords": {
        "latitude": 39.770465,
        "longitude": -104.997008
      },
      "endCoords": {
        "latitude": 39.784547,
        "longitude": -105.085943
      },
      "distanceMeters": 78341.9,
      "durationMs": 14886810,
      "drivingDurationMs": 13797156,
      "idlingDurationMs": 1089653,
      "fuelConsumedMl": 9959,
      "fuelConsumedGallons": 2.631,
      "maxSpeedMph": 57.5,
      "averageSpeedMph": 11.8,
      "safetyEvents": []
    },
    {
      "id": "trip_42717522_20250420_001",
      "vehicleId": "42717522",
      "driverId": "20000007",
      "startMs": 1745152560000,
      "endMs": 1745163217666,
      "startAddress": "890 Ashley Lock Apt. 828",
      "endAddress": "9488 Samuel Mountains Apt. 629",
      "startCoords": {
        "latitude": 39.773954,
        "longitude": -105.012969
      },
      "endCoords": {
        "latitude": 39.717356,
        "longitude": -105.026493
      },
      "distanceMeters": 69257.1,
      "durationMs": 10657666,
      "drivingDurationMs": 10001951,
      "idlingDurationMs": 655716,
      "fuelConsumedMl": 8805,
      "fuelConsumedGallons": 2.326,
      "maxSpeedMph": 31.4,
      "averageSpeedMph": 14.5,
      "safetyEvents": []
    },
    {
      "id": "trip_42717522_20250420_002",
      "vehicleId": "42717522",
      "driverId": "20000007",
      "startMs": 1745139600000,
      "endMs": 1745150354594,
      "startAddress": "90393 Harrison Brooks",
      "endAddress": "5296 Juan Rapids Apt. 819",
      "startCoords": {
        "latitude": 39.758553,
        "longitude": -104.906076
      },
      "endCoords": {
        "latitude": 39.743386,
        "longitude": -104.939127
      },
      "distanceMeters": 70860.2,
      "durationMs": 10754594,
      "drivingDurationMs": 9202675,
      "idlingDurationMs": 1551919,
      "fuelConsumedMl": 9009,
      "fuelConsumedGallons": 2.38,
      "maxSpeedMph": 55.7,
      "averageSpeedMph": 14.7,
      "safetyEvents": []
    },
    {
      "id": "trip_42717522_20250420_003",
      "vehicleId": "42717522",
      "driverId": "20000007",
      "startMs": 1745146860000,
      "endMs": 1745150984108,
      "startAddress": "2297 Green Run Apt. 878",
      "endAddress": "48980 Peterson Well Apt. 886",
      "startCoords": {
        "latitude": 39.752785,
        "longitude": -105.017751
      },
      "endCoords": {
        "latitude": 39.795162,
        "longitude": -104.96036
      },
      "distanceMeters": 24189.6,
      "durationMs": 4124108,
      "drivingDurationMs": 3330112,
      "idlingDurationMs": 793996,
      "fuelConsumedMl": 3074,
      "fuelConsumedGallons": 0.812,
      "maxSpeedMph": 61.0,
      "averageSpeedMph": 13.1,
      "safetyEvents": []
    },
    {
      "id": "trip_42717522_20250421_001",
      "vehicleId": "42717522",
      "driverId": "20000019",
      "startMs": 1745230920000,
      "endMs": 1745245498246,
      "startAddress": "0607 Joyce Corner",
      "endAddress": "034 Smith Plains Apt. 447",
      "startCoords": {
        "latitude": 39.718039,
        "longitude": -104.956329
      },
      "endCoords": {
        "latitude": 39.726271,
        "longitude": -104.916372
      },
      "distanceMeters": 75863.5,
      "durationMs": 14578247,
      "drivingDurationMs": 11938431,
      "idlingDurationMs": 2639815,
      "fuelConsumedMl": 9645,
      "fuelConsumedGallons": 2.548,
      "maxSpeedMph": 64.7,
      "averageSpeedMph": 11.6,
      "safetyEvents": []
    },
    {
      "id": "trip_42717522_20250421_002",
      "vehicleId": "42717522",
      "driverId": "20000019",
      "startMs": 1745248860000,
      "endMs": 1745255107782,
      "startAddress": "16849 Janet Expressway Apt. 658",
      "endAddress": "11614 Cole Motorway",
      "startCoords": {
        "latitude": 39.813385,
        "longitude": -105.033651
      },
      "endCoords": {
        "latitude": 39.729566,
        "longitude": -104.943715
      },
      "distanceMeters": 26089.1,
      "durationMs": 6247783,
      "drivingDurationMs": 5038028,
      "idlingDurationMs": 1209755,
      "fuelConsumedMl": 3316,
      "fuelConsumedGallons": 0.876,
      "maxSpeedMph": 44.5,
      "averageSpeedMph": 9.3,
      "safetyEvents": []
    },
    {
      "id": "trip_42717522_20250421_003",
      "vehicleId": "42717522",
      "driverId": "20000019",
      "startMs": 1745257860000,
      "endMs": 1745266048245,
      "startAddress": "2318 Carrillo Union",
      "endAddress": "3211 James Route",
      "startCoords": {
        "latitude": 39.771022,
        "longitude": -105.03247
      },
      "endCoords": {
        "latitude": 39.78794,
        "longitude": -104.961536
      },
      "distanceMeters": 58599.3,
      "durationMs": 8188246,
      "drivingDurationMs": 7473059,
      "idlingDurationMs": 715186,
      "fuelConsumedMl": 7450,
      "fuelConsumedGallons": 1.968,
      "maxSpeedMph": 50.8,
      "averageSpeedMph": 16.0,
      "safetyEvents": []
    },
    {
      "id": "trip_42717522_20250421_004",
      "vehicleId": "42717522",
      "driverId": "20000019",
      "startMs": 1745248680000,
      "endMs": 1745253119906,
      "startAddress": "0945 Mary Fords Apt. 957",
      "endAddress": "3726 Wood Forge Suite 218",
      "startCoords": {
        "latitude": 39.813966,
        "longitude": -105.0815
      },
      "endCoords": {
        "latitude": 39.692987,
        "longitude": -105.067623
      },
      "distanceMeters": 27505.7,
      "durationMs": 4439906,
      "drivingDurationMs": 4166222,
      "idlingDurationMs": 273684,
      "fuelConsumedMl": 3498,
      "fuelConsumedGallons": 0.924,
      "maxSpeedMph": 51.3,
      "averageSpeedMph": 13.9,
      "safetyEvents": []
    },
    {
      "id": "trip_42717522_20250421_005",
      "vehicleId": "42717522",
      "driverId": "20000019",
      "startMs": 1745260140000,
      "endMs": 1745269200000,
      "startAddress": "256 Vazquez Burgs",
      "endAddress": "871 Bentley Forges",
      "startCoords": {
        "latitude": 39.71456,
        "longitude": -104.941655
      },
      "endCoords": {
        "latitude": 39.753343,
        "longitude": -104.971477
      },
      "distanceMeters": 51878.1,
      "durationMs": 9060000,
      "drivingDurationMs": 7248000,
      "idlingDurationMs": 1812000,
      "fuelConsumedMl": 6594,
      "fuelConsumedGallons": 1.742,
      "maxSpeedMph": 49.2,
      "averageSpeedMph": 12.8,
      "safetyEvents": []
    },
    {
      "id": "trip_42717522_20250421_006",
      "vehicleId": "42717522",
      "driverId": "20000019",
      "startMs": 1745258280000,
      "endMs": 1745266189389,
      "startAddress": "495 Gillespie Lakes Suite 230",
      "endAddress": "535 Harris Ford",
      "startCoords": {
        "latitude": 39.695202,
        "longitude": -104.901366
      },
      "endCoords": {
        "latitude": 39.76174,
        "longitude": -104.90899
      },
      "distanceMeters": 41629.9,
      "durationMs": 7909389,
      "drivingDurationMs": 7150225,
      "idlingDurationMs": 759164,
      "fuelConsumedMl": 5292,
      "fuelConsumedGallons": 1.398,
      "maxSpeedMph": 71.3,
      "averageSpeedMph": 11.8,
      "safetyEvents": [
        {
          "type": "speeding",
          "startMs": 1745262900000,
          "maxSpeedMph": 71.3
        }
      ]
    },
    {
      "id": "trip_42717522_20250422_001",
      "vehicleId": "42717522",
      "driverId": null,
      "startMs": 1745317020000,
      "endMs": 1745328307392,
      "startAddress": "99828 Daniel Trail Suite 287",
      "endAddress": "59185 Cindy Well",
      "startCoords": {
        "latitude": 39.719385,
        "longitude": -104.945767
      },
      "endCoords": {
        "latitude": 39.737881,
        "longitude": -104.943753
      },
      "distanceMeters": 60116.6,
      "durationMs": 11287393,
      "drivingDurationMs": 9595881,
      "idlingDurationMs": 1691511,
      "fuelConsumedMl": 7643,
      "fuelConsumedGallons": 2.019,
      "maxSpeedMph": 54.7,
      "averageSpeedMph": 11.9,
      "safetyEvents": []
    },
    {
      "id": "trip_42717522_20250422_002",
      "vehicleId": "42717522",
      "driverId": "20000011",
      "startMs": 1745337300000,
      "endMs": 1745340684606,
      "startAddress": "21218 Williams Forest Apt. 687",
      "endAddress": "57640 Lowe Ports Apt. 200",
      "startCoords": {
        "latitude": 39.705649,
        "longitude": -104.909057
      },
      "endCoords": {
        "latitude": 39.805384,
        "longitude": -105.020721
      },
      "distanceMeters": 18360.8,
      "durationMs": 3384607,
      "drivingDurationMs": 2802474,
      "idlingDurationMs": 582133,
      "fuelConsumedMl": 2336,
      "fuelConsumedGallons": 0.617,
      "maxSpeedMph": 36.2,
      "averageSpeedMph": 12.1,
      "safetyEvents": []
    },
    {
      "id": "trip_42717522_20250422_003",
      "vehicleId": "42717522",
      "driverId": "20000011",
      "startMs": 1745332860000,
      "endMs": 1745342258376,
      "startAddress": "3474 Michelle Village",
      "endAddress": "134 Rice Fords",
      "startCoords": {
        "latitude": 39.730626,
        "longitude": -105.069716
      },
      "endCoords": {
        "latitude": 39.735988,
        "longitude": -104.959141
      },
      "distanceMeters": 55615.7,
      "durationMs": 9398377,
      "drivingDurationMs": 8275542,
      "idlingDurationMs": 1122835,
      "fuelConsumedMl": 7071,
      "fuelConsumedGallons": 1.868,
      "maxSpeedMph": 60.3,
      "averageSpeedMph": 13.2,
      "safetyEvents": []
    },
    {
      "id": "trip_42717522_20250422_004",
      "vehicleId": "42717522",
      "driverId": "20000011",
      "startMs": 1745302560000,
      "endMs": 1745304033310,
      "startAddress": "2488 Smith Skyway",
      "endAddress": "81910 Lloyd Inlet",
      "startCoords": {
        "latitude": 39.751394,
        "longitude": -104.96962
      },
      "endCoords": {
        "latitude": 39.807032,
        "longitude": -104.960756
      },
      "distanceMeters": 9609.1,
      "durationMs": 1473310,
      "drivingDurationMs": 1292193,
      "idlingDurationMs": 181117,
      "fuelConsumedMl": 1223,
      "fuelConsumedGallons": 0.323,
      "maxSpeedMph": 32.7,
      "averageSpeedMph": 14.6,
      "safetyEvents": []
    },
    {
      "id": "trip_42717522_20250422_005",
      "vehicleId": "42717522",
      "driverId": "20000011",
      "startMs": 1745323440000,
      "endMs": 1745337427530,
      "startAddress": "528 Chapman Loaf",
      "endAddress": "0929 Julie Circle",
      "startCoords": {
        "latitude": 39.724062,
        "longitude": -104.915454
      },
      "endCoords": {
        "latitude": 39.766108,
        "longitude": -105.074778
      },
      "distanceMeters": 80435.5,
      "durationMs": 13987530,
      "drivingDurationMs": 11562497,
      "idlingDurationMs": 2425033,
      "fuelConsumedMl": 10228,
      "fuelConsumedGallons": 2.702,
      "maxSpeedMph": 71.8,
      "averageSpeedMph": 12.9,
      "safetyEvents": [
        {
          "type": "speeding",
          "startMs": 1745329860000,
          "maxSpeedMph": 71.8
        }
      ]
    },
    {
      "id": "trip_42717522_20250422_006",
      "vehicleId": "42717522",
      "driverId": "20000011",
      "startMs": 1745333280000,
      "endMs": 1745345373103,
      "startAddress": "4029 Galvan Dale",
      "endAddress": "09535 Paul Court Apt. 771",
      "startCoords": {
        "latitude": 39.775027,
        "longitude": -105.021278
      },
      "endCoords": {
        "latitude": 39.753639,
        "longitude": -105.061648
      },
      "distanceMeters": 71846.7,
      "durationMs": 12093104,
      "drivingDurationMs": 10240063,
      "idlingDurationMs": 1853040,
      "fuelConsumedMl": 9134,
      "fuelConsumedGallons": 2.413,
      "maxSpeedMph": 48.6,
      "averageSpeedMph": 13.3,
      "safetyEvents": []
    },
    {
      "id": "trip_42717522_20250423_001",
      "vehicleId": "42717522",
      "driverId": "20000006",
      "startMs": 1745421720000,
      "endMs": 1745437798733,
      "startAddress": "29103 Rich Isle Apt. 080",
      "endAddress": "773 Beth Plaza",
      "startCoords": {
        "latitude": 39.721299,
        "longitude": -104.988376
      },
      "endCoords": {
        "latitude": 39.751448,
        "longitude": -104.998517
      },
      "distanceMeters": 72734.1,
      "durationMs": 16078734,
      "drivingDurationMs": 14395433,
      "idlingDurationMs": 1683301,
      "fuelConsumedMl": 9248,
      "fuelConsumedGallons": 2.443,
      "maxSpeedMph": 51.3,
      "averageSpeedMph": 10.1,
      "safetyEvents": []
    },
    {
      "id": "trip_42717522_20250423_002",
      "vehicleId": "42717522",
      "driverId": "20000006",
      "startMs": 1745423400000,
      "endMs": 1745429421846,
      "startAddress": "416 Hannah Forges",
      "endAddress": "799 Potter Meadows Apt. 123",
      "startCoords": {
        "latitude": 39.691296,
        "longitude": -104.958089
      },
      "endCoords": {
        "latitude": 39.768105,
        "longitude": -105.016912
      },
      "distanceMeters": 31890.6,
      "durationMs": 6021846,
      "drivingDurationMs": 5523032,
      "idlingDurationMs": 498814,
      "fuelConsumedMl": 4054,
      "fuelConsumedGallons": 1.071,
      "maxSpeedMph": 45.5,
      "averageSpeedMph": 11.8,
      "safetyEvents": []
    },
    {
      "id": "trip_42717522_20250423_003",
      "vehicleId": "42717522",
      "driverId": "20000006",
      "startMs": 1745424240000,
      "endMs": 1745428947157,
      "startAddress": "6952 Hill Extensions",
      "endAddress": "966 Jonathan Walk Suite 514",
      "startCoords": {
        "latitude": 39.704669,
        "longitude": -105.062122
      },
      "endCoords": {
        "latitude": 39.767613,
        "longitude": -105.033302
      },
      "distanceMeters": 32782.3,
      "durationMs": 4707158,
      "drivingDurationMs": 4016654,
      "idlingDurationMs": 690504,
      "fuelConsumedMl": 4168,
      "fuelConsumedGallons": 1.101,
      "maxSpeedMph": 45.2,
      "averageSpeedMph": 15.6,
      "safetyEvents": []
    },
    {
      "id": "trip_42717522_20250424_001",
      "vehicleId": "42717522",
      "driverId": "20000014",
      "startMs": 1745482980000,
      "endMs": 1745493389169,
      "startAddress": "662 Jesse Islands Apt. 725",
      "endAddress": "70550 Christopher Camp",
      "startCoords": {
        "latitude": 39.734955,
        "longitude": -104.915844
      },
      "endCoords": {
        "latitude": 39.807925,
        "longitude": -105.027276
      },
      "distanceMeters": 82431.3,
      "durationMs": 10409170,
      "drivingDurationMs": 9793724,
      "idlingDurationMs": 615446,
      "fuelConsumedMl": 10482,
      "fuelConsumedGallons": 2.769,
      "maxSpeedMph": 64.1,
      "averageSpeedMph": 17.7,
      "safetyEvents": []
    },
    {
      "id": "trip_42717522_20250424_002",
      "vehicleId": "42717522",
      "driverId": "20000014",
      "startMs": 1745504040000,
      "endMs": 1745505682368,
      "startAddress": "879 Kimberly Corners Apt. 465",
      "endAddress": "033 Jennifer Grove Apt. 115",
      "startCoords": {
        "latitude": 39.700719,
        "longitude": -105.020851
      },
      "endCoords": {
        "latitude": 39.714773,
        "longitude": -104.904945
      },
      "distanceMeters": 9940.2,
      "durationMs": 1642369,
      "drivingDurationMs": 1322630,
      "idlingDurationMs": 319739,
      "fuelConsumedMl": 1264,
      "fuelConsumedGallons": 0.334,
      "maxSpeedMph": 55.2,
      "averageSpeedMph": 13.5,
      "safetyEvents": []
    },
    {
      "id": "trip_42717522_20250424_003",
      "vehicleId": "42717522",
      "driverId": "20000014",
      "startMs": 1745479020000,
      "endMs": 1745494880118,
      "startAddress": "897 Morgan Ridge",
      "endAddress": "56813 Mcgee Circles Apt. 409",
      "startCoords": {
        "latitude": 39.698983,
        "longitude": -104.92024
      },
      "endCoords": {
        "latitude": 39.799743,
        "longitude": -104.943495
      },
      "distanceMeters": 73723.8,
      "durationMs": 15860119,
      "drivingDurationMs": 14434670,
      "idlingDurationMs": 1425449,
      "fuelConsumedMl": 9373,
      "fuelConsumedGallons": 2.476,
      "maxSpeedMph": 51.9,
      "averageSpeedMph": 10.4,
      "safetyEvents": []
    },
    {
      "id": "trip_42717522_20250424_004",
      "vehicleId": "42717522",
      "driverId": "20000014",
      "startMs": 1745511420000,
      "endMs": 1745523317255,
      "startAddress": "75134 Bruce Circles",
      "endAddress": "78886 Diaz Parkway Apt. 579",
      "startCoords": {
        "latitude": 39.770242,
        "longitude": -105.000256
      },
      "endCoords": {
        "latitude": 39.702473,
        "longitude": -105.062964
      },
      "distanceMeters": 66337.2,
      "durationMs": 11897255,
      "drivingDurationMs": 11004638,
      "idlingDurationMs": 892618,
      "fuelConsumedMl": 8434,
      "fuelConsumedGallons": 2.228,
      "maxSpeedMph": 59.7,
      "averageSpeedMph": 12.5,
      "safetyEvents": []
    },
    {
      "id": "trip_42717522_20250424_005",
      "vehicleId": "42717522",
      "driverId": "20000014",
      "startMs": 1745514000000,
      "endMs": 1745523348015,
      "startAddress": "0942 Pamela Spurs Apt. 484",
      "endAddress": "7199 Gonzales Village Apt. 948",
      "startCoords": {
        "latitude": 39.772107,
        "longitude": -104.909304
      },
      "endCoords": {
        "latitude": 39.7685,
        "longitude": -104.997354
      },
      "distanceMeters": 52807.5,
      "durationMs": 9348015,
      "drivingDurationMs": 8803161,
      "idlingDurationMs": 544854,
      "fuelConsumedMl": 6715,
      "fuelConsumedGallons": 1.774,
      "maxSpeedMph": 55.0,
      "averageSpeedMph": 12.6,
      "safetyEvents": []
    },
    {
      "id": "trip_42717522_20250425_001",
      "vehicleId": "42717522",
      "driverId": "20000009",
      "startMs": 1745595600000,
      "endMs": 1745607007386,
      "startAddress": "743 Donna Ridges Suite 366",
      "endAddress": "96053 Shah Stravenue",
      "startCoords": {
        "latitude": 39.76177,
        "longitude": -105.069222
      },
      "endCoords": {
        "latitude": 39.686957,
        "longitude": -105.067763
      },
      "distanceMeters": 80310.6,
      "durationMs": 11407387,
      "drivingDurationMs": 10814602,
      "idlingDurationMs": 592785,
      "fuelConsumedMl": 10209,
      "fuelConsumedGallons": 2.697,
      "maxSpeedMph": 36.8,
      "averageSpeedMph": 15.7,
      "safetyEvents": []
    },
    {
      "id": "trip_42717522_20250425_002",
      "vehicleId": "42717522",
      "driverId": "20000009",
      "startMs": 1745564220000,
      "endMs": 1745565637933,
      "startAddress": "606 Gavin Vista",
      "endAddress": "47763 Thomas Ferry Apt. 294",
      "startCoords": {
        "latitude": 39.745811,
        "longitude": -105.014948
      },
      "endCoords": {
        "latitude": 39.735494,
        "longitude": -105.054899
      },
      "distanceMeters": 9722.0,
      "durationMs": 1417934,
      "drivingDurationMs": 1197141,
      "idlingDurationMs": 220793,
      "fuelConsumedMl": 1238,
      "fuelConsumedGallons": 0.327,
      "maxSpeedMph": 43.5,
      "averageSpeedMph": 15.3,
      "safetyEvents": []
    },
    {
      "id": "trip_42717522_20250425_003",
      "vehicleId": "42717522",
      "driverId": "20000009",
      "startMs": 1745602680000,
      "endMs": 1745605888070,
      "startAddress": "2203 Harris Neck Suite 364",
      "endAddress": "300 Parker Gateway",
      "startCoords": {
        "latitude": 39.711254,
        "longitude": -105.023318
      },
      "endCoords": {
        "latitude": 39.743756,
        "longitude": -104.984236
      },
      "distanceMeters": 19806.4,
      "durationMs": 3208070,
      "drivingDurationMs": 2666880,
      "idlingDurationMs": 541190,
      "fuelConsumedMl": 2517,
      "fuelConsumedGallons": 0.665,
      "maxSpeedMph": 36.6,
      "averageSpeedMph": 13.8,
      "safetyEvents": []
    },
    {
      "id": "trip_42717522_20250426_001",
      "vehicleId": "42717522",
      "driverId": "20000021",
      "startMs": 1745648640000,
      "endMs": 1745654485258,
      "startAddress": "136 Holmes Drive Apt. 111",
      "endAddress": "3150 Thomas Parkways",
      "startCoords": {
        "latitude": 39.804636,
        "longitude": -104.944513
      },
      "endCoords": {
        "latitude": 39.741285,
        "longitude": -105.005855
      },
      "distanceMeters": 41606.2,
      "durationMs": 5845259,
      "drivingDurationMs": 4871471,
      "idlingDurationMs": 973787,
      "fuelConsumedMl": 5288,
      "fuelConsumedGallons": 1.397,
      "maxSpeedMph": 70.5,
      "averageSpeedMph": 15.9,
      "safetyEvents": [
        {
          "type": "speeding",
          "startMs": 1745652660000,
          "maxSpeedMph": 70.5
        }
      ]
    },
    {
      "id": "trip_42717522_20250427_001",
      "vehicleId": "42717522",
      "driverId": "20000013",
      "startMs": 1745759520000,
      "endMs": 1745764149073,
      "startAddress": "69934 Angelica Ridges",
      "endAddress": "564 Logan Turnpike",
      "startCoords": {
        "latitude": 39.81323,
        "longitude": -104.934258
      },
      "endCoords": {
        "latitude": 39.75823,
        "longitude": -104.972908
      },
      "distanceMeters": 23080.7,
      "durationMs": 4629073,
      "drivingDurationMs": 4187449,
      "idlingDurationMs": 441624,
      "fuelConsumedMl": 2934,
      "fuelConsumedGallons": 0.775,
      "maxSpeedMph": 55.6,
      "averageSpeedMph": 11.2,
      "safetyEvents": []
    },
    {
      "id": "trip_42717522_20250428_001",
      "vehicleId": "42717522",
      "driverId": "20000001",
      "startMs": 1745826480000,
      "endMs": 1745836580846,
      "startAddress": "4330 Preston Trafficway",
      "endAddress": "09508 Kelley Pike",
      "startCoords": {
        "latitude": 39.783174,
        "longitude": -104.968552
      },
      "endCoords": {
        "latitude": 39.721645,
        "longitude": -105.074336
      },
      "distanceMeters": 75226.5,
      "durationMs": 10100847,
      "drivingDurationMs": 9755113,
      "idlingDurationMs": 345733,
      "fuelConsumedMl": 9566,
      "fuelConsumedGallons": 2.527,
      "maxSpeedMph": 39.6,
      "averageSpeedMph": 16.7,
      "safetyEvents": []
    },
    {
      "id": "trip_42717522_20250428_002",
      "vehicleId": "42717522",
      "driverId": "20000001",
      "startMs": 1745846520000,
      "endMs": 1745848215835,
      "startAddress": "72791 White Courts Apt. 174",
      "endAddress": "445 Delgado Estate Suite 084",
      "startCoords": {
        "latitude": 39.753078,
        "longitude": -105.039243
      },
      "endCoords": {
        "latitude": 39.701153,
        "longitude": -104.959121
      },
      "distanceMeters": 8984.9,
      "durationMs": 1695836,
      "drivingDurationMs": 1440334,
      "idlingDurationMs": 255502,
      "fuelConsumedMl": 1143,
      "fuelConsumedGallons": 0.302,
      "maxSpeedMph": 30.9,
      "averageSpeedMph": 11.9,
      "safetyEvents": []
    },
    {
      "id": "trip_42717522_20250428_003",
      "vehicleId": "42717522",
      "driverId": "20000001",
      "startMs": 1745860920000,
      "endMs": 1745869385890,
      "startAddress": "992 Debbie Inlet",
      "endAddress": "683 Johnson Pike",
      "startCoords": {
        "latitude": 39.794755,
        "longitude": -105.010771
      },
      "endCoords": {
        "latitude": 39.715128,
        "longitude": -104.943044
      },
      "distanceMeters": 54443.1,
      "durationMs": 8465891,
      "drivingDurationMs": 6885587,
      "idlingDurationMs": 1580304,
      "fuelConsumedMl": 6924,
      "fuelConsumedGallons": 1.829,
      "maxSpeedMph": 32.1,
      "averageSpeedMph": 14.4,
      "safetyEvents": []
    },
    {
      "id": "trip_42717522_20250428_004",
      "vehicleId": "42717522",
      "driverId": "20000001",
      "startMs": 1745841780000,
      "endMs": 1745849340252,
      "startAddress": "964 Snyder Squares Apt. 654",
      "endAddress": "697 Wilkinson Cove Apt. 808",
      "startCoords": {
        "latitude": 39.786002,
        "longitude": -104.939447
      },
      "endCoords": {
        "latitude": 39.768726,
        "longitude": -105.084096
      },
      "distanceMeters": 57869.1,
      "durationMs": 7560252,
      "drivingDurationMs": 6645242,
      "idlingDurationMs": 915011,
      "fuelConsumedMl": 7359,
      "fuelConsumedGallons": 1.944,
      "maxSpeedMph": 30.7,
      "averageSpeedMph": 17.1,
      "safetyEvents": []
    },
    {
      "id": "trip_42717522_20250429_001",
      "vehicleId": "42717522",
      "driverId": "20000002",
      "startMs": 1745939160000,
      "endMs": 1745947140367,
      "startAddress": "00471 Stephanie Station",
      "endAddress": "951 Caitlin Island Apt. 248",
      "startCoords": {
        "latitude": 39.693769,
        "longitude": -105.021829
      },
      "endCoords": {
        "latitude": 39.694615,
        "longitude": -105.032726
      },
      "distanceMeters": 46396.5,
      "durationMs": 7980368,
      "drivingDurationMs": 6914933,
      "idlingDurationMs": 1065435,
      "fuelConsumedMl": 5898,
      "fuelConsumedGallons": 1.558,
      "maxSpeedMph": 65.5,
      "averageSpeedMph": 13.0,
      "safetyEvents": [
        {
          "type": "speeding",
          "startMs": 1745947020000,
          "maxSpeedMph": 65.5
        }
      ]
    },
    {
      "id": "trip_42717522_20250429_002",
      "vehicleId": "42717522",
      "driverId": "20000002",
      "startMs": 1745925720000,
      "endMs": 1745931179469,
      "startAddress": "23169 Anthony Point",
      "endAddress": "7645 Kenneth Greens Apt. 084",
      "startCoords": {
        "latitude": 39.764776,
        "longitude": -105.034023
      },
      "endCoords": {
        "latitude": 39.765566,
        "longitude": -104.9808
      },
      "distanceMeters": 31463.3,
      "durationMs": 5459470,
      "drivingDurationMs": 5164759,
      "idlingDurationMs": 294711,
      "fuelConsumedMl": 4001,
      "fuelConsumedGallons": 1.057,
      "maxSpeedMph": 65.2,
      "averageSpeedMph": 12.9,
      "safetyEvents": [
        {
          "type": "speeding",
          "startMs": 1745927640000,
          "maxSpeedMph": 65.2
        }
      ]
    },
    {
      "id": "trip_42717522_20250429_003",
      "vehicleId": "42717522",
      "driverId": "20000002",
      "startMs": 1745914500000,
      "endMs": 1745918034543,
      "startAddress": "3343 Robert Ville Apt. 376",
      "endAddress": "3643 Barbara Dale",
      "startCoords": {
        "latitude": 39.762541,
        "longitude": -104.997996
      },
      "endCoords": {
        "latitude": 39.794662,
        "longitude": -104.925859
      },
      "distanceMeters": 16992.8,
      "durationMs": 3534543,
      "drivingDurationMs": 3286301,
      "idlingDurationMs": 248243,
      "fuelConsumedMl": 2161,
      "fuelConsumedGallons": 0.571,
      "maxSpeedMph": 66.1,
      "averageSpeedMph": 10.8,
      "safetyEvents": [
        {
          "type": "speeding",
          "startMs": 1745917440000,
          "maxSpeedMph": 66.1
        }
      ]
    },
    {
      "id": "trip_42717522_20250429_004",
      "vehicleId": "42717522",
      "driverId": "20000002",
      "startMs": 1745944140000,
      "endMs": 1745957140664,
      "startAddress": "88375 Perry Valleys",
      "endAddress": "1103 Summer Springs",
      "startCoords": {
        "latitude": 39.767141,
        "longitude": -104.979706
      },
      "endCoords": {
        "latitude": 39.789752,
        "longitude": -104.980873
      },
      "distanceMeters": 63656.5,
      "durationMs": 13000665,
      "drivingDurationMs": 12424143,
      "idlingDurationMs": 576522,
      "fuelConsumedMl": 8093,
      "fuelConsumedGallons": 2.138,
      "maxSpeedMph": 31.4,
      "averageSpeedMph": 11.0,
      "safetyEvents": []
    },
    {
      "id": "trip_42717522_20250430_001",
      "vehicleId": "42717522",
      "driverId": "20000001",
      "startMs": 1746009180000,
      "endMs": 1746022400468,
      "startAddress": "57830 Kyle Mills",
      "endAddress": "33952 Graham Villages Suite 011",
      "startCoords": {
        "latitude": 39.827581,
        "longitude": -104.918481
      },
      "endCoords": {
        "latitude": 39.781425,
        "longitude": -105.05403
      },
      "distanceMeters": 83905.1,
      "durationMs": 13220469,
      "drivingDurationMs": 12875205,
      "idlingDurationMs": 345264,
      "fuelConsumedMl": 10667,
      "fuelConsumedGallons": 2.818,
      "maxSpeedMph": 70.5,
      "averageSpeedMph": 14.2,
      "safetyEvents": [
        {
          "type": "speeding",
          "startMs": 1746016740000,
          "maxSpeedMph": 70.5
        }
      ]
    },
    {
      "id": "trip_42717522_20250430_002",
      "vehicleId": "42717522",
      "driverId": "20000001",
      "startMs": 1745997240000,
      "endMs": 1746003485186,
      "startAddress": "232 Kyle Run Suite 069",
      "endAddress": "7854 Rodriguez Junction",
      "startCoords": {
        "latitude": 39.768031,
        "longitude": -104.915831
      },
      "endCoords": {
        "latitude": 39.774998,
        "longitude": -104.984277
      },
      "distanceMeters": 38102.3,
      "durationMs": 6245186,
      "drivingDurationMs": 6033596,
      "idlingDurationMs": 211590,
      "fuelConsumedMl": 4845,
      "fuelConsumedGallons": 1.28,
      "maxSpeedMph": 58.0,
      "averageSpeedMph": 13.6,
      "safetyEvents": []
    },
    {
      "id": "trip_42717522_20250430_003",
      "vehicleId": "42717522",
      "driverId": "20000001",
      "startMs": 1745993160000,
      "endMs": 1746009336734,
      "startAddress": "7687 Natalie Track",
      "endAddress": "0578 Jesse Passage Apt. 078",
      "startCoords": {
        "latitude": 39.715275,
        "longitude": -105.080843
      },
      "endCoords": {
        "latitude": 39.78201,
        "longitude": -105.063038
      },
      "distanceMeters": 73844.5,
      "durationMs": 16176734,
      "drivingDurationMs": 14059603,
      "idlingDurationMs": 2117131,
      "fuelConsumedMl": 9388,
      "fuelConsumedGallons": 2.48,
      "maxSpeedMph": 63.4,
      "averageSpeedMph": 10.2,
      "safetyEvents": []
    },
    {
      "id": "trip_42717522_20250430_004",
      "vehicleId": "42717522",
      "driverId": "20000001",
      "startMs": 1745998740000,
      "endMs": 1746011426407,
      "startAddress": "40794 Morgan Radial",
      "endAddress": "31907 Maria Pines",
      "startCoords": {
        "latitude": 39.774814,
        "longitude": -104.96852
      },
      "endCoords": {
        "latitude": 39.780382,
        "longitude": -104.990797
      },
      "distanceMeters": 65383.9,
      "durationMs": 12686407,
      "drivingDurationMs": 11248672,
      "idlingDurationMs": 1437735,
      "fuelConsumedMl": 8313,
      "fuelConsumedGallons": 2.196,
      "maxSpeedMph": 28.0,
      "averageSpeedMph": 11.5,
      "safetyEvents": []
    }
  ]
}