{
  "vehicleId": "44865715",
  "vehicleName": "ABQ-VAN-01",
  "month": "2025_04",
  "pagination": {
    "endCursor": "trip_44865715_20250430_17033",
    "hasNextPage": false
  },
  "trips": [
    {
      "id": "trip_44865715_20250401_12752",
      "vehicleId": "44865715",
      "driverId": "20000046",
      "startMs": 1743474665000,
      "endMs": 1743476825000,
      "startAddress": "1208 Franco Brooks Apt. 913",
      "endAddress": "4094 Wendy Forest Suite 085",
      "startCoords": {
        "latitude": 35.14378,
        "longitude": -106.715923
      },
      "endCoords": {
        "latitude": 35.124101,
        "longitude": -106.718744
      },
      "distanceMeters": 13601.9,
      "durationMs": 2160000,
      "drivingDurationMs": 1810093,
      "idlingDurationMs": 349907,
      "fuelConsumedMl": 1730,
      "fuelConsumedGallons": 0.457,
      "maxSpeedMph": 27.3,
      "averageSpeedMph": 14.1,
      "safetyEvents": []
    },
    {
      "id": "trip_44865715_20250401_12812",
      "vehicleId": "44865715",
      "driverId": "20000045",
      "startMs": 1743507793000,
      "endMs": 1743510073000,
      "startAddress": "033 Martinez Greens Apt. 358",
      "endAddress": "7544 Douglas Trail Apt. 323",
      "startCoords": {
        "latitude": 35.043539,
        "longitude": -106.621289
      },
      "endCoords": {
        "latitude": 35.072914,
        "longitude": -106.693602
      },
      "distanceMeters": 14866.1,
      "durationMs": 2280000,
      "drivingDurationMs": 1960046,
      "idlingDurationMs": 319954,
      "fuelConsumedMl": 1889,
      "fuelConsumedGallons": 0.499,
      "maxSpeedMph": 39.2,
      "averageSpeedMph": 14.6,
      "safetyEvents": []
    },
    {
      "id": "trip_44865715_20250401_12868",
      "vehicleId": "44865715",
      "driverId": "20000044",
      "startMs": 1743537588000,
      "endMs": 1743552580000,
      "startAddress": "12178 Adam Crossroad",
      "endAddress": "006 John Flat",
      "startCoords": {
        "latitude": 35.172616,
        "longitude": -106.704707
      },
      "endCoords": {
        "latitude": 35.181697,
        "longitude": -106.68356
      },
      "distanceMeters": 80244.1,
      "durationMs": 14992000,
      "drivingDurationMs": 12365711,
      "idlingDurationMs": 2626289,
      "fuelConsumedMl": 10202,
      "fuelConsumedGallons": 2.695,
      "maxSpeedMph": 29.9,
      "averageSpeedMph": 12.0,
      "safetyEvents": []
    },
    {
      "id": "trip_44865715_20250402_12931",
      "vehicleId": "44865715",
      "driverId": "20000045",
      "startMs": 1743573891000,
      "endMs": 1743576256000,
      "startAddress": "8507 Tyler Field",
      "endAddress": "165 Patrick Knolls Suite 541",
      "startCoords": {
        "latitude": 35.128669,
        "longitude": -106.55042
      },
      "endCoords": {
        "latitude": 35.050961,
        "longitude": -106.680386
      },
      "distanceMeters": 15716.3,
      "durationMs": 2365000,
      "drivingDurationMs": 1914248,
      "idlingDurationMs": 450752,
      "fuelConsumedMl": 1999,
      "fuelConsumedGallons": 0.528,
      "maxSpeedMph": 36.7,
      "averageSpeedMph": 14.9,
      "safetyEvents": []
    },
    {
      "id": "trip_44865715_20250402_12977",
      "vehicleId": "44865715",
      "driverId": "20000045",
      "startMs": 1743598667000,
      "endMs": 1743600467000,
      "startAddress": "494 Moss Canyon",
      "endAddress": "368 Natalie Springs",
      "startCoords": {
        "latitude": 35.105245,
        "longitude": -106.647019
      },
      "endCoords": {
        "latitude": 35.050013,
        "longitude": -106.578235
      },
      "distanceMeters": 12761.2,
      "durationMs": 1800000,
      "drivingDurationMs": 1478480,
      "idlingDurationMs": 321520,
      "fuelConsumedMl": 1624,
      "fuelConsumedGallons": 0.429,
      "maxSpeedMph": 25.9,
      "averageSpeedMph": 15.9,
      "safetyEvents": []
    },
    {
      "id": "trip_44865715_20250402_13038",
      "vehicleId": "44865715",
      "driverId": "20000045",
      "startMs": 1743630859000,
      "endMs": 1743633079000,
      "startAddress": "9007 Brittney Inlet",
      "endAddress": "994 Hooper Dam",
      "startCoords": {
        "latitude": 35.09533,
        "longitude": -106.539497
      },
      "endCoords": {
        "latitude": 35.107203,
        "longitude": -106.549565
      },
      "distanceMeters": 10921.9,
      "durationMs": 2220000,
      "drivingDurationMs": 1768127,
      "idlingDurationMs": 451873,
      "fuelConsumedMl": 1389,
      "fuelConsumedGallons": 0.367,
      "maxSpeedMph": 38.3,
      "averageSpeedMph": 11.0,
      "safetyEvents": []
    },
    {
      "id": "trip_44865715_20250403_13086",
      "vehicleId": "44865715",
      "driverId": "20000044",
      "startMs": 1743664070000,
      "endMs": 1743675256000,
      "startAddress": "49094 Williams Loop",
      "endAddress": "007 Blair Union",
      "startCoords": {
        "latitude": 35.100835,
        "longitude": -106.60658
      },
      "endCoords": {
        "latitude": 35.130543,
        "longitude": -106.690489
      },
      "distanceMeters": 71620.0,
      "durationMs": 11186000,
      "drivingDurationMs": 9982561,
      "idlingDurationMs": 1203439,
      "fuelConsumedMl": 9108,
      "fuelConsumedGallons": 2.406,
      "maxSpeedMph": 33.5,
      "averageSpeedMph": 14.3,
      "safetyEvents": []
    },
    {
      "id": "trip_44865715_20250403_13135",
      "vehicleId": "44865715",
      "driverId": "20000046",
      "startMs": 1743687483000,
      "endMs": 1743695084000,
      "startAddress": "18570 Carroll Plaza Suite 538",
      "endAddress": "9669 Clements Lights Apt. 872",
      "startCoords": {
        "latitude": 35.141478,
        "longitude": -106.603765
      },
      "endCoords": {
        "latitude": 35.154383,
        "longitude": -106.547526
      },
      "distanceMeters": 40041.0,
      "durationMs": 7601000,
      "drivingDurationMs": 5971692,
      "idlingDurationMs": 1629308,
      "fuelConsumedMl": 5091,
      "fuelConsumedGallons": 1.345,
      "maxSpeedMph": 34.4,
      "averageSpeedMph": 11.8,
      "safetyEvents": []
    },
    {
      "id": "trip_44865715_20250403_13175",
      "vehicleId": "44865715",
      "driverId": "20000044",
      "startMs": 1743707806000,
      "endMs": 1743718254000,
      "startAddress": "4207 Campbell Branch",
      "endAddress": "5794 Kristina Trail",
      "startCoords": {
        "latitude": 35.151012,
        "longitude": -106.60337
      },
      "endCoords": {
        "latitude": 35.158216,
        "longitude": -106.602568
      },
      "distanceMeters": 69743.9,
      "durationMs": 10448000,
      "drivingDurationMs": 9154863,
      "idlingDurationMs": 1293137,
      "fuelConsumedMl": 8869,
      "fuelConsumedGallons": 2.343,
      "maxSpeedMph": 32.5,
      "averageSpeedMph": 14.9,
      "safetyEvents": []
    },
    {
      "id": "trip_44865715_20250404_13239",
      "vehicleId": "44865715",
      "driverId": "20000045",
      "startMs": 1743742487000,
      "endMs": 1743749574000,
      "startAddress": "091 Emily Ville",
      "endAddress": "38466 Walton Ways",
      "startCoords": {
        "latitude": 35.081322,
        "longitude": -106.613488
      },
      "endCoords": {
        "latitude": 35.16058,
        "longitude": -106.611935
      },
      "distanceMeters": 42709.5,
      "durationMs": 7087000,
      "drivingDurationMs": 6001088,
      "idlingDurationMs": 1085912,
      "fuelConsumedMl": 5432,
      "fuelConsumedGallons": 1.435,
      "maxSpeedMph": 37.7,
      "averageSpeedMph": 13.5,
      "safetyEvents": []
    },
    {
      "id": "trip_44865715_20250404_13273",
      "vehicleId": "44865715",
      "driverId": "20000044",
      "startMs": 1743761324000,
      "endMs": 1743763484000,
      "startAddress": "718 Doyle Circle Suite 064",
      "endAddress": "023 Roberts Lane Apt. 510",
      "startCoords": {
        "latitude": 35.073604,
        "longitude": -106.537494
      },
      "endCoords": {
        "latitude": 35.059656,
        "longitude": -106.608136
      },
      "distanceMeters": 13214.6,
      "durationMs": 2160000,
      "drivingDurationMs": 1899239,
      "idlingDurationMs": 260761,
      "fuelConsumedMl": 1681,
      "fuelConsumedGallons": 0.444,
      "maxSpeedMph": 33.5,
      "averageSpeedMph": 13.7,
      "safetyEvents": []
    },
    {
      "id": "trip_44865715_20250404_13316",
      "vehicleId": "44865715",
      "driverId": "20000044",
      "startMs": 1743780120000,
      "endMs": 1743782460000,
      "startAddress": "54425 Stephen Hill Suite 261",
      "endAddress": "782 John Lock",
      "startCoords": {
        "latitude": 35.038523,
        "longitude": -106.555455
      },
      "endCoords": {
        "latitude": 35.139726,
        "longitude": -106.646038
      },
      "distanceMeters": 17201.8,
      "durationMs": 2340000,
      "drivingDurationMs": 1954847,
      "idlingDurationMs": 385153,
      "fuelConsumedMl": 2188,
      "fuelConsumedGallons": 0.578,
      "maxSpeedMph": 32.8,
      "averageSpeedMph": 16.4,
      "safetyEvents": []
    },
    {
      "id": "trip_44865715_20250404_13363",
      "vehicleId": "44865715",
      "driverId": "20000045",
      "startMs": 1743806124000,
      "endMs": 1743811749000,
      "startAddress": "704 Wolfe Burg",
      "endAddress": "518 Jeanette Highway Suite 066",
      "startCoords": {
        "latitude": 35.128696,
        "longitude": -106.544478
      },
      "endCoords": {
        "latitude": 35.141109,
        "longitude": -106.665433
      },
      "distanceMeters": 26019.9,
      "durationMs": 5625000,
      "drivingDurationMs": 4489827,
      "idlingDurationMs": 1135173,
      "fuelConsumedMl": 3308,
      "fuelConsumedGallons": 0.874,
      "maxSpeedMph": 30.8,
      "averageSpeedMph": 10.3,
      "safetyEvents": []
    },
    {
      "id": "trip_44865715_20250405_13417",
      "vehicleId": "44865715",
      "driverId": "20000044",
      "startMs": 1743838570000,
      "endMs": 1743845865000,
      "startAddress": "02064 Alexander Isle",
      "endAddress": "97261 Michele Ramp Suite 606",
      "startCoords": {
        "latitude": 35.105473,
        "longitude": -106.640378
      },
      "endCoords": {
        "latitude": 35.154909,
        "longitude": -106.619258
      },
      "distanceMeters": 39819.9,
      "durationMs": 7295000,
      "drivingDurationMs": 5920693,
      "idlingDurationMs": 1374307,
      "fuelConsumedMl": 5061,
      "fuelConsumedGallons": 1.337,
      "maxSpeedMph": 28.2,
      "averageSpeedMph": 12.2,
      "safetyEvents": []
    },
    {
      "id": "trip_44865715_20250405_13473",
      "vehicleId": "44865715",
      "driverId": "20000046",
      "startMs": 1743865157000,
      "endMs": 1743878080000,
      "startAddress": "901 Matthew Alley",
      "endAddress": "0693 Harris Freeway",
      "startCoords": {
        "latitude": 35.109232,
        "longitude": -106.683701
      },
      "endCoords": {
        "latitude": 35.114498,
        "longitude": -106.565498
      },
      "distanceMeters": 76895.4,
      "durationMs": 12923000,
      "drivingDurationMs": 10877144,
      "idlingDurationMs": 2045856,
      "fuelConsumedMl": 9778,
      "fuelConsumedGallons": 2.583,
      "maxSpeedMph": 35.3,
      "averageSpeedMph": 13.3,
      "safetyEvents": []
    },
    {
      "id": "trip_44865715_20250405_13520",
      "vehicleId": "44865715",
      "driverId": "20000044",
      "startMs": 1743890406000,
      "endMs": 1743892266000,
      "startAddress": "56937 Laurie Divide Apt. 027",
      "endAddress": "904 White Motorway",
      "startCoords": {
        "latitude": 35.062025,
        "longitude": -106.575133
      },
      "endCoords": {
        "latitude": 35.130556,
        "longitude": -106.691965
      },
      "distanceMeters": 8424.3,
      "durationMs": 1860000,
      "drivingDurationMs": 1409169,
      "idlingDurationMs": 450831,
      "fuelConsumedMl": 1071,
      "fuelConsumedGallons": 0.283,
      "maxSpeedMph": 30.2,
      "averageSpeedMph": 10.1,
      "safetyEvents": []
    },
    {
      "id": "trip_44865715_20250406_13555",
      "vehicleId": "44865715",
      "driverId": "20000045",
      "startMs": 1743919916000,
      "endMs": 1743921896000,
      "startAddress": "81459 Timothy Stream",
      "endAddress": "9243 Julie Parkways",
      "startCoords": {
        "latitude": 35.119912,
        "longitude": -106.657454
      },
      "endCoords": {
        "latitude": 35.088739,
        "longitude": -106.651182
      },
      "distanceMeters": 9269.8,
      "durationMs": 1980000,
      "drivingDurationMs": 1555857,
      "idlingDurationMs": 424143,
      "fuelConsumedMl": 1177,
      "fuelConsumedGallons": 0.311,
      "maxSpeedMph": 37.7,
      "averageSpeedMph": 10.5,
      "safetyEvents": []
    },
    {
      "id": "trip_44865715_20250406_13590",
      "vehicleId": "44865715",
      "driverId": "20000045",
      "startMs": 1743947762000,
      "endMs": 1743949742000,
      "startAddress": "12309 Anthony Spur Apt. 611",
      "endAddress": "947 Walker Burg",
      "startCoords": {
        "latitude": 35.151013,
        "longitude": -106.67724
      },
      "endCoords": {
        "latitude": 35.081292,
        "longitude": -106.635244
      },
      "distanceMeters": 11558.7,
      "durationMs": 1980000,
      "drivingDurationMs": 1507969,
      "idlingDurationMs": 472031,
      "fuelConsumedMl": 1469,
      "fuelConsumedGallons": 0.388,
      "maxSpeedMph": 34.2,
      "averageSpeedMph": 13.1,
      "safetyEvents": []
    },
    {
      "id": "trip_44865715_20250407_13627",
      "vehicleId": "44865715",
      "driverId": "20000044",
      "startMs": 1743991527000,
      "endMs": 1743993267000,
      "startAddress": "999 Nelson Brooks Suite 115",
      "endAddress": "7375 Lawson Oval Apt. 793",
      "startCoords": {
        "latitude": 35.080262,
        "longitude": -106.538536
      },
      "endCoords": {
        "latitude": 35.136107,
        "longitude": -106.701833
      },
      "distanceMeters": 9026.3,
      "durationMs": 1740000,
      "drivingDurationMs": 1323475,
      "idlingDurationMs": 416525,
      "fuelConsumedMl": 1147,
      "fuelConsumedGallons": 0.303,
      "maxSpeedMph": 32.4,
      "averageSpeedMph": 11.6,
      "safetyEvents": []
    },
    {
      "id": "trip_44865715_20250407_13679",
      "vehicleId": "44865715",
      "driverId": "20000046",
      "startMs": 1744030336000,
      "endMs": 1744032496000,
      "startAddress": "6531 Whitney Glen",
      "endAddress": "4164 Kelly Creek",
      "startCoords": {
        "latitude": 35.150068,
        "longitude": -106.678635
      },
      "endCoords": {
        "latitude": 35.084784,
        "longitude": -106.610208
      },
      "distanceMeters": 14610.8,
      "durationMs": 2160000,
      "drivingDurationMs": 1658744,
      "idlingDurationMs": 501256,
      "fuelConsumedMl": 1859,
      "fuelConsumedGallons": 0.491,
      "maxSpeedMph": 36.2,
      "averageSpeedMph": 15.1,
      "safetyEvents": []
    },
    {
      "id": "trip_44865715_20250407_13741",
      "vehicleId": "44865715",
      "driverId": "20000045",
      "startMs": 1744056902000,
      "endMs": 1744066897000,
      "startAddress": "5584 Audrey Well",
      "endAddress": "480 Gary Crossroad Apt. 814",
      "startCoords": {
        "latitude": 35.180716,
        "longitude": -106.551443
      },
      "endCoords": {
        "latitude": 35.114071,
        "longitude": -106.62865
      },
      "distanceMeters": 64071.2,
      "durationMs": 9995000,
      "drivingDurationMs": 7711040,
      "idlingDurationMs": 2283960,
      "fuelConsumedMl": 8146,
      "fuelConsumedGallons": 2.152,
      "maxSpeedMph": 26.1,
      "averageSpeedMph": 14.3,
      "safetyEvents": []
    },
    {
      "id": "trip_44865715_20250408_13832",
      "vehicleId": "44865715",
      "driverId": "20000046",
      "startMs": 1744111120000,
      "endMs": 1744123909000,
      "startAddress": "9777 Horne Crescent",
      "endAddress": "62666 Victoria Trail",
      "startCoords": {
        "latitude": 35.042189,
        "longitude": -106.699824
      },
      "endCoords": {
        "latitude": 35.077849,
        "longitude": -106.537961
      },
      "distanceMeters": 67335.2,
      "durationMs": 12789000,
      "drivingDurationMs": 11208802,
      "idlingDurationMs": 1580198,
      "fuelConsumedMl": 8563,
      "fuelConsumedGallons": 2.262,
      "maxSpeedMph": 26.4,
      "averageSpeedMph": 11.8,
      "safetyEvents": []
    },
    {
      "id": "trip_44865715_20250408_13880",
      "vehicleId": "44865715",
      "driverId": "20000044",
      "startMs": 1744137497000,
      "endMs": 1744144206000,
      "startAddress": "576 Charles Pine",
      "endAddress": "49662 Christopher Centers",
      "startCoords": {
        "latitude": 35.041044,
        "longitude": -106.719952
      },
      "endCoords": {
        "latitude": 35.173504,
        "longitude": -106.701413
      },
      "distanceMeters": 50836.8,
      "durationMs": 6709000,
      "drivingDurationMs": 5872224,
      "idlingDurationMs": 836776,
      "fuelConsumedMl": 6462,
      "fuelConsumedGallons": 1.707,
      "maxSpeedMph": 34.0,
      "averageSpeedMph": 17.0,
      "safetyEvents": []
    },
    {
      "id": "trip_44865715_20250408_13914",
      "vehicleId": "44865715",
      "driverId": "20000044",
      "startMs": 1744156014000,
      "endMs": 1744165836000,
      "startAddress": "9077 Joe Passage Suite 682",
      "endAddress": "465 Christopher Ways Suite 417",
      "startCoords": {
        "latitude": 35.095332,
        "longitude": -106.622651
      },
      "endCoords": {
        "latitude": 35.172239,
        "longitude": -106.70643
      },
      "distanceMeters": 42772.4,
      "durationMs": 9822000,
      "drivingDurationMs": 7462950,
      "idlingDurationMs": 2359050,
      "fuelConsumedMl": 5440,
      "fuelConsumedGallons": 1.437,
      "maxSpeedMph": 28.3,
      "averageSpeedMph": 9.7,
      "safetyEvents": []
    },
    {
      "id": "trip_44865715_20250409_13950",
      "vehicleId": "44865715",
      "driverId": "20000046",
      "startMs": 1744172876000,
      "endMs": 1744177053000,
      "startAddress": "3265 Armstrong Row Suite 049",
      "endAddress": "0303 Allen Trafficway",
      "startCoords": {
        "latitude": 35.048256,
        "longitude": -106.676181
      },
      "endCoords": {
        "latitude": 35.092378,
        "longitude": -106.688332
      },
      "distanceMeters": 17833.1,
      "durationMs": 4177000,
      "drivingDurationMs": 3356100,
      "idlingDurationMs": 820900,
      "fuelConsumedMl": 2267,
      "fuelConsumedGallons": 0.599,
      "maxSpeedMph": 26.9,
      "averageSpeedMph": 9.6,
      "safetyEvents": []
    },
    {
      "id": "trip_44865715_20250409_14001",
      "vehicleId": "44865715",
      "driverId": "20000045",
      "startMs": 1744196967000,
      "endMs": 1744200257000,
      "startAddress": "7476 Williams Ford",
      "endAddress": "6086 Hall Stravenue Apt. 440",
      "startCoords": {
        "latitude": 35.118747,
        "longitude": -106.541478
      },
      "endCoords": {
        "latitude": 35.087633,
        "longitude": -106.670963
      },
      "distanceMeters": 22276.2,
      "durationMs": 3290000,
      "drivingDurationMs": 2585077,
      "idlingDurationMs": 704923,
      "fuelConsumedMl": 2831,
      "fuelConsumedGallons": 0.748,
      "maxSpeedMph": 38.6,
      "averageSpeedMph": 15.1,
      "safetyEvents": []
    },
    {
      "id": "trip_44865715_20250409_14046",
      "vehicleId": "44865715",
      "driverId": "20000045",
      "startMs": 1744218465000,
      "endMs": 1744234497000,
      "startAddress": "15750 Kenneth Brooks",
      "endAddress": "1291 Johnson Pines",
      "startCoords": {
        "latitude": 35.177108,
        "longitude": -106.609159
      },
      "endCoords": {
        "latitude": 35.05178,
        "longitude": -106.590329
      },
      "distanceMeters": 71703.5,
      "durationMs": 16032000,
      "drivingDurationMs": 13031793,
      "idlingDurationMs": 3000207,
      "fuelConsumedMl": 9115,
      "fuelConsumedGallons": 2.408,
      "maxSpeedMph": 27.5,
      "averageSpeedMph": 10.0,
      "safetyEvents": []
    },
    {
      "id": "trip_44865715_20250410_14100",
      "vehicleId": "44865715",
      "driverId": "20000045",
      "startMs": 1744251667000,
      "endMs": 1744253287000,
      "startAddress": "108 Nicholas Meadows Apt. 656",
      "endAddress": "14984 Williams Crest",
      "startCoords": {
        "latitude": 35.061208,
        "longitude": -106.698939
      },
      "endCoords": {
        "latitude": 35.148072,
        "longitude": -106.587846
      },
      "distanceMeters": 8759.6,
      "durationMs": 1620000,
      "drivingDurationMs": 1235303,
      "idlingDurationMs": 384697,
      "fuelConsumedMl": 1113,
      "fuelConsumedGallons": 0.294,
      "maxSpeedMph": 38.3,
      "averageSpeedMph": 12.1,
      "safetyEvents": []
    },
    {
      "id": "trip_44865715_20250410_14140",
      "vehicleId": "44865715",
      "driverId": "20000045",
      "startMs": 1744278789000,
      "endMs": 1744296746000,
      "startAddress": "840 Flores Lakes",
      "endAddress": "465 Stanley View",
      "startCoords": {
        "latitude": 35.137103,
        "longitude": -106.553356
      },
      "endCoords": {
        "latitude": 35.131535,
        "longitude": -106.696648
      },
      "distanceMeters": 112289.5,
      "durationMs": 17957000,
      "drivingDurationMs": 14268082,
      "idlingDurationMs": 3688918,
      "fuelConsumedMl": 14279,
      "fuelConsumedGallons": 3.772,
      "maxSpeedMph": 30.7,
      "averageSpeedMph": 14.0,
      "safetyEvents": []
    },
    {
      "id": "trip_44865715_20250410_14185",
      "vehicleId": "44865715",
      "driverId": "20000045",
      "startMs": 1744300504000,
      "endMs": 1744302484000,
      "startAddress": "684 Barber Alley Apt. 127",
      "endAddress": "0492 Davis Island Apt. 921",
      "startCoords": {
        "latitude": 35.042535,
        "longitude": -106.577958
      },
      "endCoords": {
        "latitude": 35.113944,
        "longitude": -106.661437
      },
      "distanceMeters": 8857.9,
      "durationMs": 1980000,
      "drivingDurationMs": 1732223,
      "idlingDurationMs": 247777,
      "fuelConsumedMl": 1128,
      "fuelConsumedGallons": 0.298,
      "maxSpeedMph": 26.2,
      "averageSpeedMph": 10.0,
      "safetyEvents": []
    },
    {
      "id": "trip_44865715_20250410_14224",
      "vehicleId": "44865715",
      "driverId": "20000046",
      "startMs": 1744323270000,
      "endMs": 1744325730000,
      "startAddress": "2792 Hall Brooks Apt. 608",
      "endAddress": "32992 Anna Flats Apt. 217",
      "startCoords": {
        "latitude": 35.166171,
        "longitude": -106.618357
      },
      "endCoords": {
        "latitude": 35.10252,
        "longitude": -106.563847
      },
      "distanceMeters": 18635.6,
      "durationMs": 2460000,
      "drivingDurationMs": 2166790,
      "idlingDurationMs": 293210,
      "fuelConsumedMl": 2370,
      "fuelConsumedGallons": 0.626,
      "maxSpeedMph": 34.8,
      "averageSpeedMph": 16.9,
      "safetyEvents": []
    },
    {
      "id": "trip_44865715_20250411_14255",
      "vehicleId": "44865715",
      "driverId": "20000045",
      "startMs": 1744339097000,
      "endMs": 1744340897000,
      "startAddress": "151 Mclean Plain Suite 339",
      "endAddress": "47922 Elaine Tunnel Suite 758",
      "startCoords": {
        "latitude": 35.10501,
        "longitude": -106.685661
      },
      "endCoords": {
        "latitude": 35.03881,
        "longitude": -106.608836
      },
      "distanceMeters": 12515.6,
      "durationMs": 1800000,
      "drivingDurationMs": 1525433,
      "idlingDurationMs": 274567,
      "fuelConsumedMl": 1590,
      "fuelConsumedGallons": 0.42,
      "maxSpeedMph": 29.5,
      "averageSpeedMph": 15.6,
      "safetyEvents": []
    },
    {
      "id": "trip_44865715_20250411_14289",
      "vehicleId": "44865715",
      "driverId": "20000045",
      "startMs": 1744357522000,
      "endMs": 1744375741000,
      "startAddress": "24379 Sharon Vista",
      "endAddress": "0612 Dorothy Landing",
      "startCoords": {
        "latitude": 35.110814,
        "longitude": -106.650999
      },
      "endCoords": {
        "latitude": 35.174107,
        "longitude": -106.536483
      },
      "distanceMeters": 94700.0,
      "durationMs": 18219000,
      "drivingDurationMs": 15421793,
      "idlingDurationMs": 2797207,
      "fuelConsumedMl": 12041,
      "fuelConsumedGallons": 3.181,
      "maxSpeedMph": 33.8,
      "averageSpeedMph": 11.6,
      "safetyEvents": []
    },
    {
      "id": "trip_44865715_20250411_14360",
      "vehicleId": "44865715",
      "driverId": "20000044",
      "startMs": 1744393020000,
      "endMs": 1744399277000,
      "startAddress": "56517 Alyssa Motorway",
      "endAddress": "644 Hernandez Rue Apt. 483",
      "startCoords": {
        "latitude": 35.08258,
        "longitude": -106.572459
      },
      "endCoords": {
        "latitude": 35.116088,
        "longitude": -106.706588
      },
      "distanceMeters": 39190.1,
      "durationMs": 6257000,
      "drivingDurationMs": 5264930,
      "idlingDurationMs": 992070,
      "fuelConsumedMl": 4982,
      "fuelConsumedGallons": 1.316,
      "maxSpeedMph": 26.1,
      "averageSpeedMph": 14.0,
      "safetyEvents": []
    },
    {
      "id": "trip_44865715_20250412_14423",
      "vehicleId": "44865715",
      "driverId": "20000046",
      "startMs": 1744428912000,
      "endMs": 1744436835000,
      "startAddress": "12965 Jeffery Manor",
      "endAddress": "5293 Dyer Extension",
      "startCoords": {
        "latitude": 35.177039,
        "longitude": -106.632445
      },
      "endCoords": {
        "latitude": 35.104047,
        "longitude": -106.70303
      },
      "distanceMeters": 56822.3,
      "durationMs": 7923000,
      "drivingDurationMs": 6479560,
      "idlingDurationMs": 1443440,
      "fuelConsumedMl": 7226,
      "fuelConsumedGallons": 1.909,
      "maxSpeedMph": 25.9,
      "averageSpeedMph": 16.0,
      "safetyEvents": []
    },
    {
      "id": "trip_44865715_20250412_14478",
      "vehicleId": "44865715",
      "driverId": "20000045",
      "startMs": 1744459189000,
      "endMs": 1744460749000,
      "startAddress": "7705 Schmidt Oval Apt. 830",
      "endAddress": "78943 Amanda Crossing",
      "startCoords": {
        "latitude": 35.073377,
        "longitude": -106.610387
      },
      "endCoords": {
        "latitude": 35.053504,
        "longitude": -106.541859
      },
      "distanceMeters": 10922.6,
      "durationMs": 1560000,
      "drivingDurationMs": 1293835,
      "idlingDurationMs": 266165,
      "fuelConsumedMl": 1389,
      "fuelConsumedGallons": 0.367,
      "maxSpeedMph": 39.0,
      "averageSpeedMph": 15.7,
      "safetyEvents": []
    },
    {
      "id": "trip_44865715_20250412_14511",
      "vehicleId": "44865715",
      "driverId": "20000046",
      "startMs": 1744474500000,
      "endMs": 1744476060000,
      "startAddress": "851 Jennifer Extensions",
      "endAddress": "316 Justin Port",
      "startCoords": {
        "latitude": 35.038724,
        "longitude": -106.659273
      },
      "endCoords": {
        "latitude": 35.177535,
        "longitude": -106.650847
      },
      "distanceMeters": 10026.6,
      "durationMs": 1560000,
      "drivingDurationMs": 1250201,
      "idlingDurationMs": 309799,
      "fuelConsumedMl": 1276,
      "fuelConsumedGallons": 0.337,
      "maxSpeedMph": 29.0,
      "averageSpeedMph": 14.4,
      "safetyEvents": []
    },
    {
      "id": "trip_44865715_20250413_14554",
      "vehicleId": "44865715",
      "driverId": "20000046",
      "startMs": 1744503552000,
      "endMs": 1744505232000,
      "startAddress": "99410 Daniel Route Suite 415",
      "endAddress": "561 Robert Junctions",
      "startCoords": {
        "latitude": 35.062065,
        "longitude": -106.668714
      },
      "endCoords": {
        "latitude": 35.065212,
        "longitude": -106.701176
      },
      "distanceMeters": 10309.3,
      "durationMs": 1680000,
      "drivingDurationMs": 1484197,
      "idlingDurationMs": 195803,
      "fuelConsumedMl": 1310,
      "fuelConsumedGallons": 0.346,
      "maxSpeedMph": 29.8,
      "averageSpeedMph": 13.7,
      "safetyEvents": []
    },
    {
      "id": "trip_44865715_20250413_14610",
      "vehicleId": "44865715",
      "driverId": "20000045",
      "startMs": 1744555849000,
      "endMs": 1744557349000,
      "startAddress": "42407 Vanessa Wall",
      "endAddress": "8709 Diane Center Suite 018",
      "startCoords": {
        "latitude": 35.107126,
        "longitude": -106.601995
      },
      "endCoords": {
        "latitude": 35.091576,
        "longitude": -106.645488
      },
      "distanceMeters": 7042.9,
      "durationMs": 1500000,
      "drivingDurationMs": 1257493,
      "idlingDurationMs": 242507,
      "fuelConsumedMl": 897,
      "fuelConsumedGallons": 0.237,
      "maxSpeedMph": 26.3,
      "averageSpeedMph": 10.5,
      "safetyEvents": []
    },
    {
      "id": "trip_44865715_20250413_14647",
      "vehicleId": "44865715",
      "driverId": "20000045",
      "startMs": 1744583088000,
      "endMs": 1744585008000,
      "startAddress": "3509 Tim Extensions",
      "endAddress": "5215 Gutierrez Oval Suite 924",
      "startCoords": {
        "latitude": 35.174597,
        "longitude": -106.541037
      },
      "endCoords": {
        "latitude": 35.151201,
        "longitude": -106.643162
      },
      "distanceMeters": 10457.8,
      "durationMs": 1920000,
      "drivingDurationMs": 1497466,
      "idlingDurationMs": 422534,
      "fuelConsumedMl": 1329,
      "fuelConsumedGallons": 0.351,
      "maxSpeedMph": 32.2,
      "averageSpeedMph": 12.2,
      "safetyEvents": []
    },
    {
      "id": "trip_44865715_20250414_14685",
      "vehicleId": "44865715",
      "driverId": "20000046",
      "startMs": 1744623714000,
      "endMs": 1744626308000,
      "startAddress": "2709 Alyssa Well Apt. 911",
      "endAddress": "72627 Harris Rue Apt. 218",
      "startCoords": {
        "latitude": 35.071214,
        "longitude": -106.639944
      },
      "endCoords": {
        "latitude": 35.102476,
        "longitude": -106.609468
      },
      "distanceMeters": 12952.2,
      "durationMs": 2594000,
      "drivingDurationMs": 2058567,
      "idlingDurationMs": 535433,
      "fuelConsumedMl": 1647,
      "fuelConsumedGallons": 0.435,
      "maxSpeedMph": 28.6,
      "averageSpeedMph": 11.2,
      "safetyEvents": []
    },
    {
      "id": "trip_44865715_20250414_14716",
      "vehicleId": "44865715",
      "driverId": "20000045",
      "startMs": 1744640944000,
      "endMs": 1744644149000,
      "startAddress": "683 Jones Corner Apt. 340",
      "endAddress": "61448 Williams Plain Suite 165",
      "startCoords": {
        "latitude": 35.048283,
        "longitude": -106.710633
      },
      "endCoords": {
        "latitude": 35.085596,
        "longitude": -106.587865
      },
      "distanceMeters": 14567.6,
      "durationMs": 3205000,
      "drivingDurationMs": 2600762,
      "idlingDurationMs": 604238,
      "fuelConsumedMl": 1851,
      "fuelConsumedGallons": 0.489,
      "maxSpeedMph": 34.1,
      "averageSpeedMph": 10.2,
      "safetyEvents": []
    },
    {
      "id": "trip_44865715_20250414_14759",
      "vehicleId": "44865715",
      "driverId": "20000044",
      "startMs": 1744659694000,
      "endMs": 1744663578000,
      "startAddress": "642 Hernandez Turnpike",
      "endAddress": "95060 Keith Squares",
      "startCoords": {
        "latitude": 35.082734,
        "longitude": -106.559174
      },
      "endCoords": {
        "latitude": 35.170475,
        "longitude": -106.666928
      },
      "distanceMeters": 27010.8,
      "durationMs": 3884000,
      "drivingDurationMs": 3228542,
      "idlingDurationMs": 655458,
      "fuelConsumedMl": 3433,
      "fuelConsumedGallons": 0.907,
      "maxSpeedMph": 38.2,
      "averageSpeedMph": 15.6,
      "safetyEvents": []
    },
    {
      "id": "trip_44865715_20250415_14819",
      "vehicleId": "44865715",
      "driverId": "20000046",
      "startMs": 1744691405000,
      "endMs": 1744698725000,
      "startAddress": "365 Mitchell View Suite 043",
      "endAddress": "9006 Kevin Parks",
      "startCoords": {
        "latitude": 35.125625,
        "longitude": -106.658343
      },
      "endCoords": {
        "latitude": 35.12712,
        "longitude": -106.537135
      },
      "distanceMeters": 48128.9,
      "durationMs": 7320000,
      "drivingDurationMs": 5861736,
      "idlingDurationMs": 1458264,
      "fuelConsumedMl": 6121,
      "fuelConsumedGallons": 1.617,
      "maxSpeedMph": 26.9,
      "averageSpeedMph": 14.7,
      "safetyEvents": []
    },
    {
      "id": "trip_44865715_20250415_14895",
      "vehicleId": "44865715",
      "driverId": "20000046",
      "startMs": 1744733538000,
      "endMs": 1744743924000,
      "startAddress": "27712 Wilson Mews Suite 742",
      "endAddress": "7139 Kyle Ferry Suite 243",
      "startCoords": {
        "latitude": 35.181765,
        "longitude": -106.57137
      },
      "endCoords": {
        "latitude": 35.072866,
        "longitude": -106.540036
      },
      "distanceMeters": 71179.9,
      "durationMs": 10386000,
      "drivingDurationMs": 8826839,
      "idlingDurationMs": 1559161,
      "fuelConsumedMl": 9051,
      "fuelConsumedGallons": 2.391,
      "maxSpeedMph": 30.7,
      "averageSpeedMph": 15.3,
      "safetyEvents": []
    },
    {
      "id": "trip_44865715_20250415_14932",
      "vehicleId": "44865715",
      "driverId": "20000046",
      "startMs": 1744756511000,
      "endMs": 1744762463000,
      "startAddress": "97766 Matthew Springs Apt. 952",
      "endAddress": "26761 Breanna Overpass",
      "startCoords": {
        "latitude": 35.079133,
        "longitude": -106.595496
      },
      "endCoords": {
        "latitude": 35.080587,
        "longitude": -106.695263
      },
      "distanceMeters": 25786.0,
      "durationMs": 5952000,
      "drivingDurationMs": 4807869,
      "idlingDurationMs": 1144131,
      "fuelConsumedMl": 3278,
      "fuelConsumedGallons": 0.866,
      "maxSpeedMph": 31.4,
      "averageSpeedMph": 9.7,
      "safetyEvents": []
    },
    {
      "id": "trip_44865715_20250416_14964",
      "vehicleId": "44865715",
      "driverId": "20000046",
      "startMs": 1744777985000,
      "endMs": 1744793735000,
      "startAddress": "01279 Brian Club",
      "endAddress": "97006 Turner Locks",
      "startCoords": {
        "latitude": 35.133416,
        "longitude": -106.712828
      },
      "endCoords": {
        "latitude": 35.098146,
        "longitude": -106.645313
      },
      "distanceMeters": 82943.5,
      "durationMs": 15750000,
      "drivingDurationMs": 12872246,
      "idlingDurationMs": 2877754,
      "fuelConsumedMl": 10546,
      "fuelConsumedGallons": 2.786,
      "maxSpeedMph": 31.4,
      "averageSpeedMph": 11.8,
      "safetyEvents": []
    },
    {
      "id": "trip_44865715_20250416_15012",
      "vehicleId": "44865715",
      "driverId": "20000044",
      "startMs": 1744803940000,
      "endMs": 1744806640000,
      "startAddress": "642 James Creek Apt. 736",
      "endAddress": "205 Buchanan Neck",
      "startCoords": {
        "latitude": 35.071694,
        "longitude": -106.548104
      },
      "endCoords": {
        "latitude": 35.098112,
        "longitude": -106.604087
      },
      "distanceMeters": 11214.9,
      "durationMs": 2700000,
      "drivingDurationMs": 2051714,
      "idlingDurationMs": 648286,
      "fuelConsumedMl": 1427,
      "fuelConsumedGallons": 0.377,
      "maxSpeedMph": 27.7,
      "averageSpeedMph": 9.3,
      "safetyEvents": []
    },
    {
      "id": "trip_44865715_20250416_15049",
      "vehicleId": "44865715",
      "driverId": "20000046",
      "startMs": 1744821420000,
      "endMs": 1744826078000,
      "startAddress": "666 Cassidy Courts Apt. 981",
      "endAddress": "670 Ian Burgs Suite 431",
      "startCoords": {
        "latitude": 35.109075,
        "longitude": -106.610009
      },
      "endCoords": {
        "latitude": 35.132912,
        "longitude": -106.713944
      },
      "distanceMeters": 23547.8,
      "durationMs": 4658000,
      "drivingDurationMs": 3683081,
      "idlingDurationMs": 974919,
      "fuelConsumedMl": 2994,
      "fuelConsumedGallons": 0.791,
      "maxSpeedMph": 31.3,
      "averageSpeedMph": 11.3,
      "safetyEvents": []
    },
    {
      "id": "trip_44865715_20250417_15114",
      "vehicleId": "44865715",
      "driverId": "20000044",
      "startMs": 1744863154000,
      "endMs": 1744870996000,
      "startAddress": "251 Roberson Lodge Apt. 940",
      "endAddress": "5364 Robbins Locks",
      "startCoords": {
        "latitude": 35.097458,
        "longitude": -106.648112
      },
      "endCoords": {
        "latitude": 35.084984,
        "longitude": -106.567684
      },
      "distanceMeters": 45967.6,
      "durationMs": 7842000,
      "drivingDurationMs": 6475851,
      "idlingDurationMs": 1366149,
      "fuelConsumedMl": 5845,
      "fuelConsumedGallons": 1.544,
      "maxSpeedMph": 38.3,
      "averageSpeedMph": 13.1,
      "safetyEvents": []
    },
    {
      "id": "trip_44865715_20250417_15176",
      "vehicleId": "44865715",
      "driverId": "20000046",
      "startMs": 1744896252000,
      "endMs": 1744915196000,
      "startAddress": "3988 Kimberly Overpass Suite 001",
      "endAddress": "471 Church Meadows",
      "startCoords": {
        "latitude": 35.170376,
        "longitude": -106.623293
      },
      "endCoords": {
        "latitude": 35.05829,
        "longitude": -106.711091
      },
      "distanceMeters": 116198.0,
      "durationMs": 18944000,
      "drivingDurationMs": 14654081,
      "idlingDurationMs": 4289919,
      "fuelConsumedMl": 14774,
      "fuelConsumedGallons": 3.903,
      "maxSpeedMph": 37.6,
      "averageSpeedMph": 13.7,
      "safetyEvents": []
    },
    {
      "id": "trip_44865715_20250417_15226",
      "vehicleId": "44865715",
      "driverId": "20000044",
      "startMs": 1744925683000,
      "endMs": 1744927663000,
      "startAddress": "494 Debbie Forks Apt. 184",
      "endAddress": "6351 Smith Circles",
      "startCoords": {
        "latitude": 35.153447,
        "longitude": -106.624602
      },
      "endCoords": {
        "latitude": 35.089316,
        "longitude": -106.640715
      },
      "distanceMeters": 15004.9,
      "durationMs": 1980000,
      "drivingDurationMs": 1701677,
      "idlingDurationMs": 278323,
      "fuelConsumedMl": 1908,
      "fuelConsumedGallons": 0.504,
      "maxSpeedMph": 36.2,
      "averageSpeedMph": 17.0,
      "safetyEvents": []
    },
    {
      "id": "trip_44865715_20250418_15265",
      "vehicleId": "44865715",
      "driverId": "20000046",
      "startMs": 1744949485000,
      "endMs": 1744951465000,
      "startAddress": "248 Roger Grove Suite 840",
      "endAddress": "52827 Dawn Islands Suite 207",
      "startCoords": {
        "latitude": 35.14144,
        "longitude": -106.593403
      },
      "endCoords": {
        "latitude": 35.082545,
        "longitude": -106.601429
      },
      "distanceMeters": 8895.0,
      "durationMs": 1980000,
      "drivingDurationMs": 1693821,
      "idlingDurationMs": 286179,
      "fuelConsumedMl": 1132,
      "fuelConsumedGallons": 0.299,
      "maxSpeedMph": 28.1,
      "averageSpeedMph": 10.0,
      "safetyEvents": []
    },
    {
      "id": "trip_44865715_20250418_15311",
      "vehicleId": "44865715",
      "driverId": "20000044",
      "startMs": 1744978508000,
      "endMs": 1744989972000,
      "startAddress": "6464 David Path",
      "endAddress": "567 Brian Rapid",
      "startCoords": {
        "latitude": 35.16707,
        "longitude": -106.647841
      },
      "endCoords": {
        "latitude": 35.131268,
        "longitude": -106.599998
      },
      "distanceMeters": 72931.8,
      "durationMs": 11464000,
      "drivingDurationMs": 9194659,
      "idlingDurationMs": 2269341,
      "fuelConsumedMl": 9274,
      "fuelConsumedGallons": 2.45,
      "maxSpeedMph": 32.2,
      "averageSpeedMph": 14.2,
      "safetyEvents": []
    },
    {
      "id": "trip_44865715_20250418_15363",
      "vehicleId": "44865715",
      "driverId": "20000045",
      "startMs": 1745003344000,
      "endMs": 1745013581000,
      "startAddress": "408 Beard Throughway",
      "endAddress": "224 Richard Mount",
      "startCoords": {
        "latitude": 35.172604,
        "longitude": -106.6673
      },
      "endCoords": {
        "latitude": 35.087211,
        "longitude": -106.568705
      },
      "distanceMeters": 73355.3,
      "durationMs": 10237000,
      "drivingDurationMs": 8259730,
      "idlingDurationMs": 1977270,
      "fuelConsumedMl": 9327,
      "fuelConsumedGallons": 2.464,
      "maxSpeedMph": 37.8,
      "averageSpeedMph": 16.0,
      "safetyEvents": []
    },
    {
      "id": "trip_44865715_20250418_15396",
      "vehicleId": "44865715",
      "driverId": "20000046",
      "startMs": 1745020034000,
      "endMs": 1745021534000,
      "startAddress": "81640 Denise Radial",
      "endAddress": "569 Laura Causeway",
      "startCoords": {
        "latitude": 35.121985,
        "longitude": -106.572184
      },
      "endCoords": {
        "latitude": 35.093365,
        "longitude": -106.693345
      },
      "distanceMeters": 8590.4,
      "durationMs": 1500000,
      "drivingDurationMs": 1279423,
      "idlingDurationMs": 220577,
      "fuelConsumedMl": 1094,
      "fuelConsumedGallons": 0.289,
      "maxSpeedMph": 32.1,
      "averageSpeedMph": 12.8,
      "safetyEvents": []
    },
    {
      "id": "trip_44865715_20250419_15436",
      "vehicleId": "44865715",
      "driverId": "20000045",
      "startMs": 1745046254000,
      "endMs": 1745048174000,
      "startAddress": "249 Michael Extension",
      "endAddress": "4408 Sabrina Square",
      "startCoords": {
        "latitude": 35.055348,
        "longitude": -106.567439
      },
      "endCoords": {
        "latitude": 35.168654,
        "longitude": -106.71388
      },
      "distanceMeters": 10074.2,
      "durationMs": 1920000,
      "drivingDurationMs": 1519017,
      "idlingDurationMs": 400983,
      "fuelConsumedMl": 1279,
      "fuelConsumedGallons": 0.338,
      "maxSpeedMph": 28.0,
      "averageSpeedMph": 11.7,
      "safetyEvents": []
    },
    {
      "id": "trip_44865715_20250419_15500",
      "vehicleId": "44865715",
      "driverId": "20000044",
      "startMs": 1745081340000,
      "endMs": 1745086363000,
      "startAddress": "280 Hanna Mission Suite 516",
      "endAddress": "32915 Williams Motorway",
      "startCoords": {
        "latitude": 35.133857,
        "longitude": -106.569572
      },
      "endCoords": {
        "latitude": 35.118928,
        "longitude": -106.713115
      },
      "distanceMeters": 23799.7,
      "durationMs": 5023000,
      "drivingDurationMs": 4427557,
      "idlingDurationMs": 595443,
      "fuelConsumedMl": 3025,
      "fuelConsumedGallons": 0.799,
      "maxSpeedMph": 37.2,
      "averageSpeedMph": 10.6,
      "safetyEvents": []
    },
    {
      "id": "trip_44865715_20250420_15542",
      "vehicleId": "44865715",
      "driverId": "20000045",
      "startMs": 1745109172000,
      "endMs": 1745113573000,
      "startAddress": "8231 Natalie Brooks",
      "endAddress": "27798 Debra Mission Apt. 060",
      "startCoords": {
        "latitude": 35.152659,
        "longitude": -106.597814
      },
      "endCoords": {
        "latitude": 35.155366,
        "longitude": -106.558532
      },
      "distanceMeters": 20456.3,
      "durationMs": 4401000,
      "drivingDurationMs": 3768870,
      "idlingDurationMs": 632130,
      "fuelConsumedMl": 2601,
      "fuelConsumedGallons": 0.687,
      "maxSpeedMph": 37.4,
      "averageSpeedMph": 10.4,
      "safetyEvents": []
    },
    {
      "id": "trip_44865715_20250420_15595",
      "vehicleId": "44865715",
      "driverId": "20000044",
      "startMs": 1745152657000,
      "endMs": 1745154757000,
      "startAddress": "39249 Walker Radial",
      "endAddress": "5710 Sarah Park",
      "startCoords": {
        "latitude": 35.14861,
        "longitude": -106.701388
      },
      "endCoords": {
        "latitude": 35.046203,
        "longitude": -106.629564
      },
      "distanceMeters": 14511.6,
      "durationMs": 2100000,
      "drivingDurationMs": 1701977,
      "idlingDurationMs": 398023,
      "fuelConsumedMl": 1843,
      "fuelConsumedGallons": 0.487,
      "maxSpeedMph": 36.1,
      "averageSpeedMph": 15.5,
      "safetyEvents": []
    },
    {
      "id": "trip_44865715_20250420_15610",
      "vehicleId": "44865715",
      "driverId": "20000044",
      "startMs": 1745165640000,
      "endMs": 1745167680000,
      "startAddress": "59682 Walton Highway",
      "endAddress": "3258 Tony Station Suite 706",
      "startCoords": {
        "latitude": 35.116495,
        "longitude": -106.604353
      },
      "endCoords": {
        "latitude": 35.138985,
        "longitude": -106.597883
      },
      "distanceMeters": 10604.7,
      "durationMs": 2040000,
      "drivingDurationMs": 1598613,
      "idlingDurationMs": 441387,
      "fuelConsumedMl": 1348,
      "fuelConsumedGallons": 0.356,
      "maxSpeedMph": 36.1,
      "averageSpeedMph": 11.6,
      "safetyEvents": []
    },
    {
      "id": "trip_44865715_20250421_15661",
      "vehicleId": "44865715",
      "driverId": "20000045",
      "startMs": 1745222775000,
      "endMs": 1745237406000,
      "startAddress": "839 April Land",
      "endAddress": "2461 Hardy Stravenue Suite 289",
      "startCoords": {
        "latitude": 35.152059,
        "longitude": -106.548292
      },
      "endCoords": {
        "latitude": 35.082605,
        "longitude": -106.707693
      },
      "distanceMeters": 69153.3,
      "durationMs": 14631000,
      "drivingDurationMs": 11190146,
      "idlingDurationMs": 3440854,
      "fuelConsumedMl": 8794,
      "fuelConsumedGallons": 2.323,
      "maxSpeedMph": 34.5,
      "averageSpeedMph": 10.6,
      "safetyEvents": []
    },
    {
      "id": "trip_44865715_20250421_15718",
      "vehicleId": "44865715",
      "driverId": "20000045",
      "startMs": 1745248936000,
      "endMs": 1745259163000,
      "startAddress": "80109 Jeffrey Haven Apt. 466",
      "endAddress": "208 Tammy Green Apt. 497",
      "startCoords": {
        "latitude": 35.092879,
        "longitude": -106.560211
      },
      "endCoords": {
        "latitude": 35.073862,
        "longitude": -106.601966
      },
      "distanceMeters": 57657.5,
      "durationMs": 10227000,
      "drivingDurationMs": 8062382,
      "idlingDurationMs": 2164618,
      "fuelConsumedMl": 7332,
      "fuelConsumedGallons": 1.937,
      "maxSpeedMph": 33.1,
      "averageSpeedMph": 12.6,
      "safetyEvents": []
    },
    {
      "id": "trip_44865715_20250421_15747",
      "vehicleId": "44865715",
      "driverId": "20000046",
      "startMs": 1745263751000,
      "endMs": 1745265611000,
      "startAddress": "9010 Elliott Extension Apt. 334",
      "endAddress": "03982 Amy Wells",
      "startCoords": {
        "latitude": 35.04178,
        "longitude": -106.539582
      },
      "endCoords": {
        "latitude": 35.083238,
        "longitude": -106.536832
      },
      "distanceMeters": 8873.2,
      "durationMs": 1860000,
      "drivingDurationMs": 1405449,
      "idlingDurationMs": 454551,
      "fuelConsumedMl": 1128,
      "fuelConsumedGallons": 0.298,
      "maxSpeedMph": 29.5,
      "averageSpeedMph": 10.7,
      "safetyEvents": []
    },
    {
      "id": "trip_44865715_20250421_15772",
      "vehicleId": "44865715",
      "driverId": "20000045",
      "startMs": 1745277366000,
      "endMs": 1745280952000,
      "startAddress": "93792 Smith Spur Suite 306",
      "endAddress": "484 Daniel Mission",
      "startCoords": {
        "latitude": 35.174829,
        "longitude": -106.72019
      },
      "endCoords": {
        "latitude": 35.072573,
        "longitude": -106.663169
      },
      "distanceMeters": 22182.4,
      "durationMs": 3586000,
      "drivingDurationMs": 2722585,
      "idlingDurationMs": 863415,
      "fuelConsumedMl": 2820,
      "fuelConsumedGallons": 0.745,
      "maxSpeedMph": 29.3,
      "averageSpeedMph": 13.8,
      "safetyEvents": []
    },
    {
      "id": "trip_44865715_20250422_15813",
      "vehicleId": "44865715",
      "driverId": "20000044",
      "startMs": 1745298160000,
      "endMs": 1745299540000,
      "startAddress": "7601 Walker Drive",
      "endAddress": "4837 Scott Path",
      "startCoords": {
        "latitude": 35.125959,
        "longitude": -106.71708
      },
      "endCoords": {
        "latitude": 35.087142,
        "longitude": -106.673065
      },
      "distanceMeters": 8745.9,
      "durationMs": 1380000,
      "drivingDurationMs": 1112683,
      "idlingDurationMs": 267317,
      "fuelConsumedMl": 1113,
      "fuelConsumedGallons": 0.294,
      "maxSpeedMph": 30.7,
      "averageSpeedMph": 14.2,
      "safetyEvents": []
    },
    {
      "id": "trip_44865715_20250422_15841",
      "vehicleId": "44865715",
      "driverId": "20000046",
      "startMs": 1745316807000,
      "endMs": 1745319087000,
      "startAddress": "0549 Brewer Rapid",
      "endAddress": "92647 James Estates Suite 731",
      "startCoords": {
        "latitude": 35.079228,
        "longitude": -106.603076
      },
      "endCoords": {
        "latitude": 35.063994,
        "longitude": -106.620498
      },
      "distanceMeters": 9178.9,
      "durationMs": 2280000,
      "drivingDurationMs": 1830938,
      "idlingDurationMs": 449062,
      "fuelConsumedMl": 1166,
      "fuelConsumedGallons": 0.308,
      "maxSpeedMph": 35.3,
      "averageSpeedMph": 9.0,
      "safetyEvents": []
    },
    {
      "id": "trip_44865715_20250422_15866",
      "vehicleId": "44865715",
      "driverId": "20000046",
      "startMs": 1745328840000,
      "endMs": 1745331360000,
      "startAddress": "395 Angela Burg",
      "endAddress": "22701 Ortiz Points",
      "startCoords": {
        "latitude": 35.124786,
        "longitude": -106.574002
      },
      "endCoords": {
        "latitude": 35.057369,
        "longitude": -106.569679
      },
      "distanceMeters": 14090.1,
      "durationMs": 2520000,
      "drivingDurationMs": 2000601,
      "idlingDurationMs": 519399,
      "fuelConsumedMl": 1790,
      "fuelConsumedGallons": 0.473,
      "maxSpeedMph": 39.0,
      "averageSpeedMph": 12.5,
      "safetyEvents": []
    },
    {
      "id": "trip_44865715_20250422_15890",
      "vehicleId": "44865715",
      "driverId": "20000044",
      "startMs": 1745340834000,
      "endMs": 1745342154000,
      "startAddress": "00295 Samuel Garden",
      "endAddress": "79640 Eric Pike Apt. 551",
      "startCoords": {
        "latitude": 35.16951,
        "longitude": -106.694677
      },
      "endCoords": {
        "latitude": 35.062425,
        "longitude": -106.62303
      },
      "distanceMeters": 8877.8,
      "durationMs": 1320000,
      "drivingDurationMs": 1106270,
      "idlingDurationMs": 213730,
      "fuelConsumedMl": 1128,
      "fuelConsumedGallons": 0.298,
      "maxSpeedMph": 34.8,
      "averageSpeedMph": 15.0,
      "safetyEvents": []
    },
    {
      "id": "trip_44865715_20250422_15925",
      "vehicleId": "44865715",
      "driverId": "20000044",
      "startMs": 1745359017000,
      "endMs": 1745360577000,
      "startAddress": "448 Holmes Meadow Suite 351",
      "endAddress": "565 Nicole Estates",
      "startCoords": {
        "latitude": 35.119645,
        "longitude": -106.560498
      },
      "endCoords": {
        "latitude": 35.175909,
        "longitude": -106.582365
      },
      "distanceMeters": 7757.5,
      "durationMs": 1560000,
      "drivingDurationMs": 1188767,
      "idlingDurationMs": 371233,
      "fuelConsumedMl": 988,
      "fuelConsumedGallons": 0.261,
      "maxSpeedMph": 39.2,
      "averageSpeedMph": 11.1,
      "safetyEvents": []
    },
    {
      "id": "trip_44865715_20250423_15988",
      "vehicleId": "44865715",
      "driverId": "20000044",
      "startMs": 1745397235000,
      "endMs": 1745399095000,
      "startAddress": "5799 Jennifer Road Suite 393",
      "endAddress": "0795 Andrew Landing Apt. 506",
      "startCoords": {
        "latitude": 35.041323,
        "longitude": -106.6949
      },
      "endCoords": {
        "latitude": 35.181286,
        "longitude": -106.713032
      },
      "distanceMeters": 8157.9,
      "durationMs": 1860000,
      "drivingDurationMs": 1418199,
      "idlingDurationMs": 441801,
      "fuelConsumedMl": 1037,
      "fuelConsumedGallons": 0.274,
      "maxSpeedMph": 31.2,
      "averageSpeedMph": 9.8,
      "safetyEvents": []
    },
    {
      "id": "trip_44865715_20250423_16029",
      "vehicleId": "44865715",
      "driverId": "20000046",
      "startMs": 1745415591000,
      "endMs": 1745423264000,
      "startAddress": "4230 Carrillo Estate Suite 368",
      "endAddress": "71977 Rodriguez Fork Suite 714",
      "startCoords": {
        "latitude": 35.049371,
        "longitude": -106.703993
      },
      "endCoords": {
        "latitude": 35.086676,
        "longitude": -106.667899
      },
      "distanceMeters": 46420.1,
      "durationMs": 7673000,
      "drivingDurationMs": 5797531,
      "idlingDurationMs": 1875469,
      "fuelConsumedMl": 5901,
      "fuelConsumedGallons": 1.559,
      "maxSpeedMph": 26.9,
      "averageSpeedMph": 13.5,
      "safetyEvents": []
    },
    {
      "id": "trip_44865715_20250423_16068",
      "vehicleId": "44865715",
      "driverId": "20000046",
      "startMs": 1745435494000,
      "endMs": 1745449863000,
      "startAddress": "102 Amber Island Apt. 867",
      "endAddress": "77098 Logan Tunnel Apt. 347",
      "startCoords": {
        "latitude": 35.128091,
        "longitude": -106.66736
      },
      "endCoords": {
        "latitude": 35.07364,
        "longitude": -106.618447
      },
      "distanceMeters": 90296.1,
      "durationMs": 14369000,
      "drivingDurationMs": 11324812,
      "idlingDurationMs": 3044188,
      "fuelConsumedMl": 11481,
      "fuelConsumedGallons": 3.033,
      "maxSpeedMph": 39.1,
      "averageSpeedMph": 14.1,
      "safetyEvents": []
    },
    {
      "id": "trip_44865715_20250424_16124",
      "vehicleId": "44865715",
      "driverId": "20000044",
      "startMs": 1745472245000,
      "endMs": 1745473745000,
      "startAddress": "9659 Chad Brooks",
      "endAddress": "8500 Espinoza Shoal Apt. 823",
      "startCoords": {
        "latitude": 35.053823,
        "longitude": -106.704025
      },
      "endCoords": {
        "latitude": 35.128418,
        "longitude": -106.625272
      },
      "distanceMeters": 7450.0,
      "durationMs": 1500000,
      "drivingDurationMs": 1194747,
      "idlingDurationMs": 305253,
      "fuelConsumedMl": 946,
      "fuelConsumedGallons": 0.25,
      "maxSpeedMph": 32.4,
      "averageSpeedMph": 11.1,
      "safetyEvents": []
    },
    {
      "id": "trip_44865715_20250424_16157",
      "vehicleId": "44865715",
      "driverId": "20000046",
      "startMs": 1745485977000,
      "endMs": 1745487717000,
      "startAddress": "6496 Jose River Suite 093",
      "endAddress": "83485 Brooke Branch Apt. 093",
      "startCoords": {
        "latitude": 35.124843,
        "longitude": -106.569416
      },
      "endCoords": {
        "latitude": 35.181549,
        "longitude": -106.678655
      },
      "distanceMeters": 7710.4,
      "durationMs": 1740000,
      "drivingDurationMs": 1373510,
      "idlingDurationMs": 366490,
      "fuelConsumedMl": 980,
      "fuelConsumedGallons": 0.259,
      "maxSpeedMph": 33.3,
      "averageSpeedMph": 9.9,
      "safetyEvents": []
    },
    {
      "id": "trip_44865715_20250424_16199",
      "vehicleId": "44865715",
      "driverId": "20000044",
      "startMs": 1745506925000,
      "endMs": 1745509265000,
      "startAddress": "4269 Gardner Key",
      "endAddress": "0183 Kyle Manors Apt. 133",
      "startCoords": {
        "latitude": 35.046599,
        "longitude": -106.656665
      },
      "endCoords": {
        "latitude": 35.052237,
        "longitude": -106.706243
      },
      "distanceMeters": 13248.1,
      "durationMs": 2340000,
      "drivingDurationMs": 2034112,
      "idlingDurationMs": 305888,
      "fuelConsumedMl": 1685,
      "fuelConsumedGallons": 0.445,
      "maxSpeedMph": 36.5,
      "averageSpeedMph": 12.7,
      "safetyEvents": []
    },
    {
      "id": "trip_44865715_20250424_16221",
      "vehicleId": "44865715",
      "driverId": "20000046",
      "startMs": 1745518393000,
      "endMs": 1745520313000,
      "startAddress": "7287 Sharp Center",
      "endAddress": "727 Jon Fork Apt. 365",
      "startCoords": {
        "latitude": 35.135435,
        "longitude": -106.628239
      },
      "endCoords": {
        "latitude": 35.071799,
        "longitude": -106.584634
      },
      "distanceMeters": 14276.5,
      "durationMs": 1920000,
      "drivingDurationMs": 1636706,
      "idlingDurationMs": 283294,
      "fuelConsumedMl": 1817,
      "fuelConsumedGallons": 0.48,
      "maxSpeedMph": 27.1,
      "averageSpeedMph": 16.6,
      "safetyEvents": []
    },
    {
      "id": "trip_44865715_20250424_16247",
      "vehicleId": "44865715",
      "driverId": "20000045",
      "startMs": 1745533735000,
      "endMs": 1745535235000,
      "startAddress": "281 Sara Roads",
      "endAddress": "07949 James Ford Suite 837",
      "startCoords": {
        "latitude": 35.053593,
        "longitude": -106.667485
      },
      "endCoords": {
        "latitude": 35.124193,
        "longitude": -106.609664
      },
      "distanceMeters": 7891.1,
      "durationMs": 1500000,
      "drivingDurationMs": 1224379,
      "idlingDurationMs": 275621,
      "fuelConsumedMl": 1003,
      "fuelConsumedGallons": 0.265,
      "maxSpeedMph": 32.9,
      "averageSpeedMph": 11.8,
      "safetyEvents": []
    },
    {
      "id": "trip_44865715_20250425_16302",
      "vehicleId": "44865715",
      "driverId": "20000044",
      "startMs": 1745569695000,
      "endMs": 1745571435000,
      "startAddress": "17837 Jacob Spurs Apt. 084",
      "endAddress": "6228 Julie Stream Suite 444",
      "startCoords": {
        "latitude": 35.181521,
        "longitude": -106.564378
      },
      "endCoords": {
        "latitude": 35.105349,
        "longitude": -106.562441
      },
      "distanceMeters": 10960.0,
      "durationMs": 1740000,
      "drivingDurationMs": 1426109,
      "idlingDurationMs": 313891,
      "fuelConsumedMl": 1393,
      "fuelConsumedGallons": 0.368,
      "maxSpeedMph": 35.5,
      "averageSpeedMph": 14.1,
      "safetyEvents": []
    },
    {
      "id": "trip_44865715_20250425_16325",
      "vehicleId": "44865715",
      "driverId": "20000044",
      "startMs": 1745579704000,
      "endMs": 1745583441000,
      "startAddress": "03117 Briana Drive",
      "endAddress": "6920 Jonathan Street Suite 854",
      "startCoords": {
        "latitude": 35.17297,
        "longitude": -106.692223
      },
      "endCoords": {
        "latitude": 35.087832,
        "longitude": -106.692757
      },
      "distanceMeters": 14793.5,
      "durationMs": 3737000,
      "drivingDurationMs": 2899226,
      "idlingDurationMs": 837774,
      "fuelConsumedMl": 1881,
      "fuelConsumedGallons": 0.497,
      "maxSpeedMph": 31.6,
      "averageSpeedMph": 8.9,
      "safetyEvents": []
    },
    {
      "id": "trip_44865715_20250425_16370",
      "vehicleId": "44865715",
      "driverId": "20000044",
      "startMs": 1745602677000,
      "endMs": 1745605197000,
      "startAddress": "6741 Holly Route",
      "endAddress": "871 Rachel Camp Suite 916",
      "startCoords": {
        "latitude": 35.127168,
        "longitude": -106.649646
      },
      "endCoords": {
        "latitude": 35.1616,
        "longitude": -106.590608
      },
      "distanceMeters": 15138.2,
      "durationMs": 2520000,
      "drivingDurationMs": 1958396,
      "idlingDurationMs": 561604,
      "fuelConsumedMl": 1923,
      "fuelConsumedGallons": 0.508,
      "maxSpeedMph": 36.8,
      "averageSpeedMph": 13.4,
      "safetyEvents": []
    },
    {
      "id": "trip_44865715_20250426_16418",
      "vehicleId": "44865715",
      "driverId": "20000045",
      "startMs": 1745636609000,
      "endMs": 1745638949000,
      "startAddress": "7226 Danielle Pines Suite 284",
      "endAddress": "4507 Estrada Roads Apt. 822",
      "startCoords": {
        "latitude": 35.045196,
        "longitude": -106.719417
      },
      "endCoords": {
        "latitude": 35.065481,
        "longitude": -106.624802
      },
      "distanceMeters": 9452.3,
      "durationMs": 2340000,
      "drivingDurationMs": 1763542,
      "idlingDurationMs": 576458,
      "fuelConsumedMl": 1200,
      "fuelConsumedGallons": 0.317,
      "maxSpeedMph": 33.0,
      "averageSpeedMph": 9.0,
      "safetyEvents": []
    },
    {
      "id": "trip_44865715_20250426_16475",
      "vehicleId": "44865715",
      "driverId": "20000046",
      "startMs": 1745672323000,
      "endMs": 1745674183000,
      "startAddress": "8904 Johnson Gateway Apt. 848",
      "endAddress": "43770 Robert Crossroad Suite 960",
      "startCoords": {
        "latitude": 35.108056,
        "longitude": -106.574678
      },
      "endCoords": {
        "latitude": 35.10968,
        "longitude": -106.718493
      },
      "distanceMeters": 7630.1,
      "durationMs": 1860000,
      "drivingDurationMs": 1407831,
      "idlingDurationMs": 452169,
      "fuelConsumedMl": 969,
      "fuelConsumedGallons": 0.256,
      "maxSpeedMph": 35.1,
      "averageSpeedMph": 9.2,
      "safetyEvents": []
    },
    {
      "id": "trip_44865715_20250426_16514",
      "vehicleId": "44865715",
      "driverId": "20000045",
      "startMs": 1745690771000,
      "endMs": 1745692631000,
      "startAddress": "49131 Stephanie Spurs",
      "endAddress": "818 Justin Lane Suite 771",
      "startCoords": {
        "latitude": 35.092895,
        "longitude": -106.549901
      },
      "endCoords": {
        "latitude": 35.121772,
        "longitude": -106.559488
      },
      "distanceMeters": 9192.3,
      "durationMs": 1860000,
      "drivingDurationMs": 1651828,
      "idlingDurationMs": 208172,
      "fuelConsumedMl": 1170,
      "fuelConsumedGallons": 0.309,
      "maxSpeedMph": 30.2,
      "averageSpeedMph": 11.1,
      "safetyEvents": []
    },
    {
      "id": "trip_44865715_20250426_16544",
      "vehicleId": "44865715",
      "driverId": "20000045",
      "startMs": 1745710225000,
      "endMs": 1745716015000,
      "startAddress": "73365 Cummings Station Apt. 053",
      "endAddress": "439 Herrera Views Suite 031",
      "startCoords": {
        "latitude": 35.107796,
        "longitude": -106.588789
      },
      "endCoords": {
        "latitude": 35.050387,
        "longitude": -106.656813
      },
      "distanceMeters": 26304.8,
      "durationMs": 5790000,
      "drivingDurationMs": 4646410,
      "idlingDurationMs": 1143590,
      "fuelConsumedMl": 3346,
      "fuelConsumedGallons": 0.884,
      "maxSpeedMph": 37.6,
      "averageSpeedMph": 10.2,
      "safetyEvents": []
    },
    {
      "id": "trip_44865715_20250427_16594",
      "vehicleId": "44865715",
      "driverId": "20000046",
      "startMs": 1745752207000,
      "endMs": 1745754007000,
      "startAddress": "9055 Bryce Field Suite 802",
      "endAddress": "177 Ward Knoll",
      "startCoords": {
        "latitude": 35.086372,
        "longitude": -106.671764
      },
      "endCoords": {
        "latitude": 35.10565,
        "longitude": -106.586094
      },
      "distanceMeters": 7916.7,
      "durationMs": 1800000,
      "drivingDurationMs": 1354090,
      "idlingDurationMs": 445910,
      "fuelConsumedMl": 1007,
      "fuelConsumedGallons": 0.266,
      "maxSpeedMph": 38.4,
      "averageSpeedMph": 9.8,
      "safetyEvents": []
    },
    {
      "id": "trip_44865715_20250427_16634",
      "vehicleId": "44865715",
      "driverId": "20000046",
      "startMs": 1745781702000,
      "endMs": 1745784042000,
      "startAddress": "9410 Young Wall Apt. 972",
      "endAddress": "699 Brittany Shore Suite 790",
      "startCoords": {
        "latitude": 35.147076,
        "longitude": -106.681687
      },
      "endCoords": {
        "latitude": 35.044872,
        "longitude": -106.613678
      },
      "distanceMeters": 9641.1,
      "durationMs": 2340000,
      "drivingDurationMs": 1796961,
      "idlingDurationMs": 543039,
      "fuelConsumedMl": 1226,
      "fuelConsumedGallons": 0.324,
      "maxSpeedMph": 39.6,
      "averageSpeedMph": 9.2,
      "safetyEvents": []
    },
    {
      "id": "trip_44865715_20250428_16686",
      "vehicleId": "44865715",
      "driverId": "20000045",
      "startMs": 1745839810000,
      "endMs": 1745844875000,
      "startAddress": "7583 Moore Row Suite 838",
      "endAddress": "25389 Amanda Loaf",
      "startCoords": {
        "latitude": 35.056511,
        "longitude": -106.72266
      },
      "endCoords": {
        "latitude": 35.126895,
        "longitude": -106.711249
      },
      "distanceMeters": 36142.4,
      "durationMs": 5065000,
      "drivingDurationMs": 4392494,
      "idlingDurationMs": 672506,
      "fuelConsumedMl": 4595,
      "fuelConsumedGallons": 1.214,
      "maxSpeedMph": 39.7,
      "averageSpeedMph": 16.0,
      "safetyEvents": []
    },
    {
      "id": "trip_44865715_20250428_16726",
      "vehicleId": "44865715",
      "driverId": "20000045",
      "startMs": 1745862529000,
      "endMs": 1745864929000,
      "startAddress": "3790 Amy Crossing",
      "endAddress": "315 Jensen Centers",
      "startCoords": {
        "latitude": 35.073492,
        "longitude": -106.544358
      },
      "endCoords": {
        "latitude": 35.174351,
        "longitude": -106.722036
      },
      "distanceMeters": 17062.2,
      "durationMs": 2400000,
      "drivingDurationMs": 1923045,
      "idlingDurationMs": 476955,
      "fuelConsumedMl": 2169,
      "fuelConsumedGallons": 0.573,
      "maxSpeedMph": 39.4,
      "averageSpeedMph": 15.9,
      "safetyEvents": []
    },
    {
      "id": "trip_44865715_20250429_16773",
      "vehicleId": "44865715",
      "driverId": "20000044",
      "startMs": 1745891481000,
      "endMs": 1745893341000,
      "startAddress": "458 Green Falls Suite 564",
      "endAddress": "311 Brian Park Suite 748",
      "startCoords": {
        "latitude": 35.129049,
        "longitude": -106.57521
      },
      "endCoords": {
        "latitude": 35.064002,
        "longitude": -106.546878
      },
      "distanceMeters": 14234.9,
      "durationMs": 1860000,
      "drivingDurationMs": 1660166,
      "idlingDurationMs": 199834,
      "fuelConsumedMl": 1809,
      "fuelConsumedGallons": 0.478,
      "maxSpeedMph": 28.1,
      "averageSpeedMph": 17.1,
      "safetyEvents": []
    },
    {
      "id": "trip_44865715_20250429_16807",
      "vehicleId": "44865715",
      "driverId": "20000044",
      "startMs": 1745910856000,
      "endMs": 1745913016000,
      "startAddress": "3979 Torres Center",
      "endAddress": "00369 Johnson Port Apt. 642",
      "startCoords": {
        "latitude": 35.174629,
        "longitude": -106.609577
      },
      "endCoords": {
        "latitude": 35.178168,
        "longitude": -106.67116
      },
      "distanceMeters": 11062.7,
      "durationMs": 2160000,
      "drivingDurationMs": 1732534,
      "idlingDurationMs": 427466,
      "fuelConsumedMl": 1408,
      "fuelConsumedGallons": 0.372,
      "maxSpeedMph": 30.0,
      "averageSpeedMph": 11.5,
      "safetyEvents": []
    },
    {
      "id": "trip_44865715_20250429_16843",
      "vehicleId": "44865715",
      "driverId": "20000046",
      "startMs": 1745926794000,
      "endMs": 1745928114000,
      "startAddress": "535 Ortiz Divide Suite 837",
      "endAddress": "35483 Preston Road Apt. 316",
      "startCoords": {
        "latitude": 35.138081,
        "longitude": -106.66562
      },
      "endCoords": {
        "latitude": 35.050968,
        "longitude": -106.709542
      },
      "distanceMeters": 9887.6,
      "durationMs": 1320000,
      "drivingDurationMs": 1182430,
      "idlingDurationMs": 137570,
      "fuelConsumedMl": 1257,
      "fuelConsumedGallons": 0.332,
      "maxSpeedMph": 29.2,
      "averageSpeedMph": 16.8,
      "safetyEvents": []
    },
    {
      "id": "trip_44865715_20250429_16894",
      "vehicleId": "44865715",
      "driverId": "20000045",
      "startMs": 1745953567000,
      "endMs": 1745956594000,
      "startAddress": "2832 Brandi Island",
      "endAddress": "9032 Banks Rapids Suite 863",
      "startCoords": {
        "latitude": 35.166744,
        "longitude": -106.547147
      },
      "endCoords": {
        "latitude": 35.1351,
        "longitude": -106.550103
      },
      "distanceMeters": 22132.9,
      "durationMs": 3027000,
      "drivingDurationMs": 2527479,
      "idlingDurationMs": 499521,
      "fuelConsumedMl": 2813,
      "fuelConsumedGallons": 0.743,
      "maxSpeedMph": 35.3,
      "averageSpeedMph": 16.4,
      "safetyEvents": []
    },
    {
      "id": "trip_44865715_20250430_16932",
      "vehicleId": "44865715",
      "driverId": "20000044",
      "startMs": 1745978350000,
      "endMs": 1745983547000,
      "startAddress": "1351 Michael Knoll",
      "endAddress": "464 Glover Corner",
      "startCoords": {
        "latitude": 35.088232,
        "longitude": -106.610332
      },
      "endCoords": {
        "latitude": 35.148667,
        "longitude": -106.560779
      },
      "distanceMeters": 37076.1,
      "durationMs": 5197000,
      "drivingDurationMs": 4246186,
      "idlingDurationMs": 950814,
      "fuelConsumedMl": 4713,
      "fuelConsumedGallons": 1.245,
      "maxSpeedMph": 36.5,
      "averageSpeedMph": 16.0,
      "safetyEvents": []
    },
    {
      "id": "trip_44865715_20250430_16967",
      "vehicleId": "44865715",
      "driverId": "20000046",
      "startMs": 1746001150000,
      "endMs": 1746006437000,
      "startAddress": "167 Roy Harbor",
      "endAddress": "38329 Ellis Extensions Apt. 095",
      "startCoords": {
        "latitude": 35.11164,
        "longitude": -106.708007
      },
      "endCoords": {
        "latitude": 35.126395,
        "longitude": -106.693221
      },
      "distanceMeters": 21159.5,
      "durationMs": 5287000,
      "drivingDurationMs": 3966083,
      "idlingDurationMs": 1320917,
      "fuelConsumedMl": 2691,
      "fuelConsumedGallons": 0.711,
      "maxSpeedMph": 35.7,
      "averageSpeedMph": 9.0,
      "safetyEvents": []
    },
    {
      "id": "trip_44865715_20250430_17003",
      "vehicleId": "44865715",
      "driverId": "20000045",
      "startMs": 1746021159000,
      "endMs": 1746028037000,
      "startAddress": "849 Seth Circles",
      "endAddress": "9537 Howard Points Apt. 592",
      "startCoords": {
        "latitude": 35.069527,
        "longitude": -106.595809
      },
      "endCoords": {
        "latitude": 35.150444,
        "longitude": -106.594629
      },
      "distanceMeters": 26971.5,
      "durationMs": 6878000,
      "drivingDurationMs": 5220938,
      "idlingDurationMs": 1657062,
      "fuelConsumedMl": 3430,
      "fuelConsumedGallons": 0.906,
      "maxSpeedMph": 38.9,
      "averageSpeedMph": 8.8,
      "safetyEvents": []
    },
    {
      "id": "trip_44865715_20250430_17033",
      "vehicleId": "44865715",
      "driverId": "20000046",
      "startMs": 1746035771000,
      "endMs": 1746046332000,
      "startAddress": "103 Lee Heights",
      "endAddress": "13648 Aguilar Isle Apt. 121",
      "startCoords": {
        "latitude": 35.138894,
        "longitude": -106.699004
      },
      "endCoords": {
        "latitude": 35.08746,
        "longitude": -106.606886
      },
      "distanceMeters": 65714.8,
      "durationMs": 10561000,
      "drivingDurationMs": 7973590,
      "idlingDurationMs": 2587410,
      "fuelConsumedMl": 8354,
      "fuelConsumedGallons": 2.207,
      "maxSpeedMph": 37.1,
      "averageSpeedMph": 13.9,
      "safetyEvents": []
    }
  ]
}