{
  "vehicleId": "44865715",
  "vehicleName": "ABQ-VAN-01",
  "month": "2025_04",
  "pagination": {
    "endCursor": "trip_44865715_20250430_004",
    "hasNextPage": false
  },
  "trips": [
    {
      "id": "trip_44865715_20250401_001",
      "vehicleId": "44865715",
      "driverId": "20000044",
      "startMs": 1743521880000,
      "endMs": 1743522648737,
      "startAddress": "71436 Richard Estates Apt. 647",
      "endAddress": "84812 Ware Fields Apt. 670",
      "startCoords": {
        "latitude": 35.118452,
        "longitude": -106.544457
      },
      "endCoords": {
        "latitude": 35.172863,
        "longitude": -106.63728
      },
      "distanceMeters": 5020.7,
      "durationMs": 768738,
      "drivingDurationMs": 613033,
      "idlingDurationMs": 155705,
      "fuelConsumedMl": 640,
      "fuelConsumedGallons": 0.169,
      "maxSpeedMph": 28.5,
      "averageSpeedMph": 14.6,
      "safetyEvents": []
    },
    {
      "id": "trip_44865715_20250401_002",
      "vehicleId": "44865715",
      "driverId": "20000044",
      "startMs": 1743500040000,
      "endMs": 1743510455407,
      "startAddress": "40952 Scott Parkways",
      "endAddress": "956 Lawson Inlet Apt. 359",
      "startCoords": {
        "latitude": 35.166298,
        "longitude": -106.666107
      },
      "endCoords": {
        "latitude": 35.056237,
        "longitude": -106.572407
      },
      "distanceMeters": 82257.6,
      "durationMs": 10415407,
      "drivingDurationMs": 9288552,
      "idlingDurationMs": 1126855,
      "fuelConsumedMl": 10459,
      "fuelConsumedGallons": 2.763,
      "maxSpeedMph": 39.3,
      "averageSpeedMph": 17.7,
      "safetyEvents": []
    },
    {
      "id": "trip_44865715_20250401_003",
      "vehicleId": "44865715",
      "driverId": "20000044",
      "startMs": 1743524520000,
      "endMs": 1743528216402,
      "startAddress": "208 Melissa Flats",
      "endAddress": "005 Kenneth Motorway Suite 032",
      "startCoords": {
        "latitude": 35.117459,
        "longitude": -106.548974
      },
      "endCoords": {
        "latitude": 35.130912,
        "longitude": -106.695788
      },
      "distanceMeters": 25127.7,
      "durationMs": 3696402,
      "drivingDurationMs": 3407349,
      "idlingDurationMs": 289053,
      "fuelConsumedMl": 3195,
      "fuelConsumedGallons": 0.844,
      "maxSpeedMph": 33.3,
      "averageSpeedMph": 15.2,
      "safetyEvents": []
    },
    {
      "id": "trip_44865715_20250402_001",
      "vehicleId": "44865715",
      "driverId": "20000044",
      "startMs": 1743575700000,
      "endMs": 1743578059045,
      "startAddress": "15855 Adriana Mews",
      "endAddress": "28688 Stacey Fort Suite 352",
      "startCoords": {
        "latitude": 35.147233,
        "longitude": -106.544702
      },
      "endCoords": {
        "latitude": 35.171466,
        "longitude": -106.607323
      },
      "distanceMeters": 15738.9,
      "durationMs": 2359046,
      "drivingDurationMs": 2140139,
      "idlingDurationMs": 218906,
      "fuelConsumedMl": 2002,
      "fuelConsumedGallons": 0.529,
      "maxSpeedMph": 68.0,
      "averageSpeedMph": 14.9,
      "safetyEvents": [
        {
          "type": "speeding",
          "startMs": 1743576360000,
          "maxSpeedMph": 68.0
        }
      ]
    },
    {
      "id": "trip_44865715_20250402_002",
      "vehicleId": "44865715",
      "driverId": null,
      "startMs": 1743595380000,
      "endMs": 1743601870747,
      "startAddress": "46146 Navarro Falls Suite 811",
      "endAddress": "31061 Michelle Crescent",
      "startCoords": {
        "latitude": 35.173367,
        "longitude": -106.663045
      },
      "endCoords": {
        "latitude": 35.093786,
        "longitude": -106.71194
      },
      "distanceMeters": 30854.6,
      "durationMs": 6490747,
      "drivingDurationMs": 5905532,
      "idlingDurationMs": 585216,
      "fuelConsumedMl": 3922,
      "fuelConsumedGallons": 1.036,
      "maxSpeedMph": 71.3,
      "averageSpeedMph": 10.6,
      "safetyEvents": [
        {
          "type": "speeding",
          "startMs": 1743598620000,
          "maxSpeedMph": 71.3
        }
      ]
    },
    {
      "id": "trip_44865715_20250402_003",
      "vehicleId": "44865715",
      "driverId": "20000044",
      "startMs": 1743611340000,
      "endMs": 1743613121852,
      "startAddress": "013 Tina Tunnel",
      "endAddress": "6995 Bates Oval",
      "startCoords": {
        "latitude": 35.117068,
        "longitude": -106.602628
      },
      "endCoords": {
        "latitude": 35.082401,
        "longitude": -106.551913
      },
      "distanceMeters": 10008.7,
      "durationMs": 1781853,
      "drivingDurationMs": 1512368,
      "idlingDurationMs": 269485,
      "fuelConsumedMl": 1272,
      "fuelConsumedGallons": 0.336,
      "maxSpeedMph": 37.0,
      "averageSpeedMph": 12.6,
      "safetyEvents": []
    },
    {
      "id": "trip_44865715_20250402_004",
      "vehicleId": "44865715",
      "driverId": "20000044",
      "startMs": 1743609000000,
      "endMs": 1743613854839,
      "startAddress": "68254 Kendra Wells",
      "endAddress": "6671 Freeman Lodge Apt. 231",
      "startCoords": {
        "latitude": 35.046691,
        "longitude": -106.578909
      },
      "endCoords": {
        "latitude": 35.135656,
        "longitude": -106.613091
      },
      "distanceMeters": 29117.1,
      "durationMs": 4854839,
      "drivingDurationMs": 4124919,
      "idlingDurationMs": 729920,
      "fuelConsumedMl": 3702,
      "fuelConsumedGallons": 0.978,
      "maxSpeedMph": 49.9,
      "averageSpeedMph": 13.4,
      "safetyEvents": []
    },
    {
      "id": "trip_44865715_20250402_005",
      "vehicleId": "44865715",
      "driverId": "20000044",
      "startMs": 1743577740000,
      "endMs": 1743587040106,
      "startAddress": "29498 Kathy Haven Apt. 313",
      "endAddress": "714 Samuel Views",
      "startCoords": {
        "latitude": 35.13581,
        "longitude": -106.71738
      },
      "endCoords": {
        "latitude": 35.072992,
        "longitude": -106.606702
      },
      "distanceMeters": 41938.7,
      "durationMs": 9300107,
      "drivingDurationMs": 7499213,
      "idlingDurationMs": 1800894,
      "fuelConsumedMl": 5334,
      "fuelConsumedGallons": 1.409,
      "maxSpeedMph": 30.7,
      "averageSpeedMph": 10.1,
      "safetyEvents": []
    },
    {
      "id": "trip_44865715_20250403_001",
      "vehicleId": "44865715",
      "driverId": "20000046",
      "startMs": 1743703980000,
      "endMs": 1743714000000,
      "startAddress": "0462 Harper Groves Suite 081",
      "endAddress": "467 Jennifer Pine Apt. 975",
      "startCoords": {
        "latitude": 35.12086,
        "longitude": -106.676812
      },
      "endCoords": {
        "latitude": 35.059574,
        "longitude": -106.696435
      },
      "distanceMeters": 54359.3,
      "durationMs": 10020000,
      "drivingDurationMs": 9148152,
      "idlingDurationMs": 871848,
      "fuelConsumedMl": 6912,
      "fuelConsumedGallons": 1.826,
      "maxSpeedMph": 31.9,
      "averageSpeedMph": 12.1,
      "safetyEvents": []
    },
    {
      "id": "trip_44865715_20250403_002",
      "vehicleId": "44865715",
      "driverId": "20000046",
      "startMs": 1743685500000,
      "endMs": 1743688705649,
      "startAddress": "1351 Michael Knoll",
      "endAddress": "464 Glover Corner",
      "startCoords": {
        "latitude": 35.079975,
        "longitude": -106.664495
      },
      "endCoords": {
        "latitude": 35.065605,
        "longitude": -106.58622
      },
      "distanceMeters": 22285.3,
      "durationMs": 3205650,
      "drivingDurationMs": 2783662,
      "idlingDurationMs": 421988,
      "fuelConsumedMl": 2835,
      "fuelConsumedGallons": 0.749,
      "maxSpeedMph": 59.7,
      "averageSpeedMph": 15.6,
      "safetyEvents": []
    },
    {
      "id": "trip_44865715_20250403_003",
      "vehicleId": "44865715",
      "driverId": "20000046",
      "startMs": 1743670980000,
      "endMs": 1743672840690,
      "startAddress": "84771 Davis Stream",
      "endAddress": "6723 Bauer Street",
      "startCoords": {
        "latitude": 35.104204,
        "longitude": -106.597205
      },
      "endCoords": {
        "latitude": 35.148867,
        "longitude": -106.541396
      },
      "distanceMeters": 12254.7,
      "durationMs": 1860690,
      "drivingDurationMs": 1678690,
      "idlingDurationMs": 182001,
      "fuelConsumedMl": 1560,
      "fuelConsumedGallons": 0.412,
      "maxSpeedMph": 43.1,
      "averageSpeedMph": 14.7,
      "safetyEvents": []
    },
    {
      "id": "trip_44865715_20250404_001",
      "vehicleId": "44865715",
      "driverId": "20000045",
      "startMs": 1743760620000,
      "endMs": 1743772691483,
      "startAddress": "773 Miller Shores",
      "endAddress": "4792 Black Plaza",
      "startCoords": {
        "latitude": 35.087748,
        "longitude": -106.610573
      },
      "endCoords": {
        "latitude": 35.063778,
        "longitude": -106.543627
      },
      "distanceMeters": 71004.5,
      "durationMs": 12071484,
      "drivingDurationMs": 9767051,
      "idlingDurationMs": 2304433,
      "fuelConsumedMl": 9028,
      "fuelConsumedGallons": 2.385,
      "maxSpeedMph": 68.9,
      "averageSpeedMph": 13.2,
      "safetyEvents": [
        {
          "type": "speeding",
          "startMs": 1743766020000,
          "maxSpeedMph": 68.9
        }
      ]
    },
    {
      "id": "trip_44865715_20250404_002",
      "vehicleId": "44865715",
      "driverId": "20000045",
      "startMs": 1743784920000,
      "endMs": 1743791350035,
      "startAddress": "64836 Melanie Mountain Apt. 583",
      "endAddress": "88903 Joseph Mountain",
      "startCoords": {
        "latitude": 35.066226,
        "longitude": -106.717218
      },
      "endCoords": {
        "latitude": 35.088401,
        "longitude": -106.635527
      },
      "distanceMeters": 43331.8,
      "durationMs": 6430036,
      "drivingDurationMs": 5967829,
      "idlingDurationMs": 462207,
      "fuelConsumedMl": 5508,
      "fuelConsumedGallons": 1.455,
      "maxSpeedMph": 35.9,
      "averageSpeedMph": 15.1,
      "safetyEvents": []
    },
    {
      "id": "trip_44865715_20250404_003",
      "vehicleId": "44865715",
      "driverId": "20000045",
      "startMs": 1743748740000,
      "endMs": 1743761169529,
      "startAddress": "69638 Leah Port",
      "endAddress": "517 Wood Roads",
      "startCoords": {
        "latitude": 35.070692,
        "longitude": -106.648521
      },
      "endCoords": {
        "latitude": 35.158388,
        "longitude": -106.7133
      },
      "distanceMeters": 72917.9,
      "durationMs": 12429529,
      "drivingDurationMs": 11965206,
      "idlingDurationMs": 464323,
      "fuelConsumedMl": 9270,
      "fuelConsumedGallons": 2.449,
      "maxSpeedMph": 45.8,
      "averageSpeedMph": 13.1,
      "safetyEvents": []
    },
    {
      "id": "trip_44865715_20250404_004",
      "vehicleId": "44865715",
      "driverId": "20000045",
      "startMs": 1743768900000,
      "endMs": 1743771948474,
      "startAddress": "9059 Hannah Fork Apt. 935",
      "endAddress": "679 Christopher Row Suite 829",
      "startCoords": {
        "latitude": 35.174676,
        "longitude": -106.577644
      },
      "endCoords": {
        "latitude": 35.130697,
        "longitude": -106.657739
      },
      "distanceMeters": 14478.5,
      "durationMs": 3048475,
      "drivingDurationMs": 2475206,
      "idlingDurationMs": 573269,
      "fuelConsumedMl": 1840,
      "fuelConsumedGallons": 0.486,
      "maxSpeedMph": 39.2,
      "averageSpeedMph": 10.6,
      "safetyEvents": []
    },
    {
      "id": "trip_44865715_20250404_005",
      "vehicleId": "44865715",
      "driverId": "20000045",
      "startMs": 1743789540000,
      "endMs": 1743791534085,
      "startAddress": "7371 Cobb Meadow",
      "endAddress": "475 Matthew Trafficway",
      "startCoords": {
        "latitude": 35.110515,
        "longitude": -106.600661
      },
      "endCoords": {
        "latitude": 35.131597,
        "longitude": -106.579435
      },
      "distanceMeters": 9397.9,
      "durationMs": 1994086,
      "drivingDurationMs": 1634829,
      "idlingDurationMs": 359256,
      "fuelConsumedMl": 1196,
      "fuelConsumedGallons": 0.316,
      "maxSpeedMph": 59.9,
      "averageSpeedMph": 10.5,
      "safetyEvents": []
    },
    {
      "id": "trip_44865715_20250405_001",
      "vehicleId": "44865715",
      "driverId": "20000045",
      "startMs": 1743872460000,
      "endMs": 1743873932179,
      "startAddress": "23236 Ryan Radial",
      "endAddress": "735 Daniel Circles Apt. 514",
      "startCoords": {
        "latitude": 35.131993,
        "longitude": -106.695268
      },
      "endCoords": {
        "latitude": 35.103559,
        "longitude": -106.630138
      },
      "distanceMeters": 10179.6,
      "durationMs": 1472180,
      "drivingDurationMs": 1231450,
      "idlingDurationMs": 240729,
      "fuelConsumedMl": 1295,
      "fuelConsumedGallons": 0.342,
      "maxSpeedMph": 41.0,
      "averageSpeedMph": 15.5,
      "safetyEvents": []
    },
    {
      "id": "trip_44865715_20250405_002",
      "vehicleId": "44865715",
      "driverId": "20000045",
      "startMs": 1743851220000,
      "endMs": 1743864907685,
      "startAddress": "9525 Desiree Spring",
      "endAddress": "8380 Meagan Place",
      "startCoords": {
        "latitude": 35.057864,
        "longitude": -106.585295
      },
      "endCoords": {
        "latitude": 35.069843,
        "longitude": -106.708819
      },
      "distanceMeters": 60567.3,
      "durationMs": 13687686,
      "drivingDurationMs": 11541430,
      "idlingDurationMs": 2146256,
      "fuelConsumedMl": 7700,
      "fuelConsumedGallons": 2.034,
      "maxSpeedMph": 49.6,
      "averageSpeedMph": 9.9,
      "safetyEvents": []
    },
    {
      "id": "trip_44865715_20250406_001",
      "vehicleId": "44865715",
      "driverId": null,
      "startMs": 1743950220000,
      "endMs": 1743962014560,
      "startAddress": "4096 Douglas Drive Suite 062",
      "endAddress": "48238 Ellis Green",
      "startCoords": {
        "latitude": 35.061366,
        "longitude": -106.654384
      },
      "endCoords": {
        "latitude": 35.076911,
        "longitude": -106.600172
      },
      "distanceMeters": 65677.7,
      "durationMs": 11794561,
      "drivingDurationMs": 9523838,
      "idlingDurationMs": 2270723,
      "fuelConsumedMl": 8351,
      "fuelConsumedGallons": 2.206,
      "maxSpeedMph": 37.2,
      "averageSpeedMph": 12.5,
      "safetyEvents": []
    },
    {
      "id": "trip_44865715_20250406_002",
      "vehicleId": "44865715",
      "driverId": "20000046",
      "startMs": 1743965460000,
      "endMs": 1743973200000,
      "startAddress": "298 Levi Place",
      "endAddress": "167 Michael Field",
      "startCoords": {
        "latitude": 35.182017,
        "longitude": -106.575772
      },
      "endCoords": {
        "latitude": 35.084069,
        "longitude": -106.619191
      },
      "distanceMeters": 54719.8,
      "durationMs": 7740000,
      "drivingDurationMs": 6896136,
      "idlingDurationMs": 843864,
      "fuelConsumedMl": 6958,
      "fuelConsumedGallons": 1.838,
      "maxSpeedMph": 31.2,
      "averageSpeedMph": 15.8,
      "safetyEvents": []
    },
    {
      "id": "trip_44865715_20250406_003",
      "vehicleId": "44865715",
      "driverId": "20000046",
      "startMs": 1743934500000,
      "endMs": 1743937844906,
      "startAddress": "11623 Emily Circles Suite 331",
      "endAddress": "0257 Charles Harbors",
      "startCoords": {
        "latitude": 35.112462,
        "longitude": -106.662071
      },
      "endCoords": {
        "latitude": 35.151535,
        "longitude": -106.669309
      },
      "distanceMeters": 17487.3,
      "durationMs": 3344907,
      "drivingDurationMs": 2695251,
      "idlingDurationMs": 649656,
      "fuelConsumedMl": 2222,
      "fuelConsumedGallons": 0.587,
      "maxSpeedMph": 57.4,
      "averageSpeedMph": 11.7,
      "safetyEvents": []
    },
    {
      "id": "trip_44865715_20250406_004",
      "vehicleId": "44865715",
      "driverId": "20000046",
      "startMs": 1743961620000,
      "endMs": 1743969800892,
      "startAddress": "86718 Wendy Lodge",
      "endAddress": "0800 Matthew Manor",
      "startCoords": {
        "latitude": 35.162779,
        "longitude": -106.565134
      },
      "endCoords": {
        "latitude": 35.052234,
        "longitude": -106.573234
      },
      "distanceMeters": 63000.7,
      "durationMs": 8180893,
      "drivingDurationMs": 7659044,
      "idlingDurationMs": 521849,
      "fuelConsumedMl": 8010,
      "fuelConsumedGallons": 2.116,
      "maxSpeedMph": 54.3,
      "averageSpeedMph": 17.2,
      "safetyEvents": []
    },
    {
      "id": "trip_44865715_20250407_001",
      "vehicleId": "44865715",
      "driverId": "20000045",
      "startMs": 1744022580000,
      "endMs": 1744030053392,
      "startAddress": "46797 Lambert Causeway Apt. 249",
      "endAddress": "27713 Wood Estate Apt. 926",
      "startCoords": {
        "latitude": 35.055763,
        "longitude": -106.59442
      },
      "endCoords": {
        "latitude": 35.053334,
        "longitude": -106.594303
      },
      "distanceMeters": 55405.6,
      "durationMs": 7473393,
      "drivingDurationMs": 6401106,
      "idlingDurationMs": 1072287,
      "fuelConsumedMl": 7045,
      "fuelConsumedGallons": 1.861,
      "maxSpeedMph": 66.9,
      "averageSpeedMph": 16.6,
      "safetyEvents": [
        {
          "type": "speeding",
          "startMs": 1744025880000,
          "maxSpeedMph": 66.9
        }
      ]
    },
    {
      "id": "trip_44865715_20250407_002",
      "vehicleId": "44865715",
      "driverId": "20000045",
      "startMs": 1744040580000,
      "endMs": 1744053534539,
      "startAddress": "080 Autumn Pines",
      "endAddress": "48228 Eric Way",
      "startCoords": {
        "latitude": 35.066096,
        "longitude": -106.676276
      },
      "endCoords": {
        "latitude": 35.074907,
        "longitude": -106.571479
      },
      "distanceMeters": 58396.2,
      "durationMs": 12954540,
      "drivingDurationMs": 10559793,
      "idlingDurationMs": 2394747,
      "fuelConsumedMl": 7423,
      "fuelConsumedGallons": 1.961,
      "maxSpeedMph": 50.6,
      "averageSpeedMph": 10.1,
      "safetyEvents": []
    },
    {
      "id": "trip_44865715_20250408_001",
      "vehicleId": "44865715",
      "driverId": "20000046",
      "startMs": 1744092780000,
      "endMs": 1744101459937,
      "startAddress": "100 Shepherd Forge",
      "endAddress": "74727 Martha Street Apt. 517",
      "startCoords": {
        "latitude": 35.054247,
        "longitude": -106.617376
      },
      "endCoords": {
        "latitude": 35.103371,
        "longitude": -106.682074
      },
      "distanceMeters": 58011.3,
      "durationMs": 8679938,
      "drivingDurationMs": 7592419,
      "idlingDurationMs": 1087519,
      "fuelConsumedMl": 7374,
      "fuelConsumedGallons": 1.948,
      "maxSpeedMph": 64.6,
      "averageSpeedMph": 15.0,
      "safetyEvents": []
    },
    {
      "id": "trip_44865715_20250408_002",
      "vehicleId": "44865715",
      "driverId": null,
      "startMs": 1744124700000,
      "endMs": 1744126747765,
      "startAddress": "6008 Johnson Crossroad Suite 239",
      "endAddress": "217 Hernandez Mission Suite 298",
      "startCoords": {
        "latitude": 35.146246,
        "longitude": -106.539459
      },
      "endCoords": {
        "latitude": 35.155895,
        "longitude": -106.691824
      },
      "distanceMeters": 11621.6,
      "durationMs": 2047766,
      "drivingDurationMs": 1675935,
      "idlingDurationMs": 371831,
      "fuelConsumedMl": 1476,
      "fuelConsumedGallons": 0.39,
      "maxSpeedMph": 53.1,
      "averageSpeedMph": 12.7,
      "safetyEvents": []
    },
    {
      "id": "trip_44865715_20250408_003",
      "vehicleId": "44865715",
      "driverId": "20000046",
      "startMs": 1744130580000,
      "endMs": 1744132461715,
      "startAddress": "097 Roger Village",
      "endAddress": "6766 Campbell Route",
      "startCoords": {
        "latitude": 35.123647,
        "longitude": -106.710935
      },
      "endCoords": {
        "latitude": 35.111701,
        "longitude": -106.624199
      },
      "distanceMeters": 9454.1,
      "durationMs": 1881716,
      "drivingDurationMs": 1639342,
      "idlingDurationMs": 242374,
      "fuelConsumedMl": 1204,
      "fuelConsumedGallons": 0.318,
      "maxSpeedMph": 71.8,
      "averageSpeedMph": 11.2,
      "safetyEvents": [
        {
          "type": "speeding",
          "startMs": 1744131120000,
          "maxSpeedMph": 71.8
        }
      ]
    },
    {
      "id": "trip_44865715_20250408_004",
      "vehicleId": "44865715",
      "driverId": "20000046",
      "startMs": 1744137600000,
      "endMs": 1744142074463,
      "startAddress": "393 Vega Place",
      "endAddress": "86402 Lisa Track Suite 314",
      "startCoords": {
        "latitude": 35.064799,
        "longitude": -106.578954
      },
      "endCoords": {
        "latitude": 35.135835,
        "longitude": -106.569218
      },
      "distanceMeters": 32217.7,
      "durationMs": 4474464,
      "drivingDurationMs": 3917800,
      "idlingDurationMs": 556664,
      "fuelConsumedMl": 4096,
      "fuelConsumedGallons": 1.082,
      "maxSpeedMph": 52.2,
      "averageSpeedMph": 16.1,
      "safetyEvents": []
    },
    {
      "id": "trip_44865715_20250409_001",
      "vehicleId": "44865715",
      "driverId": "20000045",
      "startMs": 1744187640000,
      "endMs": 1744198655069,
      "startAddress": "821 Ferguson Grove Apt. 594",
      "endAddress": "519 William Islands",
      "startCoords": {
        "latitude": 35.067571,
        "longitude": -106.643743
      },
      "endCoords": {
        "latitude": 35.148493,
        "longitude": -106.546102
      },
      "distanceMeters": 63292.8,
      "durationMs": 11015070,
      "drivingDurationMs": 9615419,
      "idlingDurationMs": 1399650,
      "fuelConsumedMl": 8048,
      "fuelConsumedGallons": 2.126,
      "maxSpeedMph": 68.4,
      "averageSpeedMph": 12.9,
      "safetyEvents": [
        {
          "type": "speeding",
          "startMs": 1744194780000,
          "maxSpeedMph": 68.4
        }
      ]
    },
    {
      "id": "trip_44865715_20250409_002",
      "vehicleId": "44865715",
      "driverId": "20000045",
      "startMs": 1744211700000,
      "endMs": 1744213612381,
      "startAddress": "70311 Zamora River Apt. 763",
      "endAddress": "3755 Lopez Trafficway",
      "startCoords": {
        "latitude": 35.145912,
        "longitude": -106.620027
      },
      "endCoords": {
        "latitude": 35.139272,
        "longitude": -106.707159
      },
      "distanceMeters": 11736.9,
      "durationMs": 1912382,
      "drivingDurationMs": 1664924,
      "idlingDurationMs": 247458,
      "fuelConsumedMl": 1491,
      "fuelConsumedGallons": 0.394,
      "maxSpeedMph": 71.7,
      "averageSpeedMph": 13.7,
      "safetyEvents": [
        {
          "type": "speeding",
          "startMs": 1744213260000,
          "maxSpeedMph": 71.7
        }
      ]
    },
    {
      "id": "trip_44865715_20250409_003",
      "vehicleId": "44865715",
      "driverId": "20000045",
      "startMs": 1744209120000,
      "endMs": 1744221568984,
      "startAddress": "0347 Carroll Harbors",
      "endAddress": "21448 Dominique Vista Apt. 523",
      "startCoords": {
        "latitude": 35.166205,
        "longitude": -106.614306
      },
      "endCoords": {
        "latitude": 35.045209,
        "longitude": -106.542904
      },
      "distanceMeters": 72455.7,
      "durationMs": 12448985,
      "drivingDurationMs": 10182423,
      "idlingDurationMs": 2266562,
      "fuelConsumedMl": 9214,
      "fuelConsumedGallons": 2.434,
      "maxSpeedMph": 31.1,
      "averageSpeedMph": 13.0,
      "safetyEvents": []
    },
    {
      "id": "trip_44865715_20250409_004",
      "vehicleId": "44865715",
      "driverId": "20000045",
      "startMs": 1744215300000,
      "endMs": 1744219315043,
      "startAddress": "1375 Larson Common",
      "endAddress": "28103 Phillips Summit",
      "startCoords": {
        "latitude": 35.06863,
        "longitude": -106.676694
      },
      "endCoords": {
        "latitude": 35.121497,
        "longitude": -106.665345
      },
      "distanceMeters": 26514.0,
      "durationMs": 4015044,
      "drivingDurationMs": 3705297,
      "idlingDurationMs": 309747,
      "fuelConsumedMl": 3373,
      "fuelConsumedGallons": 0.891,
      "maxSpeedMph": 36.8,
      "averageSpeedMph": 14.8,
      "safetyEvents": []
    },
    {
      "id": "trip_44865715_20250409_005",
      "vehicleId": "44865715",
      "driverId": "20000045",
      "startMs": 1744190580000,
      "endMs": 1744198625032,
      "startAddress": "3756 Simmons Corners Suite 823",
      "endAddress": "0369 Taylor Knoll",
      "startCoords": {
        "latitude": 35.129813,
        "longitude": -106.559595
      },
      "endCoords": {
        "latitude": 35.145857,
        "longitude": -106.624327
      },
      "distanceMeters": 49046.4,
      "durationMs": 8045033,
      "drivingDurationMs": 7560719,
      "idlingDurationMs": 484313,
      "fuelConsumedMl": 6235,
      "fuelConsumedGallons": 1.647,
      "maxSpeedMph": 66.8,
      "averageSpeedMph": 13.6,
      "safetyEvents": [
        {
          "type": "speeding",
          "startMs": 1744190880000,
          "maxSpeedMph": 66.8
        }
      ]
    },
    {
      "id": "trip_44865715_20250410_001",
      "vehicleId": "44865715",
      "driverId": "20000044",
      "startMs": 1744304880000,
      "endMs": 1744306080912,
      "startAddress": "8334 Smith Greens Apt. 339",
      "endAddress": "03901 Mitchell Garden Suite 913",
      "startCoords": {
        "latitude": 35.065586,
        "longitude": -106.678921
      },
      "endCoords": {
        "latitude": 35.087651,
        "longitude": -106.664747
      },
      "distanceMeters": 8237.0,
      "durationMs": 1200913,
      "drivingDurationMs": 984949,
      "idlingDurationMs": 215964,
      "fuelConsumedMl": 1049,
      "fuelConsumedGallons": 0.277,
      "maxSpeedMph": 38.9,
      "averageSpeedMph": 15.3,
      "safetyEvents": []
    },
    {
      "id": "trip_44865715_20250410_002",
      "vehicleId": "44865715",
      "driverId": "20000044",
      "startMs": 1744290840000,
      "endMs": 1744299500635,
      "startAddress": "949 Becker Center",
      "endAddress": "9315 Michael Mountain Suite 317",
      "startCoords": {
        "latitude": 35.135673,
        "longitude": -106.693133
      },
      "endCoords": {
        "latitude": 35.170037,
        "longitude": -106.537269
      },
      "distanceMeters": 56080.2,
      "durationMs": 8660636,
      "drivingDurationMs": 7465304,
      "idlingDurationMs": 1195332,
      "fuelConsumedMl": 7132,
      "fuelConsumedGallons": 1.884,
      "maxSpeedMph": 53.4,
      "averageSpeedMph": 14.5,
      "safetyEvents": []
    },
    {
      "id": "trip_44865715_20250410_003",
      "vehicleId": "44865715",
      "driverId": "20000044",
      "startMs": 1744284960000,
      "endMs": 1744289855534,
      "startAddress": "1464 Green Village",
      "endAddress": "35569 Baird Streets",
      "startCoords": {
        "latitude": 35.167002,
        "longitude": -106.626001
      },
      "endCoords": {
        "latitude": 35.067587,
        "longitude": -106.55751
      },
      "distanceMeters": 35585.2,
      "durationMs": 4895534,
      "drivingDurationMs": 4630761,
      "idlingDurationMs": 264773,
      "fuelConsumedMl": 4524,
      "fuelConsumedGallons": 1.195,
      "maxSpeedMph": 67.8,
      "averageSpeedMph": 16.3,
      "safetyEvents": [
        {
          "type": "speeding",
          "startMs": 1744289400000,
          "maxSpeedMph": 67.8
        }
      ]
    },
    {
      "id": "trip_44865715_20250411_001",
      "vehicleId": "44865715",
      "driverId": "20000044",
      "startMs": 1744389240000,
      "endMs": 1744391573217,
      "startAddress": "668 King Plains",
      "endAddress": "75236 Burke Oval",
      "startCoords": {
        "latitude": 35.117647,
        "longitude": -106.708205
      },
      "endCoords": {
        "latitude": 35.140484,
        "longitude": -106.647849
      },
      "distanceMeters": 10341.6,
      "durationMs": 2333217,
      "drivingDurationMs": 1940717,
      "idlingDurationMs": 392500,
      "fuelConsumedMl": 1314,
      "fuelConsumedGallons": 0.347,
      "maxSpeedMph": 65.5,
      "averageSpeedMph": 9.9,
      "safetyEvents": [
        {
          "type": "speeding",
          "startMs": 1744391400000,
          "maxSpeedMph": 65.5
        }
      ]
    },
    {
      "id": "trip_44865715_20250411_002",
      "vehicleId": "44865715",
      "driverId": "20000044",
      "startMs": 1744374120000,
      "endMs": 1744384170442,
      "startAddress": "007 Bradley Lights Apt. 900",
      "endAddress": "19138 Autumn Roads Apt. 856",
      "startCoords": {
        "latitude": 35.039921,
        "longitude": -106.553281
      },
      "endCoords": {
        "latitude": 35.082917,
        "longitude": -106.646936
      },
      "distanceMeters": 63319.9,
      "durationMs": 10050442,
      "drivingDurationMs": 8723712,
      "idlingDurationMs": 1326730,
      "fuelConsumedMl": 8052,
      "fuelConsumedGallons": 2.127,
      "maxSpeedMph": 68.8,
      "averageSpeedMph": 14.1,
      "safetyEvents": [
        {
          "type": "speeding",
          "startMs": 1744381260000,
          "maxSpeedMph": 68.8
        }
      ]
    },
    {
      "id": "trip_44865715_20250411_003",
      "vehicleId": "44865715",
      "driverId": "20000044",
      "startMs": 1744361100000,
      "endMs": 1744361918788,
      "startAddress": "08345 Elizabeth Mission Suite 724",
      "endAddress": "3893 Laura Mission Suite 163",
      "startCoords": {
        "latitude": 35.122509,
        "longitude": -106.536161
      },
      "endCoords": {
        "latitude": 35.082585,
        "longitude": -106.697092
      },
      "distanceMeters": 5095.3,
      "durationMs": 818788,
      "drivingDurationMs": 650087,
      "idlingDurationMs": 168701,
      "fuelConsumedMl": 647,
      "fuelConsumedGallons": 0.171,
      "maxSpeedMph": 37.3,
      "averageSpeedMph": 13.9,
      "safetyEvents": []
    },
    {
      "id": "trip_44865715_20250411_004",
      "vehicleId": "44865715",
      "driverId": "20000044",
      "startMs": 1744361580000,
      "endMs": 1744365891503,
      "startAddress": "707 Roy Street",
      "endAddress": "899 Paul Walks Suite 994",
      "startCoords": {
        "latitude": 35.150379,
        "longitude": -106.602972
      },
      "endCoords": {
        "latitude": 35.080531,
        "longitude": -106.610713
      },
      "distanceMeters": 21847.2,
      "durationMs": 4311503,
      "drivingDurationMs": 3643531,
      "idlingDurationMs": 667972,
      "fuelConsumedMl": 2778,
      "fuelConsumedGallons": 0.734,
      "maxSpeedMph": 53.0,
      "averageSpeedMph": 11.3,
      "safetyEvents": []
    },
    {
      "id": "trip_44865715_20250412_001",
      "vehicleId": "44865715",
      "driverId": "20000045",
      "startMs": 1744471080000,
      "endMs": 1744486157102,
      "startAddress": "746 Samantha Court Apt. 514",
      "endAddress": "35841 Morgan Manors Apt. 405",
      "startCoords": {
        "latitude": 35.121124,
        "longitude": -106.683071
      },
      "endCoords": {
        "latitude": 35.127891,
        "longitude": -106.581814
      },
      "distanceMeters": 70880.6,
      "durationMs": 15077103,
      "drivingDurationMs": 13101111,
      "idlingDurationMs": 1975992,
      "fuelConsumedMl": 9013,
      "fuelConsumedGallons": 2.381,
      "maxSpeedMph": 42.4,
      "averageSpeedMph": 10.5,
      "safetyEvents": []
    },
    {
      "id": "trip_44865715_20250412_002",
      "vehicleId": "44865715",
      "driverId": "20000045",
      "startMs": 1744469220000,
      "endMs": 1744470303961,
      "startAddress": "8677 Michael Walks Suite 796",
      "endAddress": "4310 Estrada Cliffs Suite 549",
      "startCoords": {
        "latitude": 35.134475,
        "longitude": -106.616183
      },
      "endCoords": {
        "latitude": 35.061694,
        "longitude": -106.651424
      },
      "distanceMeters": 5406.2,
      "durationMs": 1083961,
      "drivingDurationMs": 890872,
      "idlingDurationMs": 193089,
      "fuelConsumedMl": 689,
      "fuelConsumedGallons": 0.182,
      "maxSpeedMph": 34.4,
      "averageSpeedMph": 11.2,
      "safetyEvents": []
    },
    {
      "id": "trip_44865715_20250412_003",
      "vehicleId": "44865715",
      "driverId": "20000045",
      "startMs": 1744483440000,
      "endMs": 1744491600000,
      "startAddress": "38975 Ball Shores",
      "endAddress": "05454 Emily Pike Suite 542",
      "startCoords": {
        "latitude": 35.167881,
        "longitude": -106.551408
      },
      "endCoords": {
        "latitude": 35.126779,
        "longitude": -106.698085
      },
      "distanceMeters": 41929.9,
      "durationMs": 8160000,
      "drivingDurationMs": 7122282,
      "idlingDurationMs": 1037718,
      "fuelConsumedMl": 5330,
      "fuelConsumedGallons": 1.408,
      "maxSpeedMph": 44.8,
      "averageSpeedMph": 11.5,
      "safetyEvents": []
    },
    {
      "id": "trip_44865715_20250413_001",
      "vehicleId": "44865715",
      "driverId": "20000046",
      "startMs": 1744535580000,
      "endMs": 1744545353500,
      "startAddress": "182 Griffin Road Suite 961",
      "endAddress": "62960 Reynolds Cliff",
      "startCoords": {
        "latitude": 35.150158,
        "longitude": -106.665871
      },
      "endCoords": {
        "latitude": 35.156936,
        "longitude": -106.642394
      },
      "distanceMeters": 58066.2,
      "durationMs": 9773501,
      "drivingDurationMs": 8874268,
      "idlingDurationMs": 899233,
      "fuelConsumedMl": 7382,
      "fuelConsumedGallons": 1.95,
      "maxSpeedMph": 48.2,
      "averageSpeedMph": 13.3,
      "safetyEvents": []
    },
    {
      "id": "trip_44865715_20250413_002",
      "vehicleId": "44865715",
      "driverId": "20000046",
      "startMs": 1744554480000,
      "endMs": 1744559560725,
      "startAddress": "73276 Williams Mount Suite 705",
      "endAddress": "360 Harvey Port",
      "startCoords": {
        "latitude": 35.08304,
        "longitude": -106.680412
      },
      "endCoords": {
        "latitude": 35.177872,
        "longitude": -106.569321
      },
      "distanceMeters": 36575.0,
      "durationMs": 5080726,
      "drivingDurationMs": 4668775,
      "idlingDurationMs": 411951,
      "fuelConsumedMl": 4648,
      "fuelConsumedGallons": 1.228,
      "maxSpeedMph": 45.8,
      "averageSpeedMph": 16.1,
      "safetyEvents": []
    },
    {
      "id": "trip_44865715_20250413_003",
      "vehicleId": "44865715",
      "driverId": "20000046",
      "startMs": 1744534200000,
      "endMs": 1744550996012,
      "startAddress": "18618 Jennifer Forges",
      "endAddress": "43595 Dillon Rue Apt. 834",
      "startCoords": {
        "latitude": 35.076193,
        "longitude": -106.57613
      },
      "endCoords": {
        "latitude": 35.040596,
        "longitude": -106.696373
      },
      "distanceMeters": 82764.2,
      "durationMs": 16796013,
      "drivingDurationMs": 14657445,
      "idlingDurationMs": 2138568,
      "fuelConsumedMl": 10523,
      "fuelConsumedGallons": 2.78,
      "maxSpeedMph": 39.6,
      "averageSpeedMph": 11.0,
      "safetyEvents": []
    },
    {
      "id": "trip_44865715_20250413_004",
      "vehicleId": "44865715",
      "driverId": "20000046",
      "startMs": 1744529400000,
      "endMs": 1744538918394,
      "startAddress": "331 Hayes Ramp",
      "endAddress": "59956 Bryan Valley",
      "startCoords": {
        "latitude": 35.153756,
        "longitude": -106.687801
      },
      "endCoords": {
        "latitude": 35.130216,
        "longitude": -106.605881
      },
      "distanceMeters": 57606.7,
      "durationMs": 9518394,
      "drivingDurationMs": 8343028,
      "idlingDurationMs": 1175366,
      "fuelConsumedMl": 7325,
      "fuelConsumedGallons": 1.935,
      "maxSpeedMph": 33.6,
      "averageSpeedMph": 13.5,
      "safetyEvents": []
    },
    {
      "id": "trip_44865715_20250414_001",
      "vehicleId": "44865715",
      "driverId": "20000044",
      "startMs": 1744621200000,
      "endMs": 1744635151407,
      "startAddress": "3811 Taylor Squares",
      "endAddress": "169 Mendoza Plaza",
      "startCoords": {
        "latitude": 35.045531,
        "longitude": -106.715622
      },
      "endCoords": {
        "latitude": 35.085657,
        "longitude": -106.669466
      },
      "distanceMeters": 76933.2,
      "durationMs": 13951408,
      "drivingDurationMs": 13588003,
      "idlingDurationMs": 363404,
      "fuelConsumedMl": 9781,
      "fuelConsumedGallons": 2.584,
      "maxSpeedMph": 30.2,
      "averageSpeedMph": 12.3,
      "safetyEvents": []
    },
    {
      "id": "trip_44865715_20250414_002",
      "vehicleId": "44865715",
      "driverId": "20000044",
      "startMs": 1744630680000,
      "endMs": 1744647604902,
      "startAddress": "836 Kathryn Shoals",
      "endAddress": "658 Donald Spurs Apt. 269",
      "startCoords": {
        "latitude": 35.13508,
        "longitude": -106.719079
      },
      "endCoords": {
        "latitude": 35.180251,
        "longitude": -106.581496
      },
      "distanceMeters": 79166.9,
      "durationMs": 16924903,
      "drivingDurationMs": 14356283,
      "idlingDurationMs": 2568620,
      "fuelConsumedMl": 10065,
      "fuelConsumedGallons": 2.659,
      "maxSpeedMph": 34.8,
      "averageSpeedMph": 10.5,
      "safetyEvents": []
    },
    {
      "id": "trip_44865715_20250415_001",
      "vehicleId": "44865715",
      "driverId": "20000046",
      "startMs": 1744699980000,
      "endMs": 1744707271099,
      "startAddress": "22536 Davis Field",
      "endAddress": "72051 Michael Vista",
      "startCoords": {
        "latitude": 35.052823,
        "longitude": -106.658284
      },
      "endCoords": {
        "latitude": 35.162394,
        "longitude": -106.697214
      },
      "distanceMeters": 51006.2,
      "durationMs": 7291099,
      "drivingDurationMs": 6307510,
      "idlingDurationMs": 983590,
      "fuelConsumedMl": 6484,
      "fuelConsumedGallons": 1.713,
      "maxSpeedMph": 33.3,
      "averageSpeedMph": 15.6,
      "safetyEvents": []
    },
    {
      "id": "trip_44865715_20250415_002",
      "vehicleId": "44865715",
      "driverId": "20000046",
      "startMs": 1744698420000,
      "endMs": 1744710555057,
      "startAddress": "677 Amanda Causeway",
      "endAddress": "68406 Kathleen Union Apt. 421",
      "startCoords": {
        "latitude": 35.05032,
        "longitude": -106.712354
      },
      "endCoords": {
        "latitude": 35.074799,
        "longitude": -106.65852
      },
      "distanceMeters": 63234.0,
      "durationMs": 12135057,
      "drivingDurationMs": 11641439,
      "idlingDurationMs": 493619,
      "fuelConsumedMl": 8040,
      "fuelConsumedGallons": 2.124,
      "maxSpeedMph": 33.3,
      "averageSpeedMph": 11.7,
      "safetyEvents": []
    },
    {
      "id": "trip_44865715_20250415_003",
      "vehicleId": "44865715",
      "driverId": "20000046",
      "startMs": 1744719600000,
      "endMs": 1744720773804,
      "startAddress": "3627 Chapman Mission Suite 154",
      "endAddress": "803 Monique Mission Suite 685",
      "startCoords": {
        "latitude": 35.113153,
        "longitude": -106.599121
      },
      "endCoords": {
        "latitude": 35.114532,
        "longitude": -106.666683
      },
      "distanceMeters": 7324.9,
      "durationMs": 1173804,
      "drivingDurationMs": 982309,
      "idlingDurationMs": 191495,
      "fuelConsumedMl": 931,
      "fuelConsumedGallons": 0.246,
      "maxSpeedMph": 41.4,
      "averageSpeedMph": 14.0,
      "safetyEvents": []
    },
    {
      "id": "trip_44865715_20250415_004",
      "vehicleId": "44865715",
      "driverId": "20000046",
      "startMs": 1744734180000,
      "endMs": 1744743165414,
      "startAddress": "116 Harvey Rue Suite 849",
      "endAddress": "54105 Diana Estates Suite 887",
      "startCoords": {
        "latitude": 35.137984,
        "longitude": -106.583635
      },
      "endCoords": {
        "latitude": 35.123622,
        "longitude": -106.63892
      },
      "distanceMeters": 68147.6,
      "durationMs": 8985414,
      "drivingDurationMs": 8049345,
      "idlingDurationMs": 936069,
      "fuelConsumedMl": 8665,
      "fuelConsumedGallons": 2.289,
      "maxSpeedMph": 40.9,
      "averageSpeedMph": 17.0,
      "safetyEvents": []
    },
    {
      "id": "trip_44865715_20250415_005",
      "vehicleId": "44865715",
      "driverId": "20000046",
      "startMs": 1744729140000,
      "endMs": 1744740063227,
      "startAddress": "72524 Chan Plaza",
      "endAddress": "914 Paul Valleys Apt. 329",
      "startCoords": {
        "latitude": 35.067893,
        "longitude": -106.646431
      },
      "endCoords": {
        "latitude": 35.086096,
        "longitude": -106.679638
      },
      "distanceMeters": 56730.5,
      "durationMs": 10923228,
      "drivingDurationMs": 8755716,
      "idlingDurationMs": 2167512,
      "fuelConsumedMl": 7211,
      "fuelConsumedGallons": 1.905,
      "maxSpeedMph": 68.8,
      "averageSpeedMph": 11.6,
      "safetyEvents": [
        {
          "type": "speeding",
          "startMs": 1744735260000,
          "maxSpeedMph": 68.8
        }
      ]
    },
    {
      "id": "trip_44865715_20250416_001",
      "vehicleId": "44865715",
      "driverId": "20000045",
      "startMs": 1744805040000,
      "endMs": 1744807377158,
      "startAddress": "0554 Reid Drives Suite 452",
      "endAddress": "2401 Mcbride Key",
      "startCoords": {
        "latitude": 35.130636,
        "longitude": -106.557674
      },
      "endCoords": {
        "latitude": 35.06416,
        "longitude": -106.613613
      },
      "distanceMeters": 16815.3,
      "durationMs": 2337159,
      "drivingDurationMs": 2145050,
      "idlingDurationMs": 192109,
      "fuelConsumedMl": 2139,
      "fuelConsumedGallons": 0.565,
      "maxSpeedMph": 66.5,
      "averageSpeedMph": 16.1,
      "safetyEvents": [
        {
          "type": "speeding",
          "startMs": 1744806780000,
          "maxSpeedMph": 66.5
        }
      ]
    },
    {
      "id": "trip_44865715_20250416_002",
      "vehicleId": "44865715",
      "driverId": null,
      "startMs": 1744815000000,
      "endMs": 1744818746523,
      "startAddress": "0506 Matthew Street Apt. 663",
      "endAddress": "18668 Kristine Streets Apt. 773",
      "startCoords": {
        "latitude": 35.073107,
        "longitude": -106.699213
      },
      "endCoords": {
        "latitude": 35.059596,
        "longitude": -106.614777
      },
      "distanceMeters": 18665.7,
      "durationMs": 3746523,
      "drivingDurationMs": 3553059,
      "idlingDurationMs": 193465,
      "fuelConsumedMl": 2373,
      "fuelConsumedGallons": 0.627,
      "maxSpeedMph": 54.6,
      "averageSpeedMph": 11.1,
      "safetyEvents": []
    },
    {
      "id": "trip_44865715_20250417_001",
      "vehicleId": "44865715",
      "driverId": "20000046",
      "startMs": 1744895520000,
      "endMs": 1744899546908,
      "startAddress": "21049 Christine Summit",
      "endAddress": "39838 Sergio Lights Apt. 247",
      "startCoords": {
        "latitude": 35.04245,
        "longitude": -106.561769
      },
      "endCoords": {
        "latitude": 35.090492,
        "longitude": -106.585827
      },
      "distanceMeters": 21134.7,
      "durationMs": 4026908,
      "drivingDurationMs": 3624386,
      "idlingDurationMs": 402522,
      "fuelConsumedMl": 2688,
      "fuelConsumedGallons": 0.71,
      "maxSpeedMph": 41.1,
      "averageSpeedMph": 11.7,
      "safetyEvents": []
    },
    {
      "id": "trip_44865715_20250417_002",
      "vehicleId": "44865715",
      "driverId": "20000046",
      "startMs": 1744873080000,
      "endMs": 1744881624207,
      "startAddress": "856 Troy Fall",
      "endAddress": "5336 Simmons Harbor Apt. 710",
      "startCoords": {
        "latitude": 35.055794,
        "longitude": -106.677487
      },
      "endCoords": {
        "latitude": 35.098765,
        "longitude": -106.664133
      },
      "distanceMeters": 36616.9,
      "durationMs": 8544207,
      "drivingDurationMs": 6996581,
      "idlingDurationMs": 1547626,
      "fuelConsumedMl": 4656,
      "fuelConsumedGallons": 1.23,
      "maxSpeedMph": 57.1,
      "averageSpeedMph": 9.6,
      "safetyEvents": []
    },
    {
      "id": "trip_44865715_20250417_003",
      "vehicleId": "44865715",
      "driverId": "20000046",
      "startMs": 1744908060000,
      "endMs": 1744912817114,
      "startAddress": "5509 Brian Land Apt. 081",
      "endAddress": "520 Harrison Branch Apt. 785",
      "startCoords": {
        "latitude": 35.163961,
        "longitude": -106.679522
      },
      "endCoords": {
        "latitude": 35.11878,
        "longitude": -106.573559
      },
      "distanceMeters": 31436.2,
      "durationMs": 4757114,
      "drivingDurationMs": 3842229,
      "idlingDurationMs": 914885,
      "fuelConsumedMl": 3997,
      "fuelConsumedGallons": 1.056,
      "maxSpeedMph": 66.0,
      "averageSpeedMph": 14.8,
      "safetyEvents": [
        {
          "type": "speeding",
          "startMs": 1744908960000,
          "maxSpeedMph": 66.0
        }
      ]
    },
    {
      "id": "trip_44865715_20250417_004",
      "vehicleId": "44865715",
      "driverId": "20000046",
      "startMs": 1744882860000,
      "endMs": 1744887630975,
      "startAddress": "918 Justin Crescent Suite 232",
      "endAddress": "37904 Sara Vista Apt. 224",
      "startCoords": {
        "latitude": 35.143979,
        "longitude": -106.693819
      },
      "endCoords": {
        "latitude": 35.155404,
        "longitude": -106.554194
      },
      "distanceMeters": 32279.5,
      "durationMs": 4770975,
      "drivingDurationMs": 4474919,
      "idlingDurationMs": 296056,
      "fuelConsumedMl": 4103,
      "fuelConsumedGallons": 1.084,
      "maxSpeedMph": 53.3,
      "averageSpeedMph": 15.1,
      "safetyEvents": []
    },
    {
      "id": "trip_44865715_20250417_005",
      "vehicleId": "44865715",
      "driverId": "20000046",
      "startMs": 1744910940000,
      "endMs": 1744921743288,
      "startAddress": "4131 Camacho Wells",
      "endAddress": "536 Murray Wells Suite 675",
      "startCoords": {
        "latitude": 35.147602,
        "longitude": -106.654313
      },
      "endCoords": {
        "latitude": 35.075678,
        "longitude": -106.597265
      },
      "distanceMeters": 63655.9,
      "durationMs": 10803289,
      "drivingDurationMs": 9317739,
      "idlingDurationMs": 1485549,
      "fuelConsumedMl": 8093,
      "fuelConsumedGallons": 2.138,
      "maxSpeedMph": 30.0,
      "averageSpeedMph": 13.2,
      "safetyEvents": []
    },
    {
      "id": "trip_44865715_20250417_006",
      "vehicleId": "44865715",
      "driverId": "20000046",
      "startMs": 1744900920000,
      "endMs": 1744902379810,
      "startAddress": "819 Jamie Avenue",
      "endAddress": "74884 Thomas Radial",
      "startCoords": {
        "latitude": 35.181479,
        "longitude": -106.656412
      },
      "endCoords": {
        "latitude": 35.065132,
        "longitude": -106.66256
      },
      "distanceMeters": 10092.3,
      "durationMs": 1459810,
      "drivingDurationMs": 1239873,
      "idlingDurationMs": 219937,
      "fuelConsumedMl": 1283,
      "fuelConsumedGallons": 0.339,
      "maxSpeedMph": 33.3,
      "averageSpeedMph": 15.5,
      "safetyEvents": []
    },
    {
      "id": "trip_44865715_20250418_001",
      "vehicleId": "44865715",
      "driverId": "20000045",
      "startMs": 1744965000000,
      "endMs": 1744971618430,
      "startAddress": "8366 James Place",
      "endAddress": "28559 Garcia Mews Suite 013",
      "startCoords": {
        "latitude": 35.150374,
        "longitude": -106.659902
      },
      "endCoords": {
        "latitude": 35.087827,
        "longitude": -106.715077
      },
      "distanceMeters": 34152.4,
      "durationMs": 6618431,
      "drivingDurationMs": 6006560,
      "idlingDurationMs": 611871,
      "fuelConsumedMl": 4342,
      "fuelConsumedGallons": 1.147,
      "maxSpeedMph": 52.0,
      "averageSpeedMph": 11.5,
      "safetyEvents": []
    },
    {
      "id": "trip_44865715_20250418_002",
      "vehicleId": "44865715",
      "driverId": "20000045",
      "startMs": 1744966200000,
      "endMs": 1744971462451,
      "startAddress": "4022 Greer Mountain",
      "endAddress": "008 Campbell Plaza Apt. 383",
      "startCoords": {
        "latitude": 35.13295,
        "longitude": -106.558696
      },
      "endCoords": {
        "latitude": 35.134426,
        "longitude": -106.690895
      },
      "distanceMeters": 25454.6,
      "durationMs": 5262452,
      "drivingDurationMs": 4737876,
      "idlingDurationMs": 524576,
      "fuelConsumedMl": 3237,
      "fuelConsumedGallons": 0.855,
      "maxSpeedMph": 68.5,
      "averageSpeedMph": 10.8,
      "safetyEvents": [
        {
          "type": "speeding",
          "startMs": 1744967820000,
          "maxSpeedMph": 68.5
        }
      ]
    },
    {
      "id": "trip_44865715_20250418_003",
      "vehicleId": "44865715",
      "driverId": "20000045",
      "startMs": 1744991340000,
      "endMs": 1744992400105,
      "startAddress": "0805 Christie Orchard",
      "endAddress": "96777 Francis Inlet Suite 540",
      "startCoords": {
        "latitude": 35.110057,
        "longitude": -106.62951
      },
      "endCoords": {
        "latitude": 35.113856,
        "longitude": -106.635007
      },
      "distanceMeters": 6787.8,
      "durationMs": 1060105,
      "drivingDurationMs": 859108,
      "idlingDurationMs": 200997,
      "fuelConsumedMl": 863,
      "fuelConsumedGallons": 0.228,
      "maxSpeedMph": 42.2,
      "averageSpeedMph": 14.3,
      "safetyEvents": []
    },
    {
      "id": "trip_44865715_20250418_004",
      "vehicleId": "44865715",
      "driverId": null,
      "startMs": 1745001180000,
      "endMs": 1745004939130,
      "startAddress": "7258 Sarah Shore Suite 325",
      "endAddress": "212 Jake Manors Apt. 360",
      "startCoords": {
        "latitude": 35.154618,
        "longitude": -106.594574
      },
      "endCoords": {
        "latitude": 35.178144,
        "longitude": -106.62302
      },
      "distanceMeters": 21822.2,
      "durationMs": 3759130,
      "drivingDurationMs": 3384278,
      "idlingDurationMs": 374852,
      "fuelConsumedMl": 2775,
      "fuelConsumedGallons": 0.733,
      "maxSpeedMph": 41.4,
      "averageSpeedMph": 13.0,
      "safetyEvents": []
    },
    {
      "id": "trip_44865715_20250419_001",
      "vehicleId": "44865715",
      "driverId": "20000045",
      "startMs": 1745057580000,
      "endMs": 1745064706224,
      "startAddress": "6697 Debra Forges",
      "endAddress": "564 Floyd Island",
      "startCoords": {
        "latitude": 35.179774,
        "longitude": -106.702542
      },
      "endCoords": {
        "latitude": 35.098838,
        "longitude": -106.673724
      },
      "distanceMeters": 57810.5,
      "durationMs": 7126224,
      "drivingDurationMs": 6634646,
      "idlingDurationMs": 491578,
      "fuelConsumedMl": 7351,
      "fuelConsumedGallons": 1.942,
      "maxSpeedMph": 44.6,
      "averageSpeedMph": 18.1,
      "safetyEvents": []
    },
    {
      "id": "trip_44865715_20250419_002",
      "vehicleId": "44865715",
      "driverId": "20000045",
      "startMs": 1745086860000,
      "endMs": 1745093457884,
      "startAddress": "2490 Michael Mews",
      "endAddress": "2444 Adam Gardens Suite 236",
      "startCoords": {
        "latitude": 35.147196,
        "longitude": -106.723086
      },
      "endCoords": {
        "latitude": 35.113288,
        "longitude": -106.718166
      },
      "distanceMeters": 35367.7,
      "durationMs": 6597885,
      "drivingDurationMs": 6147682,
      "idlingDurationMs": 450202,
      "fuelConsumedMl": 4497,
      "fuelConsumedGallons": 1.188,
      "maxSpeedMph": 58.3,
      "averageSpeedMph": 12.0,
      "safetyEvents": []
    },
    {
      "id": "trip_44865715_20250419_003",
      "vehicleId": "44865715",
      "driverId": "20000045",
      "startMs": 1745086560000,
      "endMs": 1745096400000,
      "startAddress": "8919 Miller Coves Suite 436",
      "endAddress": "9444 Harvey Terrace Suite 477",
      "startCoords": {
        "latitude": 35.07684,
        "longitude": -106.652206
      },
      "endCoords": {
        "latitude": 35.150616,
        "longitude": -106.651935
      },
      "distanceMeters": 50095.2,
      "durationMs": 9840000,
      "drivingDurationMs": 7872000,
      "idlingDurationMs": 1968000,
      "fuelConsumedMl": 6371,
      "fuelConsumedGallons": 1.683,
      "maxSpeedMph": 39.0,
      "averageSpeedMph": 11.4,
      "safetyEvents": []
    },
    {
      "id": "trip_44865715_20250420_001",
      "vehicleId": "44865715",
      "driverId": "20000046",
      "startMs": 1745149860000,
      "endMs": 1745164916108,
      "startAddress": "2344 Kevin Mall Suite 885",
      "endAddress": "818 Long Shores Suite 295",
      "startCoords": {
        "latitude": 35.089421,
        "longitude": -106.613606
      },
      "endCoords": {
        "latitude": 35.176314,
        "longitude": -106.706631
      },
      "distanceMeters": 81856.4,
      "durationMs": 15056109,
      "drivingDurationMs": 13858238,
      "idlingDurationMs": 1197871,
      "fuelConsumedMl": 10406,
      "fuelConsumedGallons": 2.749,
      "maxSpeedMph": 31.2,
      "averageSpeedMph": 12.2,
      "safetyEvents": []
    },
    {
      "id": "trip_44865715_20250420_002",
      "vehicleId": "44865715",
      "driverId": "20000046",
      "startMs": 1745133000000,
      "endMs": 1745140345012,
      "startAddress": "817 Lawrence Drives Apt. 157",
      "endAddress": "0805 Mccoy Mills Suite 569",
      "startCoords": {
        "latitude": 35.107909,
        "longitude": -106.591614
      },
      "endCoords": {
        "latitude": 35.041352,
        "longitude": -106.674833
      },
      "distanceMeters": 61272.7,
      "durationMs": 7345012,
      "drivingDurationMs": 7063096,
      "idlingDurationMs": 281916,
      "fuelConsumedMl": 7790,
      "fuelConsumedGallons": 2.058,
      "maxSpeedMph": 29.2,
      "averageSpeedMph": 18.7,
      "safetyEvents": []
    },
    {
      "id": "trip_44865715_20250421_001",
      "vehicleId": "44865715",
      "driverId": "20000044",
      "startMs": 1745252820000,
      "endMs": 1745258371075,
      "startAddress": "960 Contreras Tunnel",
      "endAddress": "399 Robert Plain",
      "startCoords": {
        "latitude": 35.152121,
        "longitude": -106.558896
      },
      "endCoords": {
        "latitude": 35.089816,
        "longitude": -106.54506
      },
      "distanceMeters": 44471.3,
      "durationMs": 5551076,
      "drivingDurationMs": 5288912,
      "idlingDurationMs": 262163,
      "fuelConsumedMl": 5655,
      "fuelConsumedGallons": 1.494,
      "maxSpeedMph": 58.0,
      "averageSpeedMph": 17.9,
      "safetyEvents": []
    },
    {
      "id": "trip_44865715_20250421_002",
      "vehicleId": "44865715",
      "driverId": "20000044",
      "startMs": 1745239260000,
      "endMs": 1745247633213,
      "startAddress": "2744 Nielsen Mountain",
      "endAddress": "7234 Ronald Flat Suite 661",
      "startCoords": {
        "latitude": 35.094199,
        "longitude": -106.706374
      },
      "endCoords": {
        "latitude": 35.054565,
        "longitude": -106.649285
      },
      "distanceMeters": 65683.6,
      "durationMs": 8373213,
      "drivingDurationMs": 8039413,
      "idlingDurationMs": 333800,
      "fuelConsumedMl": 8351,
      "fuelConsumedGallons": 2.206,
      "maxSpeedMph": 37.8,
      "averageSpeedMph": 17.5,
      "safetyEvents": []
    },
    {
      "id": "trip_44865715_20250421_003",
      "vehicleId": "44865715",
      "driverId": "20000044",
      "startMs": 1745224980000,
      "endMs": 1745233146978,
      "startAddress": "11183 Vincent Stravenue Apt. 428",
      "endAddress": "507 Frances Valleys Apt. 860",
      "startCoords": {
        "latitude": 35.106032,
        "longitude": -106.573511
      },
      "endCoords": {
        "latitude": 35.059788,
        "longitude": -106.721377
      },
      "distanceMeters": 37599.2,
      "durationMs": 8166979,
      "drivingDurationMs": 6928389,
      "idlingDurationMs": 1238590,
      "fuelConsumedMl": 4781,
      "fuelConsumedGallons": 1.263,
      "maxSpeedMph": 67.7,
      "averageSpeedMph": 10.3,
      "safetyEvents": [
        {
          "type": "speeding",
          "startMs": 1745227380000,
          "maxSpeedMph": 67.7
        }
      ]
    },
    {
      "id": "trip_44865715_20250421_004",
      "vehicleId": "44865715",
      "driverId": "20000044",
      "startMs": 1745244840000,
      "endMs": 1745251226255,
      "startAddress": "89959 Nixon Trace",
      "endAddress": "620 Rodriguez Valleys Suite 616",
      "startCoords": {
        "latitude": 35.106842,
        "longitude": -106.582216
      },
      "endCoords": {
        "latitude": 35.140344,
        "longitude": -106.671731
      },
      "distanceMeters": 34140.5,
      "durationMs": 6386256,
      "drivingDurationMs": 5912670,
      "idlingDurationMs": 473586,
      "fuelConsumedMl": 4342,
      "fuelConsumedGallons": 1.147,
      "maxSpeedMph": 50.8,
      "averageSpeedMph": 12.0,
      "safetyEvents": []
    },
    {
      "id": "trip_44865715_20250422_001",
      "vehicleId": "44865715",
      "driverId": "20000046",
      "startMs": 1745328480000,
      "endMs": 1745337084688,
      "startAddress": "91456 Vargas Rapids Apt. 578",
      "endAddress": "573 Brown Crest Apt. 891",
      "startCoords": {
        "latitude": 35.178448,
        "longitude": -106.6191
      },
      "endCoords": {
        "latitude": 35.148008,
        "longitude": -106.569548
      },
      "distanceMeters": 69175.2,
      "durationMs": 8604688,
      "drivingDurationMs": 7823218,
      "idlingDurationMs": 781470,
      "fuelConsumedMl": 8794,
      "fuelConsumedGallons": 2.323,
      "maxSpeedMph": 67.1,
      "averageSpeedMph": 18.0,
      "safetyEvents": [
        {
          "type": "speeding",
          "startMs": 1745331300000,
          "maxSpeedMph": 67.1
        }
      ]
    },
    {
      "id": "trip_44865715_20250422_002",
      "vehicleId": "44865715",
      "driverId": "20000046",
      "startMs": 1745330820000,
      "endMs": 1745333210600,
      "startAddress": "5058 Crystal Glen Suite 583",
      "endAddress": "3886 James Unions Apt. 230",
      "startCoords": {
        "latitude": 35.079025,
        "longitude": -106.643785
      },
      "endCoords": {
        "latitude": 35.043171,
        "longitude": -106.580049
      },
      "distanceMeters": 16541.1,
      "durationMs": 2390601,
      "drivingDurationMs": 1973252,
      "idlingDurationMs": 417348,
      "fuelConsumedMl": 2105,
      "fuelConsumedGallons": 0.556,
      "maxSpeedMph": 34.8,
      "averageSpeedMph": 15.5,
      "safetyEvents": []
    },
    {
      "id": "trip_44865715_20250423_001",
      "vehicleId": "44865715",
      "driverId": null,
      "startMs": 1745400000000,
      "endMs": 1745413709794,
      "startAddress": "992 Nicole Extension Apt. 505",
      "endAddress": "330 Harrington Mill Apt. 375",
      "startCoords": {
        "latitude": 35.09841,
        "longitude": -106.706622
      },
      "endCoords": {
        "latitude": 35.080261,
        "longitude": -106.553409
      },
      "distanceMeters": 68736.5,
      "durationMs": 13709794,
      "drivingDurationMs": 11173859,
      "idlingDurationMs": 2535935,
      "fuelConsumedMl": 8741,
      "fuelConsumedGallons": 2.309,
      "maxSpeedMph": 47.5,
      "averageSpeedMph": 11.2,
      "safetyEvents": []
    },
    {
      "id": "trip_44865715_20250423_002",
      "vehicleId": "44865715",
      "driverId": "20000045",
      "startMs": 1745407620000,
      "endMs": 1745412910981,
      "startAddress": "6921 Peters Lake",
      "endAddress": "1158 Evans Creek",
      "startCoords": {
        "latitude": 35.081715,
        "longitude": -106.699252
      },
      "endCoords": {
        "latitude": 35.038479,
        "longitude": -106.575509
      },
      "distanceMeters": 34386.9,
      "durationMs": 5290981,
      "drivingDurationMs": 4744367,
      "idlingDurationMs": 546614,
      "fuelConsumedMl": 4372,
      "fuelConsumedGallons": 1.155,
      "maxSpeedMph": 67.1,
      "averageSpeedMph": 14.5,
      "safetyEvents": [
        {
          "type": "speeding",
          "startMs": 1745408100000,
          "maxSpeedMph": 67.1
        }
      ]
    },
    {
      "id": "trip_44865715_20250423_003",
      "vehicleId": "44865715",
      "driverId": "20000045",
      "startMs": 1745432460000,
      "endMs": 1745440107321,
      "startAddress": "01224 Hoover Creek",
      "endAddress": "0418 Jessica Summit Suite 983",
      "startCoords": {
        "latitude": 35.164389,
        "longitude": -106.704247
      },
      "endCoords": {
        "latitude": 35.172188,
        "longitude": -106.613153
      },
      "distanceMeters": 52670.0,
      "durationMs": 7647321,
      "drivingDurationMs": 6133778,
      "idlingDurationMs": 1513543,
      "fuelConsumedMl": 6696,
      "fuelConsumedGallons": 1.769,
      "maxSpeedMph": 66.6,
      "averageSpeedMph": 15.4,
      "safetyEvents": [
        {
          "type": "speeding",
          "startMs": 1745439540000,
          "maxSpeedMph": 66.6
        }
      ]
    },
    {
      "id": "trip_44865715_20250423_004",
      "vehicleId": "44865715",
      "driverId": "20000045",
      "startMs": 1745403420000,
      "endMs": 1745408398723,
      "startAddress": "202 Stephanie Highway",
      "endAddress": "4758 Gina Keys Suite 655",
      "startCoords": {
        "latitude": 35.180775,
        "longitude": -106.720402
      },
      "endCoords": {
        "latitude": 35.176593,
        "longitude": -106.675759
      },
      "distanceMeters": 31088.9,
      "durationMs": 4978724,
      "drivingDurationMs": 4631318,
      "idlingDurationMs": 347405,
      "fuelConsumedMl": 3952,
      "fuelConsumedGallons": 1.044,
      "maxSpeedMph": 56.4,
      "averageSpeedMph": 14.0,
      "safetyEvents": []
    },
    {
      "id": "trip_44865715_20250424_001",
      "vehicleId": "44865715",
      "driverId": "20000046",
      "startMs": 1745488260000,
      "endMs": 1745499635639,
      "startAddress": "6721 Jeffery Mill Apt. 016",
      "endAddress": "26309 Allen Loop Suite 561",
      "startCoords": {
        "latitude": 35.171999,
        "longitude": -106.700798
      },
      "endCoords": {
        "latitude": 35.126616,
        "longitude": -106.704538
      },
      "distanceMeters": 78345.2,
      "durationMs": 11375640,
      "drivingDurationMs": 9523934,
      "idlingDurationMs": 1851706,
      "fuelConsumedMl": 9959,
      "fuelConsumedGallons": 2.631,
      "maxSpeedMph": 40.4,
      "averageSpeedMph": 15.4,
      "safetyEvents": []
    },
    {
      "id": "trip_44865715_20250424_002",
      "vehicleId": "44865715",
      "driverId": "20000046",
      "startMs": 1745478900000,
      "endMs": 1745483310422,
      "startAddress": "70254 Hoffman Junctions",
      "endAddress": "7777 Holly Plains",
      "startCoords": {
        "latitude": 35.077649,
        "longitude": -106.669525
      },
      "endCoords": {
        "latitude": 35.057382,
        "longitude": -106.588061
      },
      "distanceMeters": 26629.4,
      "durationMs": 4410423,
      "drivingDurationMs": 3559585,
      "idlingDurationMs": 850838,
      "fuelConsumedMl": 3384,
      "fuelConsumedGallons": 0.894,
      "maxSpeedMph": 59.3,
      "averageSpeedMph": 13.5,
      "safetyEvents": []
    },
    {
      "id": "trip_44865715_20250424_003",
      "vehicleId": "44865715",
      "driverId": "20000046",
      "startMs": 1745475960000,
      "endMs": 1745483330745,
      "startAddress": "1189 Bradshaw Squares Suite 087",
      "endAddress": "51840 Moore Summit",
      "startCoords": {
        "latitude": 35.055968,
        "longitude": -106.557724
      },
      "endCoords": {
        "latitude": 35.08005,
        "longitude": -106.620517
      },
      "distanceMeters": 37863.2,
      "durationMs": 7370745,
      "drivingDurationMs": 7061206,
      "idlingDurationMs": 309540,
      "fuelConsumedMl": 4815,
      "fuelConsumedGallons": 1.272,
      "maxSpeedMph": 32.8,
      "averageSpeedMph": 11.5,
      "safetyEvents": []
    },
    {
      "id": "trip_44865715_20250424_004",
      "vehicleId": "44865715",
      "driverId": "20000046",
      "startMs": 1745502120000,
      "endMs": 1745519055133,
      "startAddress": "737 Amber Spur Suite 523",
      "endAddress": "1662 May Ramp",
      "startCoords": {
        "latitude": 35.040239,
        "longitude": -106.653197
      },
      "endCoords": {
        "latitude": 35.040703,
        "longitude": -106.553186
      },
      "distanceMeters": 76258.2,
      "durationMs": 16935133,
      "drivingDurationMs": 14167139,
      "idlingDurationMs": 2767995,
      "fuelConsumedMl": 9694,
      "fuelConsumedGallons": 2.561,
      "maxSpeedMph": 38.1,
      "averageSpeedMph": 10.1,
      "safetyEvents": []
    },
    {
      "id": "trip_44865715_20250424_005",
      "vehicleId": "44865715",
      "driverId": "20000046",
      "startMs": 1745490360000,
      "endMs": 1745499980023,
      "startAddress": "1561 Spencer Junction Suite 730",
      "endAddress": "8116 Adams Field",
      "startCoords": {
        "latitude": 35.159175,
        "longitude": -106.644476
      },
      "endCoords": {
        "latitude": 35.05187,
        "longitude": -106.574759
      },
      "distanceMeters": 58464.6,
      "durationMs": 9620023,
      "drivingDurationMs": 8186754,
      "idlingDurationMs": 1433269,
      "fuelConsumedMl": 7435,
      "fuelConsumedGallons": 1.964,
      "maxSpeedMph": 71.7,
      "averageSpeedMph": 13.6,
      "safetyEvents": [
        {
          "type": "speeding",
          "startMs": 1745493060000,
          "maxSpeedMph": 71.7
        }
      ]
    },
    {
      "id": "trip_44865715_20250425_001",
      "vehicleId": "44865715",
      "driverId": "20000044",
      "startMs": 1745564880000,
      "endMs": 1745570863722,
      "startAddress": "108 Susan Turnpike",
      "endAddress": "66628 Christopher Stravenue Apt. 715",
      "startCoords": {
        "latitude": 35.050896,
        "longitude": -106.567694
      },
      "endCoords": {
        "latitude": 35.135816,
        "longitude": -106.634062
      },
      "distanceMeters": 44122.7,
      "durationMs": 5983723,
      "drivingDurationMs": 5583109,
      "idlingDurationMs": 400613,
      "fuelConsumedMl": 5610,
      "fuelConsumedGallons": 1.482,
      "maxSpeedMph": 39.7,
      "averageSpeedMph": 16.5,
      "safetyEvents": []
    },
    {
      "id": "trip_44865715_20250425_002",
      "vehicleId": "44865715",
      "driverId": "20000044",
      "startMs": 1745575380000,
      "endMs": 1745583190675,
      "startAddress": "03787 Jennifer Mission",
      "endAddress": "78853 Michael Forge",
      "startCoords": {
        "latitude": 35.078949,
        "longitude": -106.562364
      },
      "endCoords": {
        "latitude": 35.123506,
        "longitude": -106.608258
      },
      "distanceMeters": 58215.0,
      "durationMs": 7810676,
      "drivingDurationMs": 6617558,
      "idlingDurationMs": 1193117,
      "fuelConsumedMl": 7400,
      "fuelConsumedGallons": 1.955,
      "maxSpeedMph": 50.3,
      "averageSpeedMph": 16.7,
      "safetyEvents": []
    },
    {
      "id": "trip_44865715_20250425_003",
      "vehicleId": "44865715",
      "driverId": "20000044",
      "startMs": 1745586420000,
      "endMs": 1745598143742,
      "startAddress": "960 Vasquez Trafficway",
      "endAddress": "622 Andrew Oval Suite 933",
      "startCoords": {
        "latitude": 35.07394,
        "longitude": -106.641183
      },
      "endCoords": {
        "latitude": 35.073914,
        "longitude": -106.685167
      },
      "distanceMeters": 80077.4,
      "durationMs": 11723743,
      "drivingDurationMs": 9842504,
      "idlingDurationMs": 1881238,
      "fuelConsumedMl": 10183,
      "fuelConsumedGallons": 2.69,
      "maxSpeedMph": 34.6,
      "averageSpeedMph": 15.3,
      "safetyEvents": []
    },
    {
      "id": "trip_44865715_20250425_004",
      "vehicleId": "44865715",
      "driverId": "20000044",
      "startMs": 1745605500000,
      "endMs": 1745609807163,
      "startAddress": "4562 Danielle Camp",
      "endAddress": "945 Sanchez Mall Apt. 327",
      "startCoords": {
        "latitude": 35.118439,
        "longitude": -106.579996
      },
      "endCoords": {
        "latitude": 35.041311,
        "longitude": -106.557434
      },
      "distanceMeters": 21370.6,
      "durationMs": 4307163,
      "drivingDurationMs": 3570580,
      "idlingDurationMs": 736583,
      "fuelConsumedMl": 2718,
      "fuelConsumedGallons": 0.718,
      "maxSpeedMph": 28.1,
      "averageSpeedMph": 11.1,
      "safetyEvents": []
    },
    {
      "id": "trip_44865715_20250426_001",
      "vehicleId": "44865715",
      "driverId": "20000045",
      "startMs": 1745685360000,
      "endMs": 1745688032876,
      "startAddress": "585 Brooke Springs Apt. 680",
      "endAddress": "35543 Jessica Club Apt. 667",
      "startCoords": {
        "latitude": 35.161563,
        "longitude": -106.641865
      },
      "endCoords": {
        "latitude": 35.04266,
        "longitude": -106.652699
      },
      "distanceMeters": 17301.6,
      "durationMs": 2672877,
      "drivingDurationMs": 2176114,
      "idlingDurationMs": 496762,
      "fuelConsumedMl": 2199,
      "fuelConsumedGallons": 0.581,
      "maxSpeedMph": 51.0,
      "averageSpeedMph": 14.5,
      "safetyEvents": []
    },
    {
      "id": "trip_44865715_20250426_002",
      "vehicleId": "44865715",
      "driverId": null,
      "startMs": 1745673420000,
      "endMs": 1745675232151,
      "startAddress": "848 Robert Isle Suite 668",
      "endAddress": "899 Coleman Centers",
      "startCoords": {
        "latitude": 35.09257,
        "longitude": -106.578059
      },
      "endCoords": {
        "latitude": 35.086857,
        "longitude": -106.678531
      },
      "distanceMeters": 13022.4,
      "durationMs": 1812151,
      "drivingDurationMs": 1573545,
      "idlingDurationMs": 238606,
      "fuelConsumedMl": 1654,
      "fuelConsumedGallons": 0.437,
      "maxSpeedMph": 62.7,
      "averageSpeedMph": 16.1,
      "safetyEvents": []
    },
    {
      "id": "trip_44865715_20250426_003",
      "vehicleId": "44865715",
      "driverId": "20000045",
      "startMs": 1745683860000,
      "endMs": 1745698416640,
      "startAddress": "8644 Amber Viaduct Apt. 782",
      "endAddress": "1691 Lopez Lock Suite 530",
      "startCoords": {
        "latitude": 35.137186,
        "longitude": -106.700851
      },
      "endCoords": {
        "latitude": 35.048823,
        "longitude": -106.577997
      },
      "distanceMeters": 78931.6,
      "durationMs": 14556640,
      "drivingDurationMs": 12648524,
      "idlingDurationMs": 1908116,
      "fuelConsumedMl": 10035,
      "fuelConsumedGallons": 2.651,
      "maxSpeedMph": 44.8,
      "averageSpeedMph": 12.1,
      "safetyEvents": []
    },
    {
      "id": "trip_44865715_20250427_001",
      "vehicleId": "44865715",
      "driverId": "20000044",
      "startMs": 1745764260000,
      "endMs": 1745778304534,
      "startAddress": "33437 Christian Mills",
      "endAddress": "95448 Jones Stream Apt. 031",
      "startCoords": {
        "latitude": 35.065435,
        "longitude": -106.719425
      },
      "endCoords": {
        "latitude": 35.119762,
        "longitude": -106.689707
      },
      "distanceMeters": 74506.5,
      "durationMs": 14044534,
      "drivingDurationMs": 11634782,
      "idlingDurationMs": 2409752,
      "fuelConsumedMl": 9471,
      "fuelConsumedGallons": 2.502,
      "maxSpeedMph": 65.1,
      "averageSpeedMph": 11.9,
      "safetyEvents": [
        {
          "type": "speeding",
          "startMs": 1745766660000,
          "maxSpeedMph": 65.1
        }
      ]
    },
    {
      "id": "trip_44865715_20250427_002",
      "vehicleId": "44865715",
      "driverId": "20000044",
      "startMs": 1745757360000,
      "endMs": 1745767973427,
      "startAddress": "4638 Mendoza Falls Apt. 414",
      "endAddress": "3761 Dylan Mews Suite 308",
      "startCoords": {
        "latitude": 35.160905,
        "longitude": -106.552881
      },
      "endCoords": {
        "latitude": 35.062344,
        "longitude": -106.568244
      },
      "distanceMeters": 81116.0,
      "durationMs": 10613427,
      "drivingDurationMs": 10077821,
      "idlingDurationMs": 535607,
      "fuelConsumedMl": 10311,
      "fuelConsumedGallons": 2.724,
      "maxSpeedMph": 28.4,
      "averageSpeedMph": 17.1,
      "safetyEvents": []
    },
    {
      "id": "trip_44865715_20250427_003",
      "vehicleId": "44865715",
      "driverId": "20000044",
      "startMs": 1745776200000,
      "endMs": 1745787600000,
      "startAddress": "6535 Smith Forge Apt. 292",
      "endAddress": "630 King Route Apt. 699",
      "startCoords": {
        "latitude": 35.17151,
        "longitude": -106.699743
      },
      "endCoords": {
        "latitude": 35.082855,
        "longitude": -106.69815
      },
      "distanceMeters": 64302.0,
      "durationMs": 11400000,
      "drivingDurationMs": 10140285,
      "idlingDurationMs": 1259715,
      "fuelConsumedMl": 8176,
      "fuelConsumedGallons": 2.16,
      "maxSpeedMph": 29.7,
      "averageSpeedMph": 12.6,
      "safetyEvents": []
    },
    {
      "id": "trip_44865715_20250428_001",
      "vehicleId": "44865715",
      "driverId": "20000045",
      "startMs": 1745831580000,
      "endMs": 1745833302547,
      "startAddress": "849 Jesse Divide",
      "endAddress": "8046 Mendez Branch",
      "startCoords": {
        "latitude": 35.066925,
        "longitude": -106.718109
      },
      "endCoords": {
        "latitude": 35.044971,
        "longitude": -106.716874
      },
      "distanceMeters": 11537.0,
      "durationMs": 1722548,
      "drivingDurationMs": 1506999,
      "idlingDurationMs": 215549,
      "fuelConsumedMl": 1465,
      "fuelConsumedGallons": 0.387,
      "maxSpeedMph": 41.1,
      "averageSpeedMph": 15.0,
      "safetyEvents": []
    },
    {
      "id": "trip_44865715_20250428_002",
      "vehicleId": "44865715",
      "driverId": "20000045",
      "startMs": 1745823420000,
      "endMs": 1745836168814,
      "startAddress": "80716 Carpenter Ramp",
      "endAddress": "4395 Mason Gateway",
      "startCoords": {
        "latitude": 35.111465,
        "longitude": -106.653139
      },
      "endCoords": {
        "latitude": 35.08267,
        "longitude": -106.595967
      },
      "distanceMeters": 68772.3,
      "durationMs": 12748814,
      "drivingDurationMs": 12024792,
      "idlingDurationMs": 724023,
      "fuelConsumedMl": 8744,
      "fuelConsumedGallons": 2.31,
      "maxSpeedMph": 30.8,
      "averageSpeedMph": 12.1,
      "safetyEvents": []
    },
    {
      "id": "trip_44865715_20250429_001",
      "vehicleId": "44865715",
      "driverId": "20000045",
      "startMs": 1745920800000,
      "endMs": 1745923486542,
      "startAddress": "097 Bryan Hills",
      "endAddress": "620 Brian Stream Suite 443",
      "startCoords": {
        "latitude": 35.133452,
        "longitude": -106.627672
      },
      "endCoords": {
        "latitude": 35.096284,
        "longitude": -106.721769
      },
      "distanceMeters": 13238.1,
      "durationMs": 2686542,
      "drivingDurationMs": 2171782,
      "idlingDurationMs": 514761,
      "fuelConsumedMl": 1685,
      "fuelConsumedGallons": 0.445,
      "maxSpeedMph": 61.9,
      "averageSpeedMph": 11.0,
      "safetyEvents": []
    },
    {
      "id": "trip_44865715_20250429_002",
      "vehicleId": "44865715",
      "driverId": "20000045",
      "startMs": 1745940060000,
      "endMs": 1745945841116,
      "startAddress": "2752 Raymond Mount",
      "endAddress": "0555 Morrison Circle Apt. 664",
      "startCoords": {
        "latitude": 35.13114,
        "longitude": -106.592219
      },
      "endCoords": {
        "latitude": 35.162794,
        "longitude": -106.678789
      },
      "distanceMeters": 38969.8,
      "durationMs": 5781116,
      "drivingDurationMs": 5509802,
      "idlingDurationMs": 271315,
      "fuelConsumedMl": 4955,
      "fuelConsumedGallons": 1.309,
      "maxSpeedMph": 54.6,
      "averageSpeedMph": 15.1,
      "safetyEvents": []
    },
    {
      "id": "trip_44865715_20250430_001",
      "vehicleId": "44865715",
      "driverId": "20000044",
      "startMs": 1745995920000,
      "endMs": 1746007487631,
      "startAddress": "143 Jasmine Summit Apt. 106",
      "endAddress": "45102 Johnson Garden Apt. 552",
      "startCoords": {
        "latitude": 35.085673,
        "longitude": -106.713808
      },
      "endCoords": {
        "latitude": 35.058126,
        "longitude": -106.646926
      },
      "distanceMeters": 70711.0,
      "durationMs": 11567632,
      "drivingDurationMs": 10497112,
      "idlingDurationMs": 1070520,
      "fuelConsumedMl": 8990,
      "fuelConsumedGallons": 2.375,
      "maxSpeedMph": 56.1,
      "averageSpeedMph": 13.7,
      "safetyEvents": []
    },
    {
      "id": "trip_44865715_20250430_002",
      "vehicleId": "44865715",
      "driverId": "20000044",
      "startMs": 1746033420000,
      "endMs": 1746046255562,
      "startAddress": "288 Michael Meadows Suite 901",
      "endAddress": "1513 Veronica Stream",
      "startCoords": {
        "latitude": 35.141445,
        "longitude": -106.577085
      },
      "endCoords": {
        "latitude": 35.148176,
        "longitude": -106.609707
      },
      "distanceMeters": 80950.2,
      "durationMs": 12835563,
      "drivingDurationMs": 12279871,
      "idlingDurationMs": 555692,
      "fuelConsumedMl": 10293,
      "fuelConsumedGallons": 2.719,
      "maxSpeedMph": 37.9,
      "averageSpeedMph": 14.1,
      "safetyEvents": []
    },
    {
      "id": "trip_44865715_20250430_003",
      "vehicleId": "44865715",
      "driverId": "20000044",
      "startMs": 1745994240000,
      "endMs": 1746008640092,
      "startAddress": "6523 Stone Ridge Suite 131",
      "endAddress": "36785 Gonzales Fork",
      "startCoords": {
        "latitude": 35.06796,
        "longitude": -106.59677
      },
      "endCoords": {
        "latitude": 35.068889,
        "longitude": -106.692873
      },
      "distanceMeters": 79239.4,
      "durationMs": 14400093,
      "drivingDurationMs": 12688234,
      "idlingDurationMs": 1711858,
      "fuelConsumedMl": 10073,
      "fuelConsumedGallons": 2.661,
      "maxSpeedMph": 64.8,
      "averageSpeedMph": 12.3,
      "safetyEvents": []
    },
    {
      "id": "trip_44865715_20250430_004",
      "vehicleId": "44865715",
      "driverId": "20000044",
      "startMs": 1746027540000,
      "endMs": 1746038097056,
      "startAddress": "033 Logan Shores",
      "endAddress": "026 Joseph Street",
      "startCoords": {
        "latitude": 35.091716,
        "longitude": -106.578681
      },
      "endCoords": {
        "latitude": 35.083182,
        "longitude": -106.613746
      },
      "distanceMeters": 71546.9,
      "durationMs": 10557056,
      "drivingDurationMs": 9571330,
      "idlingDurationMs": 985727,
      "fuelConsumedMl": 9096,
      "fuelConsumedGallons": 2.403,
      "maxSpeedMph": 69.7,
      "averageSpeedMph": 15.2,
      "safetyEvents": [
        {
          "type": "speeding",
          "startMs": 1746030300000,
          "maxSpeedMph": 69.7
        }
      ]
    }
  ]
}