{
  "vehicleId": "41187077",
  "vehicleName": "DEN-VAN-06",
  "month": "2025_04",
  "pagination": {
    "endCursor": "trip_41187077_20250430_17060",
    "hasNextPage": false
  },
  "trips": [
    {
      "id": "trip_41187077_20250401_12750",
      "vehicleId": "41187077",
      "driverId": "20000016",
      "startMs": 1743473912000,
      "endMs": 1743475900000,
      "startAddress": "34802 Scott Loop",
      "endAddress": "10224 Cook Canyon",
      "startCoords": {
        "latitude": 39.684627,
        "longitude": -104.966502
      },
      "endCoords": {
        "latitude": 39.752797,
        "longitude": -104.985215
      },
      "distanceMeters": 12280.3,
      "durationMs": 1988000,
      "drivingDurationMs": 1654100,
      "idlingDurationMs": 333900,
      "fuelConsumedMl": 1560,
      "fuelConsumedGallons": 0.412,
      "maxSpeedMph": 26.3,
      "averageSpeedMph": 13.8,
      "safetyEvents": []
    },
    {
      "id": "trip_41187077_20250401_12775",
      "vehicleId": "41187077",
      "driverId": "20000013",
      "startMs": 1743494647000,
      "endMs": 1743497227000,
      "startAddress": "27764 Bryant Trail",
      "endAddress": "7779 Avila Mills",
      "startCoords": {
        "latitude": 39.797791,
        "longitude": -104.934537
      },
      "endCoords": {
        "latitude": 39.744341,
        "longitude": -105.066787
      },
      "distanceMeters": 17467.0,
      "durationMs": 2580000,
      "drivingDurationMs": 2213769,
      "idlingDurationMs": 366231,
      "fuelConsumedMl": 2222,
      "fuelConsumedGallons": 0.587,
      "maxSpeedMph": 39.0,
      "averageSpeedMph": 15.1,
      "safetyEvents": []
    },
    {
      "id": "trip_41187077_20250401_12805",
      "vehicleId": "41187077",
      "driverId": "20000009",
      "startMs": 1743504889000,
      "endMs": 1743507349000,
      "startAddress": "881 Erika Point",
      "endAddress": "829 Martinez Summit Apt. 657",
      "startCoords": {
        "latitude": 39.764323,
        "longitude": -104.984809
      },
      "endCoords": {
        "latitude": 39.68416,
        "longitude": -104.976699
      },
      "distanceMeters": 11680.9,
      "durationMs": 2460000,
      "drivingDurationMs": 1879630,
      "idlingDurationMs": 580370,
      "fuelConsumedMl": 1484,
      "fuelConsumedGallons": 0.392,
      "maxSpeedMph": 35.6,
      "averageSpeedMph": 10.6,
      "safetyEvents": []
    },
    {
      "id": "trip_41187077_20250401_12829",
      "vehicleId": "41187077",
      "driverId": "20000021",
      "startMs": 1743515634000,
      "endMs": 1743533673000,
      "startAddress": "998 Carl Drives Suite 105",
      "endAddress": "4207 Teresa Lock",
      "startCoords": {
        "latitude": 39.792435,
        "longitude": -105.037842
      },
      "endCoords": {
        "latitude": 39.692852,
        "longitude": -105.070428
      },
      "distanceMeters": 111637.4,
      "durationMs": 18039000,
      "drivingDurationMs": 14351785,
      "idlingDurationMs": 3687215,
      "fuelConsumedMl": 14195,
      "fuelConsumedGallons": 3.75,
      "maxSpeedMph": 39.1,
      "averageSpeedMph": 13.8,
      "safetyEvents": []
    },
    {
      "id": "trip_41187077_20250401_12862",
      "vehicleId": "41187077",
      "driverId": "20000014",
      "startMs": 1743534787000,
      "endMs": 1743543061000,
      "startAddress": "54850 Sandoval Mills Apt. 099",
      "endAddress": "73773 Hampton Union",
      "startCoords": {
        "latitude": 39.706089,
        "longitude": -105.047658
      },
      "endCoords": {
        "latitude": 39.766662,
        "longitude": -104.900279
      },
      "distanceMeters": 49477.7,
      "durationMs": 8274000,
      "drivingDurationMs": 6413847,
      "idlingDurationMs": 1860153,
      "fuelConsumedMl": 6291,
      "fuelConsumedGallons": 1.662,
      "maxSpeedMph": 27.5,
      "averageSpeedMph": 13.4,
      "safetyEvents": []
    },
    {
      "id": "trip_41187077_20250401_12888",
      "vehicleId": "41187077",
      "driverId": "20000009",
      "startMs": 1743550532000,
      "endMs": 1743552752000,
      "startAddress": "949 Joshua Mount",
      "endAddress": "350 Angela Turnpike",
      "startCoords": {
        "latitude": 39.787706,
        "longitude": -105.014996
      },
      "endCoords": {
        "latitude": 39.778969,
        "longitude": -104.970935
      },
      "distanceMeters": 10501.7,
      "durationMs": 2220000,
      "drivingDurationMs": 1936595,
      "idlingDurationMs": 283405,
      "fuelConsumedMl": 1336,
      "fuelConsumedGallons": 0.353,
      "maxSpeedMph": 33.6,
      "averageSpeedMph": 10.6,
      "safetyEvents": []
    },
    {
      "id": "trip_41187077_20250402_12917",
      "vehicleId": "41187077",
      "driverId": "20000008",
      "startMs": 1743567645000,
      "endMs": 1743581994000,
      "startAddress": "97919 Harper Ford",
      "endAddress": "07101 Emily Island Suite 418",
      "startCoords": {
        "latitude": 39.777787,
        "longitude": -104.994845
      },
      "endCoords": {
        "latitude": 39.715922,
        "longitude": -105.051039
      },
      "distanceMeters": 69100.0,
      "durationMs": 14349000,
      "drivingDurationMs": 12456862,
      "idlingDurationMs": 1892138,
      "fuelConsumedMl": 8786,
      "fuelConsumedGallons": 2.321,
      "maxSpeedMph": 31.0,
      "averageSpeedMph": 10.8,
      "safetyEvents": []
    },
    {
      "id": "trip_41187077_20250402_12946",
      "vehicleId": "41187077",
      "driverId": "20000012",
      "startMs": 1743583607000,
      "endMs": 1743587020000,
      "startAddress": "220 Salazar Causeway Apt. 068",
      "endAddress": "482 Lloyd Islands Apt. 033",
      "startCoords": {
        "latitude": 39.786511,
        "longitude": -104.938199
      },
      "endCoords": {
        "latitude": 39.704804,
        "longitude": -104.974688
      },
      "distanceMeters": 16411.6,
      "durationMs": 3413000,
      "drivingDurationMs": 2960163,
      "idlingDurationMs": 452837,
      "fuelConsumedMl": 2086,
      "fuelConsumedGallons": 0.551,
      "maxSpeedMph": 39.7,
      "averageSpeedMph": 10.8,
      "safetyEvents": []
    },
    {
      "id": "trip_41187077_20250402_12979",
      "vehicleId": "41187077",
      "driverId": "20000011",
      "startMs": 1743599736000,
      "endMs": 1743601656000,
      "startAddress": "593 Tucker Cape Suite 755",
      "endAddress": "374 Cannon Center",
      "startCoords": {
        "latitude": 39.78044,
        "longitude": -105.034296
      },
      "endCoords": {
        "latitude": 39.751312,
        "longitude": -104.939248
      },
      "distanceMeters": 12582.1,
      "durationMs": 1920000,
      "drivingDurationMs": 1630842,
      "idlingDurationMs": 289158,
      "fuelConsumedMl": 1601,
      "fuelConsumedGallons": 0.423,
      "maxSpeedMph": 37.9,
      "averageSpeedMph": 14.7,
      "safetyEvents": []
    },
    {
      "id": "trip_41187077_20250402_13007",
      "vehicleId": "41187077",
      "driverId": "20000004",
      "startMs": 1743615050000,
      "endMs": 1743617330000,
      "startAddress": "7885 Tara Parkway Apt. 931",
      "endAddress": "294 Debbie Club Suite 973",
      "startCoords": {
        "latitude": 39.735479,
        "longitude": -104.926159
      },
      "endCoords": {
        "latitude": 39.691139,
        "longitude": -104.928996
      },
      "distanceMeters": 10730.8,
      "durationMs": 2280000,
      "drivingDurationMs": 1726454,
      "idlingDurationMs": 553546,
      "fuelConsumedMl": 1363,
      "fuelConsumedGallons": 0.36,
      "maxSpeedMph": 38.4,
      "averageSpeedMph": 10.5,
      "safetyEvents": []
    },
    {
      "id": "trip_41187077_20250402_13033",
      "vehicleId": "41187077",
      "driverId": "20000022",
      "startMs": 1743626979000,
      "endMs": 1743633986000,
      "startAddress": "30909 Brooks Greens Suite 531",
      "endAddress": "37081 Christopher Square",
      "startCoords": {
        "latitude": 39.762639,
        "longitude": -104.938116
      },
      "endCoords": {
        "latitude": 39.799944,
        "longitude": -105.039336
      },
      "distanceMeters": 31177.6,
      "durationMs": 7007000,
      "drivingDurationMs": 5944428,
      "idlingDurationMs": 1062572,
      "fuelConsumedMl": 3963,
      "fuelConsumedGallons": 1.047,
      "maxSpeedMph": 37.5,
      "averageSpeedMph": 10.0,
      "safetyEvents": []
    },
    {
      "id": "trip_41187077_20250403_13063",
      "vehicleId": "41187077",
      "driverId": "20000008",
      "startMs": 1743647418000,
      "endMs": 1743651722000,
      "startAddress": "386 Floyd Vista Apt. 989",
      "endAddress": "537 Lewis Cape Suite 685",
      "startCoords": {
        "latitude": 39.722273,
        "longitude": -104.957748
      },
      "endCoords": {
        "latitude": 39.792789,
        "longitude": -105.025767
      },
      "distanceMeters": 22610.0,
      "durationMs": 4304000,
      "drivingDurationMs": 3264271,
      "idlingDurationMs": 1039729,
      "fuelConsumedMl": 2873,
      "fuelConsumedGallons": 0.759,
      "maxSpeedMph": 34.7,
      "averageSpeedMph": 11.8,
      "safetyEvents": []
    },
    {
      "id": "trip_41187077_20250403_13091",
      "vehicleId": "41187077",
      "driverId": "20000012",
      "startMs": 1743667068000,
      "endMs": 1743673324000,
      "startAddress": "0820 Lee Street",
      "endAddress": "23348 Micheal Avenue",
      "startCoords": {
        "latitude": 39.741381,
        "longitude": -104.91859
      },
      "endCoords": {
        "latitude": 39.752929,
        "longitude": -104.957483
      },
      "distanceMeters": 24941.5,
      "durationMs": 6256000,
      "drivingDurationMs": 4873017,
      "idlingDurationMs": 1382983,
      "fuelConsumedMl": 3172,
      "fuelConsumedGallons": 0.838,
      "maxSpeedMph": 35.8,
      "averageSpeedMph": 8.9,
      "safetyEvents": []
    },
    {
      "id": "trip_41187077_20250403_13116",
      "vehicleId": "41187077",
      "driverId": "20000005",
      "startMs": 1743679062000,
      "endMs": 1743704408000,
      "startAddress": "05752 Walker Motorway Apt. 054",
      "endAddress": "40022 Spencer Spring Apt. 302",
      "startCoords": {
        "latitude": 39.704342,
        "longitude": -104.949162
      },
      "endCoords": {
        "latitude": 39.788404,
        "longitude": -105.006036
      },
      "distanceMeters": 117225.9,
      "durationMs": 25346000,
      "drivingDurationMs": 21054576,
      "idlingDurationMs": 4291424,
      "fuelConsumedMl": 14903,
      "fuelConsumedGallons": 3.937,
      "maxSpeedMph": 26.2,
      "averageSpeedMph": 10.3,
      "safetyEvents": []
    },
    {
      "id": "trip_41187077_20250403_13168",
      "vehicleId": "41187077",
      "driverId": "20000016",
      "startMs": 1743704730000,
      "endMs": 1743709366000,
      "startAddress": "56885 Darren Motorway Apt. 498",
      "endAddress": "1473 Jackson Station Apt. 238",
      "startCoords": {
        "latitude": 39.723426,
        "longitude": -104.969383
      },
      "endCoords": {
        "latitude": 39.711811,
        "longitude": -104.985218
      },
      "distanceMeters": 20912.5,
      "durationMs": 4636000,
      "drivingDurationMs": 3857929,
      "idlingDurationMs": 778071,
      "fuelConsumedMl": 2657,
      "fuelConsumedGallons": 0.702,
      "maxSpeedMph": 37.1,
      "averageSpeedMph": 10.1,
      "safetyEvents": []
    },
    {
      "id": "trip_41187077_20250403_13199",
      "vehicleId": "41187077",
      "driverId": "20000015",
      "startMs": 1743721253000,
      "endMs": 1743722933000,
      "startAddress": "6920 Lee Forges Suite 407",
      "endAddress": "112 Savannah Park Suite 834",
      "startCoords": {
        "latitude": 39.715281,
        "longitude": -105.027718
      },
      "endCoords": {
        "latitude": 39.823309,
        "longitude": -105.028269
      },
      "distanceMeters": 8434.0,
      "durationMs": 1680000,
      "drivingDurationMs": 1296793,
      "idlingDurationMs": 383207,
      "fuelConsumedMl": 1071,
      "fuelConsumedGallons": 0.283,
      "maxSpeedMph": 30.9,
      "averageSpeedMph": 11.2,
      "safetyEvents": []
    },
    {
      "id": "trip_41187077_20250404_13226",
      "vehicleId": "41187077",
      "driverId": "20000017",
      "startMs": 1743735781000,
      "endMs": 1743738061000,
      "startAddress": "340 Natalie Center",
      "endAddress": "2680 Caitlin Prairie",
      "startCoords": {
        "latitude": 39.69343,
        "longitude": -104.963912
      },
      "endCoords": {
        "latitude": 39.73768,
        "longitude": -105.014105
      },
      "distanceMeters": 12024.4,
      "durationMs": 2280000,
      "drivingDurationMs": 1804923,
      "idlingDurationMs": 475077,
      "fuelConsumedMl": 1529,
      "fuelConsumedGallons": 0.404,
      "maxSpeedMph": 31.6,
      "averageSpeedMph": 11.8,
      "safetyEvents": []
    },
    {
      "id": "trip_41187077_20250404_13255",
      "vehicleId": "41187077",
      "driverId": "20000012",
      "startMs": 1743754179000,
      "endMs": 1743756399000,
      "startAddress": "76552 Hall Ville Apt. 530",
      "endAddress": "4458 Jeffrey Canyon",
      "startCoords": {
        "latitude": 39.786738,
        "longitude": -105.077479
      },
      "endCoords": {
        "latitude": 39.789438,
        "longitude": -104.95466
      },
      "distanceMeters": 12683.9,
      "durationMs": 2220000,
      "drivingDurationMs": 1906289,
      "idlingDurationMs": 313711,
      "fuelConsumedMl": 1613,
      "fuelConsumedGallons": 0.426,
      "maxSpeedMph": 30.8,
      "averageSpeedMph": 12.8,
      "safetyEvents": []
    },
    {
      "id": "trip_41187077_20250404_13283",
      "vehicleId": "41187077",
      "driverId": "20000007",
      "startMs": 1743764778000,
      "endMs": 1743766998000,
      "startAddress": "648 Perez Rue",
      "endAddress": "29946 Stacey Dale Apt. 254",
      "startCoords": {
        "latitude": 39.791511,
        "longitude": -104.905292
      },
      "endCoords": {
        "latitude": 39.726555,
        "longitude": -105.048747
      },
      "distanceMeters": 13799.5,
      "durationMs": 2220000,
      "drivingDurationMs": 1697253,
      "idlingDurationMs": 522747,
      "fuelConsumedMl": 1753,
      "fuelConsumedGallons": 0.463,
      "maxSpeedMph": 28.2,
      "averageSpeedMph": 13.9,
      "safetyEvents": []
    },
    {
      "id": "trip_41187077_20250404_13310",
      "vehicleId": "41187077",
      "driverId": "20000013",
      "startMs": 1743777508000,
      "endMs": 1743801848000,
      "startAddress": "840 King Plains Apt. 368",
      "endAddress": "010 Small Passage Suite 962",
      "startCoords": {
        "latitude": 39.737572,
        "longitude": -104.926711
      },
      "endCoords": {
        "latitude": 39.792698,
        "longitude": -104.905526
      },
      "distanceMeters": 153956.1,
      "durationMs": 24340000,
      "drivingDurationMs": 20785252,
      "idlingDurationMs": 3554748,
      "fuelConsumedMl": 19574,
      "fuelConsumedGallons": 5.171,
      "maxSpeedMph": 27.7,
      "averageSpeedMph": 14.1,
      "safetyEvents": []
    },
    {
      "id": "trip_41187077_20250404_13355",
      "vehicleId": "41187077",
      "driverId": "20000017",
      "startMs": 1743802718000,
      "endMs": 1743804938000,
      "startAddress": "198 Charles Freeway Apt. 351",
      "endAddress": "392 Angelica Crest Apt. 685",
      "startCoords": {
        "latitude": 39.744814,
        "longitude": -105.001952
      },
      "endCoords": {
        "latitude": 39.812907,
        "longitude": -104.914498
      },
      "distanceMeters": 15880.7,
      "durationMs": 2220000,
      "drivingDurationMs": 1830457,
      "idlingDurationMs": 389543,
      "fuelConsumedMl": 2018,
      "fuelConsumedGallons": 0.533,
      "maxSpeedMph": 34.3,
      "averageSpeedMph": 16.0,
      "safetyEvents": []
    },
    {
      "id": "trip_41187077_20250405_13382",
      "vehicleId": "41187077",
      "driverId": "20000013",
      "startMs": 1743818473000,
      "endMs": 1743823480000,
      "startAddress": "2218 Elizabeth Valley Apt. 175",
      "endAddress": "87770 Angela Key",
      "startCoords": {
        "latitude": 39.731713,
        "longitude": -104.990754
      },
      "endCoords": {
        "latitude": 39.749346,
        "longitude": -104.984367
      },
      "distanceMeters": 28783.5,
      "durationMs": 5007000,
      "drivingDurationMs": 4049278,
      "idlingDurationMs": 957722,
      "fuelConsumedMl": 3660,
      "fuelConsumedGallons": 0.967,
      "maxSpeedMph": 36.5,
      "averageSpeedMph": 12.9,
      "safetyEvents": []
    },
    {
      "id": "trip_41187077_20250405_13412",
      "vehicleId": "41187077",
      "driverId": "20000014",
      "startMs": 1743835776000,
      "endMs": 1743837636000,
      "startAddress": "4820 Jackie Pine Suite 648",
      "endAddress": "717 Lewis Field Suite 971",
      "startCoords": {
        "latitude": 39.701999,
        "longitude": -105.044318
      },
      "endCoords": {
        "latitude": 39.77489,
        "longitude": -104.954303
      },
      "distanceMeters": 13478.2,
      "durationMs": 1860000,
      "drivingDurationMs": 1554540,
      "idlingDurationMs": 305460,
      "fuelConsumedMl": 1715,
      "fuelConsumedGallons": 0.453,
      "maxSpeedMph": 37.5,
      "averageSpeedMph": 16.2,
      "safetyEvents": []
    },
    {
      "id": "trip_41187077_20250405_13438",
      "vehicleId": "41187077",
      "driverId": "20000016",
      "startMs": 1743846954000,
      "endMs": 1743853113000,
      "startAddress": "94806 Jones Mount",
      "endAddress": "227 Matthew Shores Suite 676",
      "startCoords": {
        "latitude": 39.823492,
        "longitude": -105.039431
      },
      "endCoords": {
        "latitude": 39.822119,
        "longitude": -105.033479
      },
      "distanceMeters": 30929.7,
      "durationMs": 6159000,
      "drivingDurationMs": 5107675,
      "idlingDurationMs": 1051325,
      "fuelConsumedMl": 3933,
      "fuelConsumedGallons": 1.039,
      "maxSpeedMph": 37.3,
      "averageSpeedMph": 11.2,
      "safetyEvents": []
    },
    {
      "id": "trip_41187077_20250405_13462",
      "vehicleId": "41187077",
      "driverId": "20000002",
      "startMs": 1743862086000,
      "endMs": 1743864246000,
      "startAddress": "19218 Victoria Fall Apt. 287",
      "endAddress": "4575 Bowers Glens",
      "startCoords": {
        "latitude": 39.822469,
        "longitude": -105.02499
      },
      "endCoords": {
        "latitude": 39.72734,
        "longitude": -105.022793
      },
      "distanceMeters": 10153.8,
      "durationMs": 2160000,
      "drivingDurationMs": 1786839,
      "idlingDurationMs": 373161,
      "fuelConsumedMl": 1291,
      "fuelConsumedGallons": 0.341,
      "maxSpeedMph": 36.4,
      "averageSpeedMph": 10.5,
      "safetyEvents": []
    },
    {
      "id": "trip_41187077_20250405_13493",
      "vehicleId": "41187077",
      "driverId": "20000001",
      "startMs": 1743877468000,
      "endMs": 1743887543000,
      "startAddress": "838 Davis Trail",
      "endAddress": "9301 Briggs Courts Suite 954",
      "startCoords": {
        "latitude": 39.783866,
        "longitude": -104.98653
      },
      "endCoords": {
        "latitude": 39.712164,
        "longitude": -104.986096
      },
      "distanceMeters": 46144.8,
      "durationMs": 10075000,
      "drivingDurationMs": 7680993,
      "idlingDurationMs": 2394007,
      "fuelConsumedMl": 5867,
      "fuelConsumedGallons": 1.55,
      "maxSpeedMph": 27.0,
      "averageSpeedMph": 10.2,
      "safetyEvents": []
    },
    {
      "id": "trip_41187077_20250405_13522",
      "vehicleId": "41187077",
      "driverId": "20000012",
      "startMs": 1743892783000,
      "endMs": 1743894763000,
      "startAddress": "07411 John Shoal",
      "endAddress": "931 Rodriguez Fords",
      "startCoords": {
        "latitude": 39.784134,
        "longitude": -105.034808
      },
      "endCoords": {
        "latitude": 39.755185,
        "longitude": -105.050353
      },
      "distanceMeters": 9073.7,
      "durationMs": 1980000,
      "drivingDurationMs": 1519662,
      "idlingDurationMs": 460338,
      "fuelConsumedMl": 1155,
      "fuelConsumedGallons": 0.305,
      "maxSpeedMph": 33.3,
      "averageSpeedMph": 10.3,
      "safetyEvents": []
    },
    {
      "id": "trip_41187077_20250406_13549",
      "vehicleId": "41187077",
      "driverId": "20000015",
      "startMs": 1743916180000,
      "endMs": 1743918340000,
      "startAddress": "492 Katie Meadows Suite 250",
      "endAddress": "459 Chase Field Apt. 016",
      "startCoords": {
        "latitude": 39.794932,
        "longitude": -105.027446
      },
      "endCoords": {
        "latitude": 39.779989,
        "longitude": -104.911029
      },
      "distanceMeters": 10219.0,
      "durationMs": 2160000,
      "drivingDurationMs": 1756994,
      "idlingDurationMs": 403006,
      "fuelConsumedMl": 1298,
      "fuelConsumedGallons": 0.343,
      "maxSpeedMph": 27.6,
      "averageSpeedMph": 10.6,
      "safetyEvents": []
    },
    {
      "id": "trip_41187077_20250406_13576",
      "vehicleId": "41187077",
      "driverId": "20000011",
      "startMs": 1743938606000,
      "endMs": 1743941546000,
      "startAddress": "278 Miles Bridge",
      "endAddress": "518 Hampton Walks",
      "startCoords": {
        "latitude": 39.804956,
        "longitude": -105.081618
      },
      "endCoords": {
        "latitude": 39.76586,
        "longitude": -104.913834
      },
      "distanceMeters": 19707.2,
      "durationMs": 2940000,
      "drivingDurationMs": 2414549,
      "idlingDurationMs": 525451,
      "fuelConsumedMl": 2506,
      "fuelConsumedGallons": 0.662,
      "maxSpeedMph": 32.4,
      "averageSpeedMph": 15.0,
      "safetyEvents": []
    },
    {
      "id": "trip_41187077_20250406_13604",
      "vehicleId": "41187077",
      "driverId": "20000014",
      "startMs": 1743956439000,
      "endMs": 1743960501000,
      "startAddress": "498 Dale Forges",
      "endAddress": "88573 Melissa Haven Suite 694",
      "startCoords": {
        "latitude": 39.796281,
        "longitude": -104.928366
      },
      "endCoords": {
        "latitude": 39.727167,
        "longitude": -104.939678
      },
      "distanceMeters": 29923.1,
      "durationMs": 4062000,
      "drivingDurationMs": 3389885,
      "idlingDurationMs": 672115,
      "fuelConsumedMl": 3804,
      "fuelConsumedGallons": 1.005,
      "maxSpeedMph": 29.3,
      "averageSpeedMph": 16.5,
      "safetyEvents": []
    },
    {
      "id": "trip_41187077_20250407_13631",
      "vehicleId": "41187077",
      "driverId": "20000016",
      "startMs": 1743996907000,
      "endMs": 1743998887000,
      "startAddress": "92801 Trevor Parkway",
      "endAddress": "4552 Christopher Road Apt. 637",
      "startCoords": {
        "latitude": 39.744222,
        "longitude": -104.925982
      },
      "endCoords": {
        "latitude": 39.80258,
        "longitude": -104.963993
      },
      "distanceMeters": 8601.0,
      "durationMs": 1980000,
      "drivingDurationMs": 1517666,
      "idlingDurationMs": 462334,
      "fuelConsumedMl": 1094,
      "fuelConsumedGallons": 0.289,
      "maxSpeedMph": 39.0,
      "averageSpeedMph": 9.7,
      "safetyEvents": []
    },
    {
      "id": "trip_41187077_20250407_13655",
      "vehicleId": "41187077",
      "driverId": "20000017",
      "startMs": 1744017218000,
      "endMs": 1744019018000,
      "startAddress": "69886 Craig Spurs Suite 761",
      "endAddress": "637 Malik Track",
      "startCoords": {
        "latitude": 39.768992,
        "longitude": -105.035613
      },
      "endCoords": {
        "latitude": 39.705491,
        "longitude": -104.957004
      },
      "distanceMeters": 10420.6,
      "durationMs": 1800000,
      "drivingDurationMs": 1609435,
      "idlingDurationMs": 190565,
      "fuelConsumedMl": 1325,
      "fuelConsumedGallons": 0.35,
      "maxSpeedMph": 39.1,
      "averageSpeedMph": 13.0,
      "safetyEvents": []
    },
    {
      "id": "trip_41187077_20250407_13689",
      "vehicleId": "41187077",
      "driverId": "20000003",
      "startMs": 1744034648000,
      "endMs": 1744036508000,
      "startAddress": "67370 Paige Station",
      "endAddress": "602 John Lights Suite 389",
      "startCoords": {
        "latitude": 39.802725,
        "longitude": -104.989853
      },
      "endCoords": {
        "latitude": 39.761615,
        "longitude": -104.915246
      },
      "distanceMeters": 12483.9,
      "durationMs": 1860000,
      "drivingDurationMs": 1586630,
      "idlingDurationMs": 273370,
      "fuelConsumedMl": 1586,
      "fuelConsumedGallons": 0.419,
      "maxSpeedMph": 37.3,
      "averageSpeedMph": 15.0,
      "safetyEvents": []
    },
    {
      "id": "trip_41187077_20250407_13715",
      "vehicleId": "41187077",
      "driverId": "20000015",
      "startMs": 1744046342000,
      "endMs": 1744048502000,
      "startAddress": "927 Evans Ridges",
      "endAddress": "6052 Foley Lodge",
      "startCoords": {
        "latitude": 39.741943,
        "longitude": -104.95836
      },
      "endCoords": {
        "latitude": 39.774401,
        "longitude": -104.944699
      },
      "distanceMeters": 15307.6,
      "durationMs": 2160000,
      "drivingDurationMs": 1736481,
      "idlingDurationMs": 423519,
      "fuelConsumedMl": 1946,
      "fuelConsumedGallons": 0.514,
      "maxSpeedMph": 38.9,
      "averageSpeedMph": 15.9,
      "safetyEvents": []
    },
    {
      "id": "trip_41187077_20250407_13744",
      "vehicleId": "41187077",
      "driverId": "20000014",
      "startMs": 1744058181000,
      "endMs": 1744063534000,
      "startAddress": "710 Steven Pike Apt. 809",
      "endAddress": "595 Elizabeth Knoll",
      "startCoords": {
        "latitude": 39.751521,
        "longitude": -104.966742
      },
      "endCoords": {
        "latitude": 39.713232,
        "longitude": -105.066702
      },
      "distanceMeters": 36338.1,
      "durationMs": 5353000,
      "drivingDurationMs": 4693025,
      "idlingDurationMs": 659975,
      "fuelConsumedMl": 4622,
      "fuelConsumedGallons": 1.221,
      "maxSpeedMph": 26.0,
      "averageSpeedMph": 15.2,
      "safetyEvents": []
    },
    {
      "id": "trip_41187077_20250408_13769",
      "vehicleId": "41187077",
      "driverId": "20000004",
      "startMs": 1744076235000,
      "endMs": 1744078335000,
      "startAddress": "3888 Estrada Mission Apt. 060",
      "endAddress": "0753 Hill Tunnel",
      "startCoords": {
        "latitude": 39.717279,
        "longitude": -105.011632
      },
      "endCoords": {
        "latitude": 39.708659,
        "longitude": -105.05249
      },
      "distanceMeters": 11242.3,
      "durationMs": 2100000,
      "drivingDurationMs": 1734798,
      "idlingDurationMs": 365202,
      "fuelConsumedMl": 1431,
      "fuelConsumedGallons": 0.378,
      "maxSpeedMph": 34.9,
      "averageSpeedMph": 12.0,
      "safetyEvents": []
    },
    {
      "id": "trip_41187077_20250408_13795",
      "vehicleId": "41187077",
      "driverId": "20000001",
      "startMs": 1744095067000,
      "endMs": 1744103572000,
      "startAddress": "843 Perez Parks Apt. 622",
      "endAddress": "543 Andrew Street",
      "startCoords": {
        "latitude": 39.759259,
        "longitude": -104.946772
      },
      "endCoords": {
        "latitude": 39.802538,
        "longitude": -105.004132
      },
      "distanceMeters": 62760.2,
      "durationMs": 8505000,
      "drivingDurationMs": 7489258,
      "idlingDurationMs": 1015742,
      "fuelConsumedMl": 7980,
      "fuelConsumedGallons": 2.108,
      "maxSpeedMph": 28.1,
      "averageSpeedMph": 16.5,
      "safetyEvents": []
    },
    {
      "id": "trip_41187077_20250408_13824",
      "vehicleId": "41187077",
      "driverId": "20000019",
      "startMs": 1744108106000,
      "endMs": 1744109906000,
      "startAddress": "25718 Jessica Bridge",
      "endAddress": "6283 Munoz Harbor",
      "startCoords": {
        "latitude": 39.787078,
        "longitude": -105.025492
      },
      "endCoords": {
        "latitude": 39.73616,
        "longitude": -104.924404
      },
      "distanceMeters": 9128.4,
      "durationMs": 1800000,
      "drivingDurationMs": 1455980,
      "idlingDurationMs": 344020,
      "fuelConsumedMl": 1162,
      "fuelConsumedGallons": 0.307,
      "maxSpeedMph": 36.7,
      "averageSpeedMph": 11.3,
      "safetyEvents": []
    },
    {
      "id": "trip_41187077_20250408_13847",
      "vehicleId": "41187077",
      "driverId": "20000021",
      "startMs": 1744118006000,
      "endMs": 1744120346000,
      "startAddress": "1872 Fisher Common",
      "endAddress": "496 Davis Mission",
      "startCoords": {
        "latitude": 39.778778,
        "longitude": -104.917886
      },
      "endCoords": {
        "latitude": 39.808166,
        "longitude": -105.058863
      },
      "distanceMeters": 15089.6,
      "durationMs": 2340000,
      "drivingDurationMs": 1859229,
      "idlingDurationMs": 480771,
      "fuelConsumedMl": 1919,
      "fuelConsumedGallons": 0.507,
      "maxSpeedMph": 38.1,
      "averageSpeedMph": 14.4,
      "safetyEvents": []
    },
    {
      "id": "trip_41187077_20250408_13873",
      "vehicleId": "41187077",
      "driverId": "20000011",
      "startMs": 1744132636000,
      "endMs": 1744134856000,
      "startAddress": "37938 Fleming Ways Suite 945",
      "endAddress": "7688 Jacqueline Orchard Apt. 714",
      "startCoords": {
        "latitude": 39.798846,
        "longitude": -105.053288
      },
      "endCoords": {
        "latitude": 39.720335,
        "longitude": -104.93951
      },
      "distanceMeters": 13066.2,
      "durationMs": 2220000,
      "drivingDurationMs": 1788697,
      "idlingDurationMs": 431303,
      "fuelConsumedMl": 1662,
      "fuelConsumedGallons": 0.439,
      "maxSpeedMph": 29.9,
      "averageSpeedMph": 13.2,
      "safetyEvents": []
    },
    {
      "id": "trip_41187077_20250408_13908",
      "vehicleId": "41187077",
      "driverId": "20000006",
      "startMs": 1744153113000,
      "endMs": 1744155153000,
      "startAddress": "110 Nicole Loop Apt. 812",
      "endAddress": "232 Megan Bypass",
      "startCoords": {
        "latitude": 39.704304,
        "longitude": -105.003693
      },
      "endCoords": {
        "latitude": 39.741853,
        "longitude": -104.970372
      },
      "distanceMeters": 13023.7,
      "durationMs": 2040000,
      "drivingDurationMs": 1551398,
      "idlingDurationMs": 488602,
      "fuelConsumedMl": 1654,
      "fuelConsumedGallons": 0.437,
      "maxSpeedMph": 27.3,
      "averageSpeedMph": 14.3,
      "safetyEvents": []
    },
    {
      "id": "trip_41187077_20250409_13939",
      "vehicleId": "41187077",
      "driverId": "20000012",
      "startMs": 1744169009000,
      "endMs": 1744171289000,
      "startAddress": "725 Curtis Dale Apt. 745",
      "endAddress": "3807 Wood Skyway Apt. 586",
      "startCoords": {
        "latitude": 39.752506,
        "longitude": -104.963541
      },
      "endCoords": {
        "latitude": 39.729249,
        "longitude": -105.04734
      },
      "distanceMeters": 13289.5,
      "durationMs": 2280000,
      "drivingDurationMs": 1854209,
      "idlingDurationMs": 425791,
      "fuelConsumedMl": 1688,
      "fuelConsumedGallons": 0.446,
      "maxSpeedMph": 31.7,
      "averageSpeedMph": 13.0,
      "safetyEvents": []
    },
    {
      "id": "trip_41187077_20250409_13969",
      "vehicleId": "41187077",
      "driverId": "20000022",
      "startMs": 1744183806000,
      "endMs": 1744186026000,
      "startAddress": "5158 Shannon Prairie",
      "endAddress": "567 Strickland Drive Apt. 608",
      "startCoords": {
        "latitude": 39.691719,
        "longitude": -105.038058
      },
      "endCoords": {
        "latitude": 39.811577,
        "longitude": -105.049706
      },
      "distanceMeters": 10380.2,
      "durationMs": 2220000,
      "drivingDurationMs": 1808549,
      "idlingDurationMs": 411451,
      "fuelConsumedMl": 1321,
      "fuelConsumedGallons": 0.349,
      "maxSpeedMph": 27.4,
      "averageSpeedMph": 10.5,
      "safetyEvents": []
    },
    {
      "id": "trip_41187077_20250409_13996",
      "vehicleId": "41187077",
      "driverId": "20000004",
      "startMs": 1744194734000,
      "endMs": 1744197495000,
      "startAddress": "4621 Brian Rapid Apt. 759",
      "endAddress": "05112 Valenzuela Fork Suite 728",
      "startCoords": {
        "latitude": 39.801979,
        "longitude": -104.93213
      },
      "endCoords": {
        "latitude": 39.706698,
        "longitude": -104.931327
      },
      "distanceMeters": 16295.6,
      "durationMs": 2761000,
      "drivingDurationMs": 2198435,
      "idlingDurationMs": 562565,
      "fuelConsumedMl": 2071,
      "fuelConsumedGallons": 0.547,
      "maxSpeedMph": 37.8,
      "averageSpeedMph": 13.2,
      "safetyEvents": []
    },
    {
      "id": "trip_41187077_20250409_14028",
      "vehicleId": "41187077",
      "driverId": "20000014",
      "startMs": 1744209428000,
      "endMs": 1744226326000,
      "startAddress": "945 Davis Turnpike",
      "endAddress": "47868 Virginia Junctions Suite 835",
      "startCoords": {
        "latitude": 39.748625,
        "longitude": -105.078171
      },
      "endCoords": {
        "latitude": 39.724497,
        "longitude": -104.994055
      },
      "distanceMeters": 68639.7,
      "durationMs": 16898000,
      "drivingDurationMs": 13139882,
      "idlingDurationMs": 3758118,
      "fuelConsumedMl": 8725,
      "fuelConsumedGallons": 2.305,
      "maxSpeedMph": 31.4,
      "averageSpeedMph": 9.1,
      "safetyEvents": []
    },
    {
      "id": "trip_41187077_20250409_14062",
      "vehicleId": "41187077",
      "driverId": "20000005",
      "startMs": 1744227498000,
      "endMs": 1744229118000,
      "startAddress": "77997 Sherry Meadows Apt. 281",
      "endAddress": "305 Gonzalez Overpass",
      "startCoords": {
        "latitude": 39.760036,
        "longitude": -104.926424
      },
      "endCoords": {
        "latitude": 39.694495,
        "longitude": -104.960144
      },
      "distanceMeters": 8753.7,
      "durationMs": 1620000,
      "drivingDurationMs": 1322001,
      "idlingDurationMs": 297999,
      "fuelConsumedMl": 1113,
      "fuelConsumedGallons": 0.294,
      "maxSpeedMph": 38.1,
      "averageSpeedMph": 12.1,
      "safetyEvents": []
    },
    {
      "id": "trip_41187077_20250409_14087",
      "vehicleId": "41187077",
      "driverId": "20000008",
      "startMs": 1744240381000,
      "endMs": 1744241821000,
      "startAddress": "32156 Ward Haven Apt. 101",
      "endAddress": "6310 Michael Route Apt. 844",
      "startCoords": {
        "latitude": 39.75698,
        "longitude": -104.928857
      },
      "endCoords": {
        "latitude": 39.771737,
        "longitude": -104.945033
      },
      "distanceMeters": 5880.5,
      "durationMs": 1440000,
      "drivingDurationMs": 1084579,
      "idlingDurationMs": 355421,
      "fuelConsumedMl": 750,
      "fuelConsumedGallons": 0.198,
      "maxSpeedMph": 35.5,
      "averageSpeedMph": 9.1,
      "safetyEvents": []
    },
    {
      "id": "trip_41187077_20250410_14114",
      "vehicleId": "41187077",
      "driverId": "20000012",
      "startMs": 1744259644000,
      "endMs": 1744278296000,
      "startAddress": "793 Stephanie Trail Suite 565",
      "endAddress": "3589 Carolyn Pass",
      "startCoords": {
        "latitude": 39.810058,
        "longitude": -104.91929
      },
      "endCoords": {
        "latitude": 39.711755,
        "longitude": -104.955206
      },
      "distanceMeters": 96021.0,
      "durationMs": 18652000,
      "drivingDurationMs": 14476325,
      "idlingDurationMs": 4175675,
      "fuelConsumedMl": 12208,
      "fuelConsumedGallons": 3.225,
      "maxSpeedMph": 33.9,
      "averageSpeedMph": 11.5,
      "safetyEvents": []
    },
    {
      "id": "trip_41187077_20250410_14141",
      "vehicleId": "41187077",
      "driverId": "20000004",
      "startMs": 1744278933000,
      "endMs": 1744281453000,
      "startAddress": "98232 Kellie Drive",
      "endAddress": "927 Perry Inlet",
      "startCoords": {
        "latitude": 39.699005,
        "longitude": -105.053772
      },
      "endCoords": {
        "latitude": 39.696546,
        "longitude": -104.936261
      },
      "distanceMeters": 13994.1,
      "durationMs": 2520000,
      "drivingDurationMs": 1913411,
      "idlingDurationMs": 606589,
      "fuelConsumedMl": 1779,
      "fuelConsumedGallons": 0.47,
      "maxSpeedMph": 32.8,
      "averageSpeedMph": 12.4,
      "safetyEvents": []
    },
    {
      "id": "trip_41187077_20250410_14169",
      "vehicleId": "41187077",
      "driverId": "20000009",
      "startMs": 1744292382000,
      "endMs": 1744315611000,
      "startAddress": "8778 Santiago Parkway Suite 487",
      "endAddress": "136 Hicks Port",
      "startCoords": {
        "latitude": 39.760011,
        "longitude": -104.952391
      },
      "endCoords": {
        "latitude": 39.724755,
        "longitude": -104.939496
      },
      "distanceMeters": 147863.1,
      "durationMs": 23229000,
      "drivingDurationMs": 20458386,
      "idlingDurationMs": 2770614,
      "fuelConsumedMl": 18798,
      "fuelConsumedGallons": 4.966,
      "maxSpeedMph": 33.0,
      "averageSpeedMph": 14.2,
      "safetyEvents": []
    },
    {
      "id": "trip_41187077_20250410_14212",
      "vehicleId": "41187077",
      "driverId": "20000006",
      "startMs": 1744316240000,
      "endMs": 1744318680000,
      "startAddress": "9633 Gonzalez Track Apt. 302",
      "endAddress": "647 Joe Plaza Suite 392",
      "startCoords": {
        "latitude": 39.712413,
        "longitude": -104.956709
      },
      "endCoords": {
        "latitude": 39.71115,
        "longitude": -105.008193
      },
      "distanceMeters": 18526.5,
      "durationMs": 2440000,
      "drivingDurationMs": 2156072,
      "idlingDurationMs": 283928,
      "fuelConsumedMl": 2355,
      "fuelConsumedGallons": 0.622,
      "maxSpeedMph": 38.1,
      "averageSpeedMph": 17.0,
      "safetyEvents": []
    },
    {
      "id": "trip_41187077_20250411_14246",
      "vehicleId": "41187077",
      "driverId": "20000006",
      "startMs": 1744333944000,
      "endMs": 1744335864000,
      "startAddress": "081 Julie Mall",
      "endAddress": "15544 Christopher Hill Suite 460",
      "startCoords": {
        "latitude": 39.710569,
        "longitude": -104.987497
      },
      "endCoords": {
        "latitude": 39.786016,
        "longitude": -104.985998
      },
      "distanceMeters": 11868.3,
      "durationMs": 1920000,
      "drivingDurationMs": 1602675,
      "idlingDurationMs": 317325,
      "fuelConsumedMl": 1510,
      "fuelConsumedGallons": 0.399,
      "maxSpeedMph": 34.6,
      "averageSpeedMph": 13.8,
      "safetyEvents": []
    },
    {
      "id": "trip_41187077_20250411_14273",
      "vehicleId": "41187077",
      "driverId": "20000008",
      "startMs": 1744348886000,
      "endMs": 1744351166000,
      "startAddress": "37847 Stephenson Gateway Apt. 337",
      "endAddress": "33087 Baker Road Apt. 956",
      "startCoords": {
        "latitude": 39.684573,
        "longitude": -104.943707
      },
      "endCoords": {
        "latitude": 39.765557,
        "longitude": -104.976846
      },
      "distanceMeters": 11443.8,
      "durationMs": 2280000,
      "drivingDurationMs": 2047007,
      "idlingDurationMs": 232993,
      "fuelConsumedMl": 1454,
      "fuelConsumedGallons": 0.384,
      "maxSpeedMph": 35.1,
      "averageSpeedMph": 11.2,
      "safetyEvents": []
    },
    {
      "id": "trip_41187077_20250411_14301",
      "vehicleId": "41187077",
      "driverId": "20000019",
      "startMs": 1744360607000,
      "endMs": 1744362767000,
      "startAddress": "61172 Margaret Port Suite 726",
      "endAddress": "031 Russell Landing",
      "startCoords": {
        "latitude": 39.798066,
        "longitude": -105.066359
      },
      "endCoords": {
        "latitude": 39.714034,
        "longitude": -105.017744
      },
      "distanceMeters": 11588.7,
      "durationMs": 2160000,
      "drivingDurationMs": 1772860,
      "idlingDurationMs": 387140,
      "fuelConsumedMl": 1473,
      "fuelConsumedGallons": 0.389,
      "maxSpeedMph": 35.9,
      "averageSpeedMph": 12.0,
      "safetyEvents": []
    },
    {
      "id": "trip_41187077_20250411_14328",
      "vehicleId": "41187077",
      "driverId": "20000016",
      "startMs": 1744374436000,
      "endMs": 1744376536000,
      "startAddress": "80578 Pace Trace Apt. 787",
      "endAddress": "47937 Maxwell Lake Suite 129",
      "startCoords": {
        "latitude": 39.69765,
        "longitude": -104.899826
      },
      "endCoords": {
        "latitude": 39.725656,
        "longitude": -104.903784
      },
      "distanceMeters": 10305.7,
      "durationMs": 2100000,
      "drivingDurationMs": 1666693,
      "idlingDurationMs": 433307,
      "fuelConsumedMl": 1310,
      "fuelConsumedGallons": 0.346,
      "maxSpeedMph": 32.5,
      "averageSpeedMph": 11.0,
      "safetyEvents": []
    },
    {
      "id": "trip_41187077_20250411_14358",
      "vehicleId": "41187077",
      "driverId": "20000001",
      "startMs": 1744390599000,
      "endMs": 1744393359000,
      "startAddress": "91238 Jones Way",
      "endAddress": "67652 Thomas Mill Suite 362",
      "startCoords": {
        "latitude": 39.796895,
        "longitude": -105.05253
      },
      "endCoords": {
        "latitude": 39.803453,
        "longitude": -105.002968
      },
      "distanceMeters": 16960.0,
      "durationMs": 2760000,
      "drivingDurationMs": 2183942,
      "idlingDurationMs": 576058,
      "fuelConsumedMl": 2158,
      "fuelConsumedGallons": 0.57,
      "maxSpeedMph": 26.5,
      "averageSpeedMph": 13.7,
      "safetyEvents": []
    },
    {
      "id": "trip_41187077_20250411_14388",
      "vehicleId": "41187077",
      "driverId": "20000020",
      "startMs": 1744404939000,
      "endMs": 1744407039000,
      "startAddress": "498 Spencer Ville",
      "endAddress": "30625 Mathews Lights",
      "startCoords": {
        "latitude": 39.746787,
        "longitude": -105.030035
      },
      "endCoords": {
        "latitude": 39.739556,
        "longitude": -104.943642
      },
      "distanceMeters": 13733.1,
      "durationMs": 2100000,
      "drivingDurationMs": 1844327,
      "idlingDurationMs": 255673,
      "fuelConsumedMl": 1745,
      "fuelConsumedGallons": 0.461,
      "maxSpeedMph": 35.6,
      "averageSpeedMph": 14.6,
      "safetyEvents": []
    },
    {
      "id": "trip_41187077_20250412_14413",
      "vehicleId": "41187077",
      "driverId": "20000017",
      "startMs": 1744421688000,
      "endMs": 1744423668000,
      "startAddress": "0971 Aaron Streets",
      "endAddress": "874 Soto Lane Suite 384",
      "startCoords": {
        "latitude": 39.763223,
        "longitude": -104.928704
      },
      "endCoords": {
        "latitude": 39.704041,
        "longitude": -105.079972
      },
      "distanceMeters": 12486.1,
      "durationMs": 1980000,
      "drivingDurationMs": 1505715,
      "idlingDurationMs": 474285,
      "fuelConsumedMl": 1586,
      "fuelConsumedGallons": 0.419,
      "maxSpeedMph": 35.7,
      "averageSpeedMph": 14.1,
      "safetyEvents": []
    },
    {
      "id": "trip_41187077_20250412_14438",
      "vehicleId": "41187077",
      "driverId": "20000012",
      "startMs": 1744440306000,
      "endMs": 1744442586000,
      "startAddress": "6748 Natasha Landing Apt. 809",
      "endAddress": "56483 William Squares",
      "startCoords": {
        "latitude": 39.781844,
        "longitude": -105.055092
      },
      "endCoords": {
        "latitude": 39.743397,
        "longitude": -105.001848
      },
      "distanceMeters": 16395.1,
      "durationMs": 2280000,
      "drivingDurationMs": 2019002,
      "idlingDurationMs": 260998,
      "fuelConsumedMl": 2086,
      "fuelConsumedGallons": 0.551,
      "maxSpeedMph": 29.4,
      "averageSpeedMph": 16.1,
      "safetyEvents": []
    },
    {
      "id": "trip_41187077_20250412_14466",
      "vehicleId": "41187077",
      "driverId": "20000019",
      "startMs": 1744453856000,
      "endMs": 1744477426000,
      "startAddress": "850 Emily Drive Suite 980",
      "endAddress": "33191 Braun Passage",
      "startCoords": {
        "latitude": 39.763143,
        "longitude": -104.947057
      },
      "endCoords": {
        "latitude": 39.753992,
        "longitude": -105.0627
      },
      "distanceMeters": 105319.1,
      "durationMs": 23570000,
      "drivingDurationMs": 19613550,
      "idlingDurationMs": 3956450,
      "fuelConsumedMl": 13389,
      "fuelConsumedGallons": 3.537,
      "maxSpeedMph": 39.3,
      "averageSpeedMph": 10.0,
      "safetyEvents": []
    },
    {
      "id": "trip_41187077_20250412_14515",
      "vehicleId": "41187077",
      "driverId": "20000015",
      "startMs": 1744478323000,
      "endMs": 1744480903000,
      "startAddress": "726 Frank Keys Suite 497",
      "endAddress": "76448 Matthews Lake",
      "startCoords": {
        "latitude": 39.787896,
        "longitude": -105.015532
      },
      "endCoords": {
        "latitude": 39.72648,
        "longitude": -104.984732
      },
      "distanceMeters": 12398.5,
      "durationMs": 2580000,
      "drivingDurationMs": 2152824,
      "idlingDurationMs": 427176,
      "fuelConsumedMl": 1575,
      "fuelConsumedGallons": 0.416,
      "maxSpeedMph": 28.0,
      "averageSpeedMph": 10.7,
      "safetyEvents": []
    },
    {
      "id": "trip_41187077_20250412_14545",
      "vehicleId": "41187077",
      "driverId": "20000020",
      "startMs": 1744498295000,
      "endMs": 1744500455000,
      "startAddress": "944 Burns Cape Apt. 927",
      "endAddress": "607 Grant Oval",
      "startCoords": {
        "latitude": 39.708012,
        "longitude": -105.00648
      },
      "endCoords": {
        "latitude": 39.729609,
        "longitude": -104.899845
      },
      "distanceMeters": 13419.4,
      "durationMs": 2160000,
      "drivingDurationMs": 1645298,
      "idlingDurationMs": 514702,
      "fuelConsumedMl": 1707,
      "fuelConsumedGallons": 0.451,
      "maxSpeedMph": 36.9,
      "averageSpeedMph": 13.9,
      "safetyEvents": []
    },
    {
      "id": "trip_41187077_20250413_14573",
      "vehicleId": "41187077",
      "driverId": "20000016",
      "startMs": 1744519152000,
      "endMs": 1744520472000,
      "startAddress": "6407 Moore Flats Suite 673",
      "endAddress": "952 Erin Manors",
      "startCoords": {
        "latitude": 39.810099,
        "longitude": -105.042661
      },
      "endCoords": {
        "latitude": 39.723635,
        "longitude": -105.04168
      },
      "distanceMeters": 5484.6,
      "durationMs": 1320000,
      "drivingDurationMs": 1020959,
      "idlingDurationMs": 299041,
      "fuelConsumedMl": 697,
      "fuelConsumedGallons": 0.184,
      "maxSpeedMph": 27.2,
      "averageSpeedMph": 9.3,
      "safetyEvents": []
    },
    {
      "id": "trip_41187077_20250413_14601",
      "vehicleId": "41187077",
      "driverId": "20000020",
      "startMs": 1744545554000,
      "endMs": 1744547534000,
      "startAddress": "99239 Wilson Center",
      "endAddress": "1349 Jodi Motorway Suite 288",
      "startCoords": {
        "latitude": 39.806643,
        "longitude": -105.025108
      },
      "endCoords": {
        "latitude": 39.721287,
        "longitude": -104.99214
      },
      "distanceMeters": 14044.7,
      "durationMs": 1980000,
      "drivingDurationMs": 1660873,
      "idlingDurationMs": 319127,
      "fuelConsumedMl": 1787,
      "fuelConsumedGallons": 0.472,
      "maxSpeedMph": 29.5,
      "averageSpeedMph": 15.9,
      "safetyEvents": []
    },
    {
      "id": "trip_41187077_20250413_14627",
      "vehicleId": "41187077",
      "driverId": "20000002",
      "startMs": 1744569895000,
      "endMs": 1744577138000,
      "startAddress": "01405 Baldwin Track",
      "endAddress": "48576 Donald Plaza",
      "startCoords": {
        "latitude": 39.736245,
        "longitude": -105.013075
      },
      "endCoords": {
        "latitude": 39.691059,
        "longitude": -105.083816
      },
      "distanceMeters": 41908.1,
      "durationMs": 7243000,
      "drivingDurationMs": 6243857,
      "idlingDurationMs": 999143,
      "fuelConsumedMl": 5330,
      "fuelConsumedGallons": 1.408,
      "maxSpeedMph": 31.4,
      "averageSpeedMph": 12.9,
      "safetyEvents": []
    },
    {
      "id": "trip_41187077_20250414_14657",
      "vehicleId": "41187077",
      "driverId": "20000018",
      "startMs": 1744592074000,
      "endMs": 1744594294000,
      "startAddress": "25379 Mays Flats Suite 494",
      "endAddress": "17491 Jason Mall Suite 081",
      "startCoords": {
        "latitude": 39.727101,
        "longitude": -105.002606
      },
      "endCoords": {
        "latitude": 39.771346,
        "longitude": -104.980429
      },
      "distanceMeters": 15033.7,
      "durationMs": 2220000,
      "drivingDurationMs": 1797858,
      "idlingDurationMs": 422142,
      "fuelConsumedMl": 1912,
      "fuelConsumedGallons": 0.505,
      "maxSpeedMph": 31.5,
      "averageSpeedMph": 15.1,
      "safetyEvents": []
    },
    {
      "id": "trip_41187077_20250414_14686",
      "vehicleId": "41187077",
      "driverId": "20000012",
      "startMs": 1744623827000,
      "endMs": 1744630677000,
      "startAddress": "0407 Allison Parkway Apt. 311",
      "endAddress": "192 Doyle Ranch Apt. 877",
      "startCoords": {
        "latitude": 39.782863,
        "longitude": -105.034248
      },
      "endCoords": {
        "latitude": 39.730199,
        "longitude": -105.053605
      },
      "distanceMeters": 42482.1,
      "durationMs": 6850000,
      "drivingDurationMs": 5469987,
      "idlingDurationMs": 1380013,
      "fuelConsumedMl": 5402,
      "fuelConsumedGallons": 1.427,
      "maxSpeedMph": 28.6,
      "averageSpeedMph": 13.9,
      "safetyEvents": []
    },
    {
      "id": "trip_41187077_20250414_14719",
      "vehicleId": "41187077",
      "driverId": "20000002",
      "startMs": 1744642569000,
      "endMs": 1744649818000,
      "startAddress": "807 Christopher Freeway",
      "endAddress": "2290 Wright Villages Suite 663",
      "startCoords": {
        "latitude": 39.766998,
        "longitude": -105.018418
      },
      "endCoords": {
        "latitude": 39.800362,
        "longitude": -105.085219
      },
      "distanceMeters": 41130.8,
      "durationMs": 7249000,
      "drivingDurationMs": 6464709,
      "idlingDurationMs": 784291,
      "fuelConsumedMl": 5228,
      "fuelConsumedGallons": 1.381,
      "maxSpeedMph": 36.9,
      "averageSpeedMph": 12.7,
      "safetyEvents": []
    },
    {
      "id": "trip_41187077_20250414_14750",
      "vehicleId": "41187077",
      "driverId": "20000007",
      "startMs": 1744655692000,
      "endMs": 1744658212000,
      "startAddress": "183 Joseph Crossroad Suite 616",
      "endAddress": "0624 Jordan Garden Apt. 345",
      "startCoords": {
        "latitude": 39.811107,
        "longitude": -105.065915
      },
      "endCoords": {
        "latitude": 39.821291,
        "longitude": -105.085629
      },
      "distanceMeters": 11832.8,
      "durationMs": 2520000,
      "drivingDurationMs": 2227587,
      "idlingDurationMs": 292413,
      "fuelConsumedMl": 1503,
      "fuelConsumedGallons": 0.397,
      "maxSpeedMph": 26.7,
      "averageSpeedMph": 10.5,
      "safetyEvents": []
    },
    {
      "id": "trip_41187077_20250414_14777",
      "vehicleId": "41187077",
      "driverId": "20000005",
      "startMs": 1744668745000,
      "endMs": 1744671025000,
      "startAddress": "738 Madden Roads Suite 357",
      "endAddress": "98160 Edward Tunnel Suite 304",
      "startCoords": {
        "latitude": 39.81711,
        "longitude": -105.08393
      },
      "endCoords": {
        "latitude": 39.724518,
        "longitude": -105.024663
      },
      "distanceMeters": 16126.5,
      "durationMs": 2280000,
      "drivingDurationMs": 1863365,
      "idlingDurationMs": 416635,
      "fuelConsumedMl": 2052,
      "fuelConsumedGallons": 0.542,
      "maxSpeedMph": 36.1,
      "averageSpeedMph": 15.8,
      "safetyEvents": []
    },
    {
      "id": "trip_41187077_20250415_14804",
      "vehicleId": "41187077",
      "driverId": "20000008",
      "startMs": 1744684459000,
      "endMs": 1744686379000,
      "startAddress": "377 John Green Suite 201",
      "endAddress": "638 Allison Lake Suite 427",
      "startCoords": {
        "latitude": 39.820093,
        "longitude": -105.08308
      },
      "endCoords": {
        "latitude": 39.759711,
        "longitude": -104.907146
      },
      "distanceMeters": 12758.3,
      "durationMs": 1920000,
      "drivingDurationMs": 1612073,
      "idlingDurationMs": 307927,
      "fuelConsumedMl": 1624,
      "fuelConsumedGallons": 0.429,
      "maxSpeedMph": 36.7,
      "averageSpeedMph": 14.9,
      "safetyEvents": []
    },
    {
      "id": "trip_41187077_20250415_14832",
      "vehicleId": "41187077",
      "driverId": "20000001",
      "startMs": 1744701313000,
      "endMs": 1744704013000,
      "startAddress": "577 Pittman Union Suite 813",
      "endAddress": "763 Stanley Mountains",
      "startCoords": {
        "latitude": 39.701334,
        "longitude": -104.970438
      },
      "endCoords": {
        "latitude": 39.783028,
        "longitude": -105.005097
      },
      "distanceMeters": 13099.6,
      "durationMs": 2700000,
      "drivingDurationMs": 2124521,
      "idlingDurationMs": 575479,
      "fuelConsumedMl": 1666,
      "fuelConsumedGallons": 0.44,
      "maxSpeedMph": 36.3,
      "averageSpeedMph": 10.9,
      "safetyEvents": []
    },
    {
      "id": "trip_41187077_20250415_14857",
      "vehicleId": "41187077",
      "driverId": "20000009",
      "startMs": 1744712780000,
      "endMs": 1744722465000,
      "startAddress": "389 Rogers Islands Apt. 234",
      "endAddress": "2797 Thomas Trafficway",
      "startCoords": {
        "latitude": 39.707054,
        "longitude": -105.080163
      },
      "endCoords": {
        "latitude": 39.696697,
        "longitude": -105.007776
      },
      "distanceMeters": 54511.4,
      "durationMs": 9685000,
      "drivingDurationMs": 7523014,
      "idlingDurationMs": 2161986,
      "fuelConsumedMl": 6931,
      "fuelConsumedGallons": 1.831,
      "maxSpeedMph": 36.6,
      "averageSpeedMph": 12.6,
      "safetyEvents": []
    },
    {
      "id": "trip_41187077_20250415_14882",
      "vehicleId": "41187077",
      "driverId": "20000012",
      "startMs": 1744725475000,
      "endMs": 1744727155000,
      "startAddress": "004 Kayla Port",
      "endAddress": "69832 Brooks Causeway Apt. 766",
      "startCoords": {
        "latitude": 39.822733,
        "longitude": -105.021169
      },
      "endCoords": {
        "latitude": 39.764136,
        "longitude": -104.951788
      },
      "distanceMeters": 9548.6,
      "durationMs": 1680000,
      "drivingDurationMs": 1461436,
      "idlingDurationMs": 218564,
      "fuelConsumedMl": 1215,
      "fuelConsumedGallons": 0.321,
      "maxSpeedMph": 37.8,
      "averageSpeedMph": 12.7,
      "safetyEvents": []
    },
    {
      "id": "trip_41187077_20250415_14911",
      "vehicleId": "41187077",
      "driverId": "20000012",
      "startMs": 1744742690000,
      "endMs": 1744745030000,
      "startAddress": "8599 Gill Way",
      "endAddress": "469 Natalie Radial Apt. 563",
      "startCoords": {
        "latitude": 39.710154,
        "longitude": -105.041989
      },
      "endCoords": {
        "latitude": 39.819363,
        "longitude": -105.042254
      },
      "distanceMeters": 16401.3,
      "durationMs": 2340000,
      "drivingDurationMs": 1901879,
      "idlingDurationMs": 438121,
      "fuelConsumedMl": 2086,
      "fuelConsumedGallons": 0.551,
      "maxSpeedMph": 36.4,
      "averageSpeedMph": 15.7,
      "safetyEvents": []
    },
    {
      "id": "trip_41187077_20250416_14942",
      "vehicleId": "41187077",
      "driverId": "20000001",
      "startMs": 1744764056000,
      "endMs": 1744777064000,
      "startAddress": "2459 David Wells Suite 169",
      "endAddress": "049 Fuller Loop",
      "startCoords": {
        "latitude": 39.786288,
        "longitude": -105.038827
      },
      "endCoords": {
        "latitude": 39.709559,
        "longitude": -104.996982
      },
      "distanceMeters": 79219.8,
      "durationMs": 13008000,
      "drivingDurationMs": 10383524,
      "idlingDurationMs": 2624476,
      "fuelConsumedMl": 10073,
      "fuelConsumedGallons": 2.661,
      "maxSpeedMph": 38.8,
      "averageSpeedMph": 13.6,
      "safetyEvents": []
    },
    {
      "id": "trip_41187077_20250416_14976",
      "vehicleId": "41187077",
      "driverId": "20000008",
      "startMs": 1744786031000,
      "endMs": 1744788911000,
      "startAddress": "566 Kline Lakes",
      "endAddress": "610 Justin Greens",
      "startCoords": {
        "latitude": 39.827008,
        "longitude": -104.959377
      },
      "endCoords": {
        "latitude": 39.776529,
        "longitude": -104.910325
      },
      "distanceMeters": 18404.6,
      "durationMs": 2880000,
      "drivingDurationMs": 2350447,
      "idlingDurationMs": 529553,
      "fuelConsumedMl": 2339,
      "fuelConsumedGallons": 0.618,
      "maxSpeedMph": 34.3,
      "averageSpeedMph": 14.3,
      "safetyEvents": []
    },
    {
      "id": "trip_41187077_20250416_15006",
      "vehicleId": "41187077",
      "driverId": "20000012",
      "startMs": 1744801500000,
      "endMs": 1744822120000,
      "startAddress": "9785 Lopez Brooks",
      "endAddress": "17660 Hamilton Islands Apt. 150",
      "startCoords": {
        "latitude": 39.705385,
        "longitude": -105.038103
      },
      "endCoords": {
        "latitude": 39.718614,
        "longitude": -105.002836
      },
      "distanceMeters": 127478.3,
      "durationMs": 20620000,
      "drivingDurationMs": 16751967,
      "idlingDurationMs": 3868033,
      "fuelConsumedMl": 16209,
      "fuelConsumedGallons": 4.282,
      "maxSpeedMph": 39.0,
      "averageSpeedMph": 13.8,
      "safetyEvents": []
    },
    {
      "id": "trip_41187077_20250416_15055",
      "vehicleId": "41187077",
      "driverId": "20000016",
      "startMs": 1744823697000,
      "endMs": 1744831138000,
      "startAddress": "520 Laura View Suite 003",
      "endAddress": "800 Melissa Points Apt. 044",
      "startCoords": {
        "latitude": 39.787655,
        "longitude": -105.008915
      },
      "endCoords": {
        "latitude": 39.82064,
        "longitude": -104.997431
      },
      "distanceMeters": 47051.4,
      "durationMs": 7441000,
      "drivingDurationMs": 6619860,
      "idlingDurationMs": 821140,
      "fuelConsumedMl": 5981,
      "fuelConsumedGallons": 1.58,
      "maxSpeedMph": 37.0,
      "averageSpeedMph": 14.1,
      "safetyEvents": []
    },
    {
      "id": "trip_41187077_20250416_15084",
      "vehicleId": "41187077",
      "driverId": "20000018",
      "startMs": 1744843895000,
      "endMs": 1744845875000,
      "startAddress": "0820 Brian Mall Apt. 626",
      "endAddress": "5386 Whitehead Mews Suite 442",
      "startCoords": {
        "latitude": 39.733767,
        "longitude": -105.010998
      },
      "endCoords": {
        "latitude": 39.694361,
        "longitude": -104.965986
      },
      "distanceMeters": 12300.5,
      "durationMs": 1980000,
      "drivingDurationMs": 1740750,
      "idlingDurationMs": 239250,
      "fuelConsumedMl": 1563,
      "fuelConsumedGallons": 0.413,
      "maxSpeedMph": 32.1,
      "averageSpeedMph": 13.9,
      "safetyEvents": []
    },
    {
      "id": "trip_41187077_20250417_15111",
      "vehicleId": "41187077",
      "driverId": "20000004",
      "startMs": 1744860250000,
      "endMs": 1744864916000,
      "startAddress": "9901 James Ramp Apt. 214",
      "endAddress": "2378 Cynthia Mission",
      "startCoords": {
        "latitude": 39.788543,
        "longitude": -104.935332
      },
      "endCoords": {
        "latitude": 39.76654,
        "longitude": -104.958381
      },
      "distanceMeters": 26906.2,
      "durationMs": 4666000,
      "drivingDurationMs": 4005867,
      "idlingDurationMs": 660133,
      "fuelConsumedMl": 3422,
      "fuelConsumedGallons": 0.904,
      "maxSpeedMph": 32.9,
      "averageSpeedMph": 12.9,
      "safetyEvents": []
    },
    {
      "id": "trip_41187077_20250417_15140",
      "vehicleId": "41187077",
      "driverId": "20000017",
      "startMs": 1744880116000,
      "endMs": 1744881796000,
      "startAddress": "265 Ashley Haven Apt. 400",
      "endAddress": "245 Michael View Suite 195",
      "startCoords": {
        "latitude": 39.732818,
        "longitude": -104.92963
      },
      "endCoords": {
        "latitude": 39.746881,
        "longitude": -105.084003
      },
      "distanceMeters": 10925.3,
      "durationMs": 1680000,
      "drivingDurationMs": 1276809,
      "idlingDurationMs": 403191,
      "fuelConsumedMl": 1389,
      "fuelConsumedGallons": 0.367,
      "maxSpeedMph": 34.4,
      "averageSpeedMph": 14.5,
      "safetyEvents": []
    },
    {
      "id": "trip_41187077_20250417_15166",
      "vehicleId": "41187077",
      "driverId": "20000011",
      "startMs": 1744889940000,
      "endMs": 1744897164000,
      "startAddress": "3903 Reid Lodge",
      "endAddress": "7207 Brittany Fork",
      "startCoords": {
        "latitude": 39.762169,
        "longitude": -105.01266
      },
      "endCoords": {
        "latitude": 39.782744,
        "longitude": -105.059888
      },
      "distanceMeters": 33881.4,
      "durationMs": 7224000,
      "drivingDurationMs": 5538914,
      "idlingDurationMs": 1685086,
      "fuelConsumedMl": 4308,
      "fuelConsumedGallons": 1.138,
      "maxSpeedMph": 38.7,
      "averageSpeedMph": 10.5,
      "safetyEvents": []
    },
    {
      "id": "trip_41187077_20250417_15190",
      "vehicleId": "41187077",
      "driverId": "20000005",
      "startMs": 1744904924000,
      "endMs": 1744919674000,
      "startAddress": "14504 Stout Forks Apt. 139",
      "endAddress": "2793 Megan Orchard Apt. 037",
      "startCoords": {
        "latitude": 39.785082,
        "longitude": -105.071694
      },
      "endCoords": {
        "latitude": 39.696585,
        "longitude": -104.912429
      },
      "distanceMeters": 94255.4,
      "durationMs": 14750000,
      "drivingDurationMs": 12363101,
      "idlingDurationMs": 2386899,
      "fuelConsumedMl": 11985,
      "fuelConsumedGallons": 3.166,
      "maxSpeedMph": 33.6,
      "averageSpeedMph": 14.3,
      "safetyEvents": []
    },
    {
      "id": "trip_41187077_20250417_15222",
      "vehicleId": "41187077",
      "driverId": "20000002",
      "startMs": 1744923425000,
      "endMs": 1744929525000,
      "startAddress": "4849 Susan Loop",
      "endAddress": "200 Adams Shore",
      "startCoords": {
        "latitude": 39.802141,
        "longitude": -104.943898
      },
      "endCoords": {
        "latitude": 39.79423,
        "longitude": -105.058383
      },
      "distanceMeters": 39735.9,
      "durationMs": 6100000,
      "drivingDurationMs": 5203651,
      "idlingDurationMs": 896349,
      "fuelConsumedMl": 5054,
      "fuelConsumedGallons": 1.335,
      "maxSpeedMph": 29.0,
      "averageSpeedMph": 14.6,
      "safetyEvents": []
    },
    {
      "id": "trip_41187077_20250418_15252",
      "vehicleId": "41187077",
      "driverId": "20000022",
      "startMs": 1744943386000,
      "endMs": 1744948570000,
      "startAddress": "20702 Cooley Radial Apt. 575",
      "endAddress": "74116 Katherine Freeway",
      "startCoords": {
        "latitude": 39.789064,
        "longitude": -105.015639
      },
      "endCoords": {
        "latitude": 39.758346,
        "longitude": -105.011676
      },
      "distanceMeters": 21797.7,
      "durationMs": 5184000,
      "drivingDurationMs": 4356066,
      "idlingDurationMs": 827934,
      "fuelConsumedMl": 2771,
      "fuelConsumedGallons": 0.732,
      "maxSpeedMph": 28.6,
      "averageSpeedMph": 9.4,
      "safetyEvents": []
    },
    {
      "id": "trip_41187077_20250418_15278",
      "vehicleId": "41187077",
      "driverId": "20000005",
      "startMs": 1744959347000,
      "endMs": 1744960607000,
      "startAddress": "28070 Robin Key",
      "endAddress": "275 Bates Vista",
      "startCoords": {
        "latitude": 39.785067,
        "longitude": -104.997156
      },
      "endCoords": {
        "latitude": 39.692296,
        "longitude": -105.029804
      },
      "distanceMeters": 9051.1,
      "durationMs": 1260000,
      "drivingDurationMs": 1077942,
      "idlingDurationMs": 182058,
      "fuelConsumedMl": 1151,
      "fuelConsumedGallons": 0.304,
      "maxSpeedMph": 35.7,
      "averageSpeedMph": 16.1,
      "safetyEvents": []
    },
    {
      "id": "trip_41187077_20250418_15307",
      "vehicleId": "41187077",
      "driverId": "20000015",
      "startMs": 1744976777000,
      "endMs": 1744978457000,
      "startAddress": "094 Lori Crossroad Suite 726",
      "endAddress": "959 Jasmine Inlet",
      "startCoords": {
        "latitude": 39.740727,
        "longitude": -105.020318
      },
      "endCoords": {
        "latitude": 39.704572,
        "longitude": -105.056653
      },
      "distanceMeters": 10771.4,
      "durationMs": 1680000,
      "drivingDurationMs": 1303139,
      "idlingDurationMs": 376861,
      "fuelConsumedMl": 1370,
      "fuelConsumedGallons": 0.362,
      "maxSpeedMph": 37.7,
      "averageSpeedMph": 14.3,
      "safetyEvents": []
    },
    {
      "id": "trip_41187077_20250418_15337",
      "vehicleId": "41187077",
      "driverId": "20000012",
      "startMs": 1744989381000,
      "endMs": 1744991800000,
      "startAddress": "3206 Clinton Turnpike",
      "endAddress": "213 Newman Dam",
      "startCoords": {
        "latitude": 39.779825,
        "longitude": -104.962218
      },
      "endCoords": {
        "latitude": 39.734677,
        "longitude": -104.92464
      },
      "distanceMeters": 15445.1,
      "durationMs": 2419000,
      "drivingDurationMs": 1852031,
      "idlingDurationMs": 566969,
      "fuelConsumedMl": 1965,
      "fuelConsumedGallons": 0.519,
      "maxSpeedMph": 29.7,
      "averageSpeedMph": 14.3,
      "safetyEvents": []
    },
    {
      "id": "trip_41187077_20250418_15366",
      "vehicleId": "41187077",
      "driverId": "20000004",
      "startMs": 1745004521000,
      "endMs": 1745006441000,
      "startAddress": "529 Davis Mission",
      "endAddress": "98031 Whitney Fords",
      "startCoords": {
        "latitude": 39.717798,
        "longitude": -105.012438
      },
      "endCoords": {
        "latitude": 39.770792,
        "longitude": -105.04616
      },
      "distanceMeters": 8877.3,
      "durationMs": 1920000,
      "drivingDurationMs": 1466289,
      "idlingDurationMs": 453711,
      "fuelConsumedMl": 1128,
      "fuelConsumedGallons": 0.298,
      "maxSpeedMph": 34.4,
      "averageSpeedMph": 10.3,
      "safetyEvents": []
    },
    {
      "id": "trip_41187077_20250418_15395",
      "vehicleId": "41187077",
      "driverId": "20000006",
      "startMs": 1745019381000,
      "endMs": 1745021061000,
      "startAddress": "593 Reeves Points",
      "endAddress": "359 Katelyn Island Suite 764",
      "startCoords": {
        "latitude": 39.71755,
        "longitude": -104.936141
      },
      "endCoords": {
        "latitude": 39.714787,
        "longitude": -104.979423
      },
      "distanceMeters": 9938.4,
      "durationMs": 1680000,
      "drivingDurationMs": 1311692,
      "idlingDurationMs": 368308,
      "fuelConsumedMl": 1264,
      "fuelConsumedGallons": 0.334,
      "maxSpeedMph": 28.3,
      "averageSpeedMph": 13.2,
      "safetyEvents": []
    },
    {
      "id": "trip_41187077_20250419_15424",
      "vehicleId": "41187077",
      "driverId": "20000019",
      "startMs": 1745041872000,
      "endMs": 1745043912000,
      "startAddress": "11049 Walker Bridge",
      "endAddress": "09271 Christina Landing Apt. 192",
      "startCoords": {
        "latitude": 39.80931,
        "longitude": -104.927988
      },
      "endCoords": {
        "latitude": 39.73235,
        "longitude": -104.92308
      },
      "distanceMeters": 9277.3,
      "durationMs": 2040000,
      "drivingDurationMs": 1603625,
      "idlingDurationMs": 436375,
      "fuelConsumedMl": 1181,
      "fuelConsumedGallons": 0.312,
      "maxSpeedMph": 27.2,
      "averageSpeedMph": 10.2,
      "safetyEvents": []
    },
    {
      "id": "trip_41187077_20250419_15455",
      "vehicleId": "41187077",
      "driverId": "20000022",
      "startMs": 1745053868000,
      "endMs": 1745055068000,
      "startAddress": "4809 Turner Tunnel",
      "endAddress": "38006 Juan Lakes Apt. 952",
      "startCoords": {
        "latitude": 39.695822,
        "longitude": -104.959715
      },
      "endCoords": {
        "latitude": 39.685345,
        "longitude": -105.007489
      },
      "distanceMeters": 6418.0,
      "durationMs": 1200000,
      "drivingDurationMs": 995242,
      "idlingDurationMs": 204758,
      "fuelConsumedMl": 818,
      "fuelConsumedGallons": 0.216,
      "maxSpeedMph": 34.2,
      "averageSpeedMph": 12.0,
      "safetyEvents": []
    },
    {
      "id": "trip_41187077_20250419_15486",
      "vehicleId": "41187077",
      "driverId": "20000008",
      "startMs": 1745069991000,
      "endMs": 1745071311000,
      "startAddress": "8530 Kristen Park",
      "endAddress": "478 Stevens Lakes Apt. 285",
      "startCoords": {
        "latitude": 39.729345,
        "longitude": -104.917207
      },
      "endCoords": {
        "latitude": 39.794679,
        "longitude": -104.984735
      },
      "distanceMeters": 9608.1,
      "durationMs": 1320000,
      "drivingDurationMs": 1117925,
      "idlingDurationMs": 202075,
      "fuelConsumedMl": 1223,
      "fuelConsumedGallons": 0.323,
      "maxSpeedMph": 30.1,
      "averageSpeedMph": 16.3,
      "safetyEvents": []
    },
    {
      "id": "trip_41187077_20250419_15515",
      "vehicleId": "41187077",
      "driverId": "20000020",
      "startMs": 1745089967000,
      "endMs": 1745091827000,
      "startAddress": "549 Randy Parks",
      "endAddress": "3307 Ashley Plains",
      "startCoords": {
        "latitude": 39.719494,
        "longitude": -105.001072
      },
      "endCoords": {
        "latitude": 39.705725,
        "longitude": -105.030769
      },
      "distanceMeters": 9184.9,
      "durationMs": 1860000,
      "drivingDurationMs": 1584117,
      "idlingDurationMs": 275883,
      "fuelConsumedMl": 1166,
      "fuelConsumedGallons": 0.308,
      "maxSpeedMph": 28.9,
      "averageSpeedMph": 11.0,
      "safetyEvents": []
    },
    {
      "id": "trip_41187077_20250420_15546",
      "vehicleId": "41187077",
      "driverId": "20000013",
      "startMs": 1745111524000,
      "endMs": 1745113624000,
      "startAddress": "298 Sarah Extension Suite 472",
      "endAddress": "733 Crystal Points",
      "startCoords": {
        "latitude": 39.764193,
        "longitude": -105.076492
      },
      "endCoords": {
        "latitude": 39.709174,
        "longitude": -105.068126
      },
      "distanceMeters": 13412.7,
      "durationMs": 2100000,
      "drivingDurationMs": 1660342,
      "idlingDurationMs": 439658,
      "fuelConsumedMl": 1707,
      "fuelConsumedGallons": 0.451,
      "maxSpeedMph": 27.2,
      "averageSpeedMph": 14.3,
      "safetyEvents": []
    },
    {
      "id": "trip_41187077_20250420_15579",
      "vehicleId": "41187077",
      "driverId": "20000022",
      "startMs": 1745142058000,
      "endMs": 1745144158000,
      "startAddress": "6476 Brown Branch",
      "endAddress": "1198 Samantha Route",
      "startCoords": {
        "latitude": 39.703055,
        "longitude": -104.977881
      },
      "endCoords": {
        "latitude": 39.687149,
        "longitude": -105.040435
      },
      "distanceMeters": 11222.3,
      "durationMs": 2100000,
      "drivingDurationMs": 1691403,
      "idlingDurationMs": 408597,
      "fuelConsumedMl": 1427,
      "fuelConsumedGallons": 0.377,
      "maxSpeedMph": 38.2,
      "averageSpeedMph": 12.0,
      "safetyEvents": []
    },
    {
      "id": "trip_41187077_20250420_15611",
      "vehicleId": "41187077",
      "driverId": "20000008",
      "startMs": 1745166488000,
      "endMs": 1745170275000,
      "startAddress": "5468 Vang Ridges",
      "endAddress": "37488 Roberts Junction",
      "startCoords": {
        "latitude": 39.768993,
        "longitude": -104.914362
      },
      "endCoords": {
        "latitude": 39.764849,
        "longitude": -105.004041
      },
      "distanceMeters": 15692.0,
      "durationMs": 3787000,
      "drivingDurationMs": 3099054,
      "idlingDurationMs": 687946,
      "fuelConsumedMl": 1995,
      "fuelConsumedGallons": 0.527,
      "maxSpeedMph": 36.2,
      "averageSpeedMph": 9.3,
      "safetyEvents": []
    },
    {
      "id": "trip_41187077_20250420_15639",
      "vehicleId": "41187077",
      "driverId": "20000011",
      "startMs": 1745191299000,
      "endMs": 1745193459000,
      "startAddress": "462 Lauren Lights",
      "endAddress": "003 Baxter Via",
      "startCoords": {
        "latitude": 39.701008,
        "longitude": -105.0626
      },
      "endCoords": {
        "latitude": 39.818615,
        "longitude": -105.071381
      },
      "distanceMeters": 15275.8,
      "durationMs": 2160000,
      "drivingDurationMs": 1920416,
      "idlingDurationMs": 239584,
      "fuelConsumedMl": 1942,
      "fuelConsumedGallons": 0.513,
      "maxSpeedMph": 29.5,
      "averageSpeedMph": 15.8,
      "safetyEvents": []
    },
    {
      "id": "trip_41187077_20250421_15670",
      "vehicleId": "41187077",
      "driverId": "20000008",
      "startMs": 1745227666000,
      "endMs": 1745236821000,
      "startAddress": "02928 Thomas Station",
      "endAddress": "4997 Hudson Path",
      "startCoords": {
        "latitude": 39.69007,
        "longitude": -105.050907
      },
      "endCoords": {
        "latitude": 39.735281,
        "longitude": -105.024681
      },
      "distanceMeters": 51132.1,
      "durationMs": 9155000,
      "drivingDurationMs": 8089906,
      "idlingDurationMs": 1065094,
      "fuelConsumedMl": 6500,
      "fuelConsumedGallons": 1.717,
      "maxSpeedMph": 37.3,
      "averageSpeedMph": 12.5,
      "safetyEvents": []
    },
    {
      "id": "trip_41187077_20250421_15698",
      "vehicleId": "41187077",
      "driverId": "20000008",
      "startMs": 1745241199000,
      "endMs": 1745244529000,
      "startAddress": "9082 John Shoals Apt. 976",
      "endAddress": "686 Leslie Drive Apt. 493",
      "startCoords": {
        "latitude": 39.763561,
        "longitude": -105.012236
      },
      "endCoords": {
        "latitude": 39.765458,
        "longitude": -105.029804
      },
      "distanceMeters": 25187.4,
      "durationMs": 3330000,
      "drivingDurationMs": 2846538,
      "idlingDurationMs": 483462,
      "fuelConsumedMl": 3202,
      "fuelConsumedGallons": 0.846,
      "maxSpeedMph": 32.5,
      "averageSpeedMph": 16.9,
      "safetyEvents": []
    },
    {
      "id": "trip_41187077_20250421_15733",
      "vehicleId": "41187077",
      "driverId": "20000016",
      "startMs": 1745257066000,
      "endMs": 1745258266000,
      "startAddress": "17703 Douglas Divide",
      "endAddress": "461 Christina Pine",
      "startCoords": {
        "latitude": 39.806836,
        "longitude": -104.914507
      },
      "endCoords": {
        "latitude": 39.754665,
        "longitude": -104.936795
      },
      "distanceMeters": 5687.0,
      "durationMs": 1200000,
      "drivingDurationMs": 1001259,
      "idlingDurationMs": 198741,
      "fuelConsumedMl": 723,
      "fuelConsumedGallons": 0.191,
      "maxSpeedMph": 36.9,
      "averageSpeedMph": 10.6,
      "safetyEvents": []
    },
    {
      "id": "trip_41187077_20250421_15761",
      "vehicleId": "41187077",
      "driverId": "20000016",
      "startMs": 1745273641000,
      "endMs": 1745278091000,
      "startAddress": "446 Wolfe Shores",
      "endAddress": "35644 Gabriel Shore",
      "startCoords": {
        "latitude": 39.822273,
        "longitude": -104.957245
      },
      "endCoords": {
        "latitude": 39.711184,
        "longitude": -104.908209
      },
      "distanceMeters": 21031.0,
      "durationMs": 4450000,
      "drivingDurationMs": 3393819,
      "idlingDurationMs": 1056181,
      "fuelConsumedMl": 2672,
      "fuelConsumedGallons": 0.706,
      "maxSpeedMph": 26.1,
      "averageSpeedMph": 10.6,
      "safetyEvents": []
    },
    {
      "id": "trip_41187077_20250422_15794",
      "vehicleId": "41187077",
      "driverId": "20000015",
      "startMs": 1745290400000,
      "endMs": 1745304254000,
      "startAddress": "8619 Gonzales Manors Apt. 335",
      "endAddress": "8144 Angela Rapid Apt. 232",
      "startCoords": {
        "latitude": 39.793371,
        "longitude": -105.065447
      },
      "endCoords": {
        "latitude": 39.813499,
        "longitude": -105.028516
      },
      "distanceMeters": 79575.1,
      "durationMs": 13854000,
      "drivingDurationMs": 12354602,
      "idlingDurationMs": 1499398,
      "fuelConsumedMl": 10118,
      "fuelConsumedGallons": 2.673,
      "maxSpeedMph": 37.7,
      "averageSpeedMph": 12.8,
      "safetyEvents": []
    },
    {
      "id": "trip_41187077_20250422_15828",
      "vehicleId": "41187077",
      "driverId": "20000015",
      "startMs": 1745310370000,
      "endMs": 1745317139000,
      "startAddress": "074 Marisa Causeway",
      "endAddress": "35263 Dawn Inlet Suite 917",
      "startCoords": {
        "latitude": 39.740067,
        "longitude": -105.01437
      },
      "endCoords": {
        "latitude": 39.751131,
        "longitude": -104.924454
      },
      "distanceMeters": 48593.4,
      "durationMs": 6769000,
      "drivingDurationMs": 6028985,
      "idlingDurationMs": 740015,
      "fuelConsumedMl": 6178,
      "fuelConsumedGallons": 1.632,
      "maxSpeedMph": 26.8,
      "averageSpeedMph": 16.1,
      "safetyEvents": []
    },
    {
      "id": "trip_41187077_20250422_15859",
      "vehicleId": "41187077",
      "driverId": "20000016",
      "startMs": 1745326089000,
      "endMs": 1745331104000,
      "startAddress": "622 Robert Villages",
      "endAddress": "9583 Alexander Flats",
      "startCoords": {
        "latitude": 39.725135,
        "longitude": -104.929497
      },
      "endCoords": {
        "latitude": 39.721911,
        "longitude": -104.946621
      },
      "distanceMeters": 22406.5,
      "durationMs": 5015000,
      "drivingDurationMs": 3889049,
      "idlingDurationMs": 1125951,
      "fuelConsumedMl": 2850,
      "fuelConsumedGallons": 0.753,
      "maxSpeedMph": 39.5,
      "averageSpeedMph": 10.0,
      "safetyEvents": []
    },
    {
      "id": "trip_41187077_20250422_15887",
      "vehicleId": "41187077",
      "driverId": "20000002",
      "startMs": 1745340075000,
      "endMs": 1745341335000,
      "startAddress": "998 Sexton Expressway",
      "endAddress": "8448 Chan Ports Suite 732",
      "startCoords": {
        "latitude": 39.757092,
        "longitude": -104.911167
      },
      "endCoords": {
        "latitude": 39.803192,
        "longitude": -104.975107
      },
      "distanceMeters": 5608.6,
      "durationMs": 1260000,
      "drivingDurationMs": 1113342,
      "idlingDurationMs": 146658,
      "fuelConsumedMl": 712,
      "fuelConsumedGallons": 0.188,
      "maxSpeedMph": 35.2,
      "averageSpeedMph": 10.0,
      "safetyEvents": []
    },
    {
      "id": "trip_41187077_20250422_15914",
      "vehicleId": "41187077",
      "driverId": "20000013",
      "startMs": 1745352273000,
      "endMs": 1745357044000,
      "startAddress": "787 Jessica Stream",
      "endAddress": "5333 Mullen Ridges Apt. 307",
      "startCoords": {
        "latitude": 39.739834,
        "longitude": -104.995082
      },
      "endCoords": {
        "latitude": 39.801955,
        "longitude": -105.078923
      },
      "distanceMeters": 27098.5,
      "durationMs": 4771000,
      "drivingDurationMs": 3656527,
      "idlingDurationMs": 1114473,
      "fuelConsumedMl": 3445,
      "fuelConsumedGallons": 0.91,
      "maxSpeedMph": 38.4,
      "averageSpeedMph": 12.7,
      "safetyEvents": []
    },
    {
      "id": "trip_41187077_20250423_15943",
      "vehicleId": "41187077",
      "driverId": "20000020",
      "startMs": 1745371905000,
      "endMs": 1745373765000,
      "startAddress": "81254 White Causeway Apt. 188",
      "endAddress": "9866 Palmer Loaf",
      "startCoords": {
        "latitude": 39.787003,
        "longitude": -105.016486
      },
      "endCoords": {
        "latitude": 39.777943,
        "longitude": -105.073807
      },
      "distanceMeters": 7684.9,
      "durationMs": 1860000,
      "drivingDurationMs": 1407391,
      "idlingDurationMs": 452609,
      "fuelConsumedMl": 977,
      "fuelConsumedGallons": 0.258,
      "maxSpeedMph": 28.2,
      "averageSpeedMph": 9.2,
      "safetyEvents": []
    },
    {
      "id": "trip_41187077_20250423_15969",
      "vehicleId": "41187077",
      "driverId": "20000015",
      "startMs": 1745387630000,
      "endMs": 1745397879000,
      "startAddress": "62022 Cindy Place",
      "endAddress": "848 Andrea Square",
      "startCoords": {
        "latitude": 39.688116,
        "longitude": -105.073753
      },
      "endCoords": {
        "latitude": 39.694088,
        "longitude": -104.908344
      },
      "distanceMeters": 51782.1,
      "durationMs": 10249000,
      "drivingDurationMs": 8726191,
      "idlingDurationMs": 1522809,
      "fuelConsumedMl": 6583,
      "fuelConsumedGallons": 1.739,
      "maxSpeedMph": 26.0,
      "averageSpeedMph": 11.3,
      "safetyEvents": []
    },
    {
      "id": "trip_41187077_20250423_15998",
      "vehicleId": "41187077",
      "driverId": "20000001",
      "startMs": 1745402125000,
      "endMs": 1745409266000,
      "startAddress": "86141 Aguilar Shoal Suite 944",
      "endAddress": "18368 Jeremy Lock Suite 849",
      "startCoords": {
        "latitude": 39.702833,
        "longitude": -105.065899
      },
      "endCoords": {
        "latitude": 39.786286,
        "longitude": -105.080213
      },
      "distanceMeters": 47813.0,
      "durationMs": 7141000,
      "drivingDurationMs": 6278336,
      "idlingDurationMs": 862664,
      "fuelConsumedMl": 6079,
      "fuelConsumedGallons": 1.606,
      "maxSpeedMph": 29.5,
      "averageSpeedMph": 15.0,
      "safetyEvents": []
    },
    {
      "id": "trip_41187077_20250423_16026",
      "vehicleId": "41187077",
      "driverId": "20000010",
      "startMs": 1745413530000,
      "endMs": 1745415990000,
      "startAddress": "2353 Martin Light",
      "endAddress": "405 Brown Lodge",
      "startCoords": {
        "latitude": 39.702098,
        "longitude": -104.975612
      },
      "endCoords": {
        "latitude": 39.806585,
        "longitude": -105.016053
      },
      "distanceMeters": 14027.7,
      "durationMs": 2460000,
      "drivingDurationMs": 1918728,
      "idlingDurationMs": 541272,
      "fuelConsumedMl": 1783,
      "fuelConsumedGallons": 0.471,
      "maxSpeedMph": 33.6,
      "averageSpeedMph": 12.8,
      "safetyEvents": []
    },
    {
      "id": "trip_41187077_20250423_16056",
      "vehicleId": "41187077",
      "driverId": "20000004",
      "startMs": 1745430071000,
      "endMs": 1745431991000,
      "startAddress": "0842 Corey Bridge Suite 471",
      "endAddress": "325 Wilkinson Cliffs",
      "startCoords": {
        "latitude": 39.706514,
        "longitude": -104.954245
      },
      "endCoords": {
        "latitude": 39.703,
        "longitude": -104.950591
      },
      "distanceMeters": 9185.2,
      "durationMs": 1920000,
      "drivingDurationMs": 1468664,
      "idlingDurationMs": 451336,
      "fuelConsumedMl": 1170,
      "fuelConsumedGallons": 0.309,
      "maxSpeedMph": 28.5,
      "averageSpeedMph": 10.7,
      "safetyEvents": []
    },
    {
      "id": "trip_41187077_20250423_16088",
      "vehicleId": "41187077",
      "driverId": "20000004",
      "startMs": 1745446985000,
      "endMs": 1745452416000,
      "startAddress": "6020 Alyssa Fields",
      "endAddress": "51359 Jasmine Spurs Suite 764",
      "startCoords": {
        "latitude": 39.697954,
        "longitude": -104.914862
      },
      "endCoords": {
        "latitude": 39.796193,
        "longitude": -104.993645
      },
      "distanceMeters": 21071.7,
      "durationMs": 5431000,
      "drivingDurationMs": 4138662,
      "idlingDurationMs": 1292338,
      "fuelConsumedMl": 2680,
      "fuelConsumedGallons": 0.708,
      "maxSpeedMph": 27.1,
      "averageSpeedMph": 8.7,
      "safetyEvents": []
    },
    {
      "id": "trip_41187077_20250424_16113",
      "vehicleId": "41187077",
      "driverId": "20000013",
      "startMs": 1745464514000,
      "endMs": 1745466734000,
      "startAddress": "0134 Cruz Brooks Apt. 075",
      "endAddress": "68513 Brown Ramp Apt. 574",
      "startCoords": {
        "latitude": 39.723971,
        "longitude": -105.055815
      },
      "endCoords": {
        "latitude": 39.683903,
        "longitude": -105.063304
      },
      "distanceMeters": 12767.5,
      "durationMs": 2220000,
      "drivingDurationMs": 1682053,
      "idlingDurationMs": 537947,
      "fuelConsumedMl": 1624,
      "fuelConsumedGallons": 0.429,
      "maxSpeedMph": 38.6,
      "averageSpeedMph": 12.9,
      "safetyEvents": []
    },
    {
      "id": "trip_41187077_20250424_16142",
      "vehicleId": "41187077",
      "driverId": "20000018",
      "startMs": 1745479476000,
      "endMs": 1745502580000,
      "startAddress": "934 Ronald Springs",
      "endAddress": "986 Garza Walk Apt. 516",
      "startCoords": {
        "latitude": 39.767595,
        "longitude": -104.915658
      },
      "endCoords": {
        "latitude": 39.752415,
        "longitude": -104.92705
      },
      "distanceMeters": 165988.1,
      "durationMs": 23104000,
      "drivingDurationMs": 19362404,
      "idlingDurationMs": 3741596,
      "fuelConsumedMl": 21104,
      "fuelConsumedGallons": 5.575,
      "maxSpeedMph": 28.2,
      "averageSpeedMph": 16.1,
      "safetyEvents": []
    },
    {
      "id": "trip_41187077_20250424_16194",
      "vehicleId": "41187077",
      "driverId": "20000019",
      "startMs": 1745504310000,
      "endMs": 1745508128000,
      "startAddress": "20416 Traci Springs",
      "endAddress": "643 Davis Mount Suite 514",
      "startCoords": {
        "latitude": 39.735573,
        "longitude": -104.993628
      },
      "endCoords": {
        "latitude": 39.799723,
        "longitude": -104.953277
      },
      "distanceMeters": 19669.6,
      "durationMs": 3818000,
      "drivingDurationMs": 3386575,
      "idlingDurationMs": 431425,
      "fuelConsumedMl": 2502,
      "fuelConsumedGallons": 0.661,
      "maxSpeedMph": 32.1,
      "averageSpeedMph": 11.5,
      "safetyEvents": []
    },
    {
      "id": "trip_41187077_20250424_16220",
      "vehicleId": "41187077",
      "driverId": "20000018",
      "startMs": 1745518022000,
      "endMs": 1745531226000,
      "startAddress": "816 Hawkins Lock Suite 629",
      "endAddress": "371 Henry Meadow",
      "startCoords": {
        "latitude": 39.699678,
        "longitude": -105.077732
      },
      "endCoords": {
        "latitude": 39.777195,
        "longitude": -105.082641
      },
      "distanceMeters": 70449.9,
      "durationMs": 13204000,
      "drivingDurationMs": 11854524,
      "idlingDurationMs": 1349476,
      "fuelConsumedMl": 8956,
      "fuelConsumedGallons": 2.366,
      "maxSpeedMph": 38.1,
      "averageSpeedMph": 11.9,
      "safetyEvents": []
    },
    {
      "id": "trip_41187077_20250424_16250",
      "vehicleId": "41187077",
      "driverId": "20000006",
      "startMs": 1745534707000,
      "endMs": 1745537725000,
      "startAddress": "10933 Roy Mount Apt. 896",
      "endAddress": "938 David Land Apt. 040",
      "startCoords": {
        "latitude": 39.743294,
        "longitude": -105.067075
      },
      "endCoords": {
        "latitude": 39.725994,
        "longitude": -105.048762
      },
      "distanceMeters": 12779.8,
      "durationMs": 3018000,
      "drivingDurationMs": 2457487,
      "idlingDurationMs": 560513,
      "fuelConsumedMl": 1624,
      "fuelConsumedGallons": 0.429,
      "maxSpeedMph": 36.1,
      "averageSpeedMph": 9.5,
      "safetyEvents": []
    },
    {
      "id": "trip_41187077_20250425_16281",
      "vehicleId": "41187077",
      "driverId": "20000019",
      "startMs": 1745552768000,
      "endMs": 1745557919000,
      "startAddress": "435 Wendy Land",
      "endAddress": "711 Lynch Locks",
      "startCoords": {
        "latitude": 39.810641,
        "longitude": -104.96115
      },
      "endCoords": {
        "latitude": 39.791984,
        "longitude": -105.047286
      },
      "distanceMeters": 27033.4,
      "durationMs": 5151000,
      "drivingDurationMs": 4152699,
      "idlingDurationMs": 998301,
      "fuelConsumedMl": 3437,
      "fuelConsumedGallons": 0.908,
      "maxSpeedMph": 36.2,
      "averageSpeedMph": 11.7,
      "safetyEvents": []
    },
    {
      "id": "trip_41187077_20250425_16310",
      "vehicleId": "41187077",
      "driverId": "20000002",
      "startMs": 1745570611000,
      "endMs": 1745576854000,
      "startAddress": "556 Bryce Mission",
      "endAddress": "190 Harold Throughway",
      "startCoords": {
        "latitude": 39.739032,
        "longitude": -105.062532
      },
      "endCoords": {
        "latitude": 39.813512,
        "longitude": -104.935018
      },
      "distanceMeters": 46122.5,
      "durationMs": 6243000,
      "drivingDurationMs": 5265062,
      "idlingDurationMs": 977938,
      "fuelConsumedMl": 5864,
      "fuelConsumedGallons": 1.549,
      "maxSpeedMph": 33.5,
      "averageSpeedMph": 16.5,
      "safetyEvents": []
    },
    {
      "id": "trip_41187077_20250425_16335",
      "vehicleId": "41187077",
      "driverId": "20000006",
      "startMs": 1745583918000,
      "endMs": 1745587291000,
      "startAddress": "662 Williams Burgs Apt. 822",
      "endAddress": "41629 Thomas Summit",
      "startCoords": {
        "latitude": 39.693054,
        "longitude": -104.971873
      },
      "endCoords": {
        "latitude": 39.766217,
        "longitude": -105.057222
      },
      "distanceMeters": 21944.1,
      "durationMs": 3373000,
      "drivingDurationMs": 2742653,
      "idlingDurationMs": 630347,
      "fuelConsumedMl": 2790,
      "fuelConsumedGallons": 0.737,
      "maxSpeedMph": 30.8,
      "averageSpeedMph": 14.6,
      "safetyEvents": []
    },
    {
      "id": "trip_41187077_20250425_16364",
      "vehicleId": "41187077",
      "driverId": "20000016",
      "startMs": 1745600605000,
      "endMs": 1745605681000,
      "startAddress": "3466 Lawrence Greens",
      "endAddress": "1916 Riley Hills Suite 819",
      "startCoords": {
        "latitude": 39.732993,
        "longitude": -105.083103
      },
      "endCoords": {
        "latitude": 39.729832,
        "longitude": -105.017873
      },
      "distanceMeters": 25103.4,
      "durationMs": 5076000,
      "drivingDurationMs": 4205237,
      "idlingDurationMs": 870763,
      "fuelConsumedMl": 3191,
      "fuelConsumedGallons": 0.843,
      "maxSpeedMph": 36.4,
      "averageSpeedMph": 11.1,
      "safetyEvents": []
    },
    {
      "id": "trip_41187077_20250425_16392",
      "vehicleId": "41187077",
      "driverId": "20000005",
      "startMs": 1745615445000,
      "endMs": 1745617605000,
      "startAddress": "2914 Teresa Neck",
      "endAddress": "5988 Clark Haven Apt. 519",
      "startCoords": {
        "latitude": 39.804464,
        "longitude": -105.079473
      },
      "endCoords": {
        "latitude": 39.694577,
        "longitude": -104.998891
      },
      "distanceMeters": 15120.8,
      "durationMs": 2160000,
      "drivingDurationMs": 1919954,
      "idlingDurationMs": 240046,
      "fuelConsumedMl": 1923,
      "fuelConsumedGallons": 0.508,
      "maxSpeedMph": 28.1,
      "averageSpeedMph": 15.7,
      "safetyEvents": []
    },
    {
      "id": "trip_41187077_20250426_16423",
      "vehicleId": "41187077",
      "driverId": "20000021",
      "startMs": 1745642222000,
      "endMs": 1745657921000,
      "startAddress": "580 James Neck",
      "endAddress": "67066 Ann Extension",
      "startCoords": {
        "latitude": 39.774316,
        "longitude": -104.92483
      },
      "endCoords": {
        "latitude": 39.74231,
        "longitude": -104.969411
      },
      "distanceMeters": 86348.3,
      "durationMs": 15699000,
      "drivingDurationMs": 12271939,
      "idlingDurationMs": 3427061,
      "fuelConsumedMl": 10978,
      "fuelConsumedGallons": 2.9,
      "maxSpeedMph": 30.1,
      "averageSpeedMph": 12.3,
      "safetyEvents": []
    },
    {
      "id": "trip_41187077_20250426_16451",
      "vehicleId": "41187077",
      "driverId": "20000022",
      "startMs": 1745659286000,
      "endMs": 1745661386000,
      "startAddress": "636 Henderson Islands Apt. 000",
      "endAddress": "3704 Herrera Cape",
      "startCoords": {
        "latitude": 39.778071,
        "longitude": -104.90894
      },
      "endCoords": {
        "latitude": 39.751244,
        "longitude": -105.071696
      },
      "distanceMeters": 11821.7,
      "durationMs": 2100000,
      "drivingDurationMs": 1690356,
      "idlingDurationMs": 409644,
      "fuelConsumedMl": 1503,
      "fuelConsumedGallons": 0.397,
      "maxSpeedMph": 33.6,
      "averageSpeedMph": 12.6,
      "safetyEvents": []
    },
    {
      "id": "trip_41187077_20250426_16482",
      "vehicleId": "41187077",
      "driverId": "20000016",
      "startMs": 1745673909000,
      "endMs": 1745677036000,
      "startAddress": "96706 Taylor Locks Suite 391",
      "endAddress": "00331 Willie Lane Apt. 060",
      "startCoords": {
        "latitude": 39.751201,
        "longitude": -105.048597
      },
      "endCoords": {
        "latitude": 39.685236,
        "longitude": -104.981202
      },
      "distanceMeters": 13443.3,
      "durationMs": 3127000,
      "drivingDurationMs": 2561276,
      "idlingDurationMs": 565724,
      "fuelConsumedMl": 1711,
      "fuelConsumedGallons": 0.452,
      "maxSpeedMph": 35.3,
      "averageSpeedMph": 9.6,
      "safetyEvents": []
    },
    {
      "id": "trip_41187077_20250426_16508",
      "vehicleId": "41187077",
      "driverId": "20000006",
      "startMs": 1745687863000,
      "endMs": 1745697186000,
      "startAddress": "405 Lee Shoal Apt. 013",
      "endAddress": "5272 Kevin Lakes Apt. 712",
      "startCoords": {
        "latitude": 39.809971,
        "longitude": -104.965642
      },
      "endCoords": {
        "latitude": 39.815815,
        "longitude": -105.068701
      },
      "distanceMeters": 52944.3,
      "durationMs": 9323000,
      "drivingDurationMs": 8247850,
      "idlingDurationMs": 1075150,
      "fuelConsumedMl": 6730,
      "fuelConsumedGallons": 1.778,
      "maxSpeedMph": 37.5,
      "averageSpeedMph": 12.7,
      "safetyEvents": []
    },
    {
      "id": "trip_41187077_20250426_16542",
      "vehicleId": "41187077",
      "driverId": "20000022",
      "startMs": 1745709254000,
      "endMs": 1745724358000,
      "startAddress": "1410 Brittany Isle Apt. 709",
      "endAddress": "983 Chambers Spur",
      "startCoords": {
        "latitude": 39.689602,
        "longitude": -105.067707
      },
      "endCoords": {
        "latitude": 39.785204,
        "longitude": -104.919835
      },
      "distanceMeters": 115243.0,
      "durationMs": 15104000,
      "drivingDurationMs": 13072543,
      "idlingDurationMs": 2031457,
      "fuelConsumedMl": 14653,
      "fuelConsumedGallons": 3.871,
      "maxSpeedMph": 35.3,
      "averageSpeedMph": 17.1,
      "safetyEvents": []
    },
    {
      "id": "trip_41187077_20250427_16570",
      "vehicleId": "41187077",
      "driverId": "20000010",
      "startMs": 1745736188000,
      "endMs": 1745738828000,
      "startAddress": "126 Phillips Inlet Suite 122",
      "endAddress": "8896 Erin Inlet",
      "startCoords": {
        "latitude": 39.759073,
        "longitude": -104.943433
      },
      "endCoords": {
        "latitude": 39.74026,
        "longitude": -104.969526
      },
      "distanceMeters": 11033.1,
      "durationMs": 2640000,
      "drivingDurationMs": 2163832,
      "idlingDurationMs": 476168,
      "fuelConsumedMl": 1404,
      "fuelConsumedGallons": 0.371,
      "maxSpeedMph": 30.5,
      "averageSpeedMph": 9.3,
      "safetyEvents": []
    },
    {
      "id": "trip_41187077_20250427_16598",
      "vehicleId": "41187077",
      "driverId": "20000022",
      "startMs": 1745753936000,
      "endMs": 1745755976000,
      "startAddress": "07527 Jennifer Turnpike",
      "endAddress": "307 Williams Oval Apt. 429",
      "startCoords": {
        "latitude": 39.733009,
        "longitude": -104.967432
      },
      "endCoords": {
        "latitude": 39.734309,
        "longitude": -105.035499
      },
      "distanceMeters": 10744.3,
      "durationMs": 2040000,
      "drivingDurationMs": 1810426,
      "idlingDurationMs": 229574,
      "fuelConsumedMl": 1367,
      "fuelConsumedGallons": 0.361,
      "maxSpeedMph": 37.0,
      "averageSpeedMph": 11.8,
      "safetyEvents": []
    },
    {
      "id": "trip_41187077_20250427_16625",
      "vehicleId": "41187077",
      "driverId": "20000016",
      "startMs": 1745777035000,
      "endMs": 1745779075000,
      "startAddress": "05142 Samuel Mountain",
      "endAddress": "04598 Jeffrey Manors",
      "startCoords": {
        "latitude": 39.827498,
        "longitude": -104.924482
      },
      "endCoords": {
        "latitude": 39.760401,
        "longitude": -104.905043
      },
      "distanceMeters": 13401.0,
      "durationMs": 2040000,
      "drivingDurationMs": 1602517,
      "idlingDurationMs": 437483,
      "fuelConsumedMl": 1703,
      "fuelConsumedGallons": 0.45,
      "maxSpeedMph": 34.2,
      "averageSpeedMph": 14.7,
      "safetyEvents": []
    },
    {
      "id": "trip_41187077_20250428_16652",
      "vehicleId": "41187077",
      "driverId": "20000018",
      "startMs": 1745809296000,
      "endMs": 1745810796000,
      "startAddress": "429 Taylor Way",
      "endAddress": "4572 Dennis Lock",
      "startCoords": {
        "latitude": 39.684853,
        "longitude": -105.070022
      },
      "endCoords": {
        "latitude": 39.724262,
        "longitude": -104.964399
      },
      "distanceMeters": 9331.9,
      "durationMs": 1500000,
      "drivingDurationMs": 1187487,
      "idlingDurationMs": 312513,
      "fuelConsumedMl": 1185,
      "fuelConsumedGallons": 0.313,
      "maxSpeedMph": 38.5,
      "averageSpeedMph": 13.9,
      "safetyEvents": []
    },
    {
      "id": "trip_41187077_20250428_16682",
      "vehicleId": "41187077",
      "driverId": "20000005",
      "startMs": 1745836823000,
      "endMs": 1745845981000,
      "startAddress": "74931 Holmes Squares",
      "endAddress": "8885 Johnson Harbors",
      "startCoords": {
        "latitude": 39.799137,
        "longitude": -104.97039
      },
      "endCoords": {
        "latitude": 39.775946,
        "longitude": -105.02423
      },