{
  "vehicleId": "41187077",
  "vehicleName": "DEN-VAN-06",
  "month": "2025_04",
  "pagination": {
    "endCursor": "trip_41187077_20250430_005",
    "hasNextPage": false
  },
  "trips": [
    {
      "id": "trip_41187077_20250401_001",
      "vehicleId": "41187077",
      "driverId": "20000004",
      "startMs": 1743489000000,
      "endMs": 1743490423385,
      "startAddress": "20005 Julia Loaf Apt. 915",
      "endAddress": "12148 Parker Ports Apt. 276",
      "startCoords": {
        "latitude": 39.807754,
        "longitude": -105.05135
      },
      "endCoords": {
        "latitude": 39.691682,
        "longitude": -105.041518
      },
      "distanceMeters": 9189.8,
      "durationMs": 1423386,
      "drivingDurationMs": 1223706,
      "idlingDurationMs": 199680,
      "fuelConsumedMl": 1170,
      "fuelConsumedGallons": 0.309,
      "maxSpeedMph": 54.5,
      "averageSpeedMph": 14.4,
      "safetyEvents": []
    },
    {
      "id": "trip_41187077_20250401_002",
      "vehicleId": "41187077",
      "driverId": "20000004",
      "startMs": 1743528000000,
      "endMs": 1743541200000,
      "startAddress": "3456 Valdez Pass",
      "endAddress": "08468 Swanson Lights",
      "startCoords": {
        "latitude": 39.779945,
        "longitude": -105.053376
      },
      "endCoords": {
        "latitude": 39.69325,
        "longitude": -104.899944
      },
      "distanceMeters": 53916.3,
      "durationMs": 13200000,
      "drivingDurationMs": 10594936,
      "idlingDurationMs": 2605064,
      "fuelConsumedMl": 6855,
      "fuelConsumedGallons": 1.811,
      "maxSpeedMph": 50.8,
      "averageSpeedMph": 9.1,
      "safetyEvents": []
    },
    {
      "id": "trip_41187077_20250402_001",
      "vehicleId": "41187077",
      "driverId": "20000005",
      "startMs": 1743577260000,
      "endMs": 1743586783633,
      "startAddress": "11610 Ho Forges Suite 875",
      "endAddress": "6430 Laurie Pines",
      "startCoords": {
        "latitude": 39.782593,
        "longitude": -104.962475
      },
      "endCoords": {
        "latitude": 39.710086,
        "longitude": -105.064451
      },
      "distanceMeters": 67797.5,
      "durationMs": 9523634,
      "drivingDurationMs": 8293582,
      "idlingDurationMs": 1230052,
      "fuelConsumedMl": 8619,
      "fuelConsumedGallons": 2.277,
      "maxSpeedMph": 52.9,
      "averageSpeedMph": 15.9,
      "safetyEvents": []
    },
    {
      "id": "trip_41187077_20250402_002",
      "vehicleId": "41187077",
      "driverId": null,
      "startMs": 1743619200000,
      "endMs": 1743627600000,
      "startAddress": "659 Price Glen Suite 093",
      "endAddress": "665 Kristina Bridge Apt. 423",
      "startCoords": {
        "latitude": 39.825653,
        "longitude": -104.950587
      },
      "endCoords": {
        "latitude": 39.698715,
        "longitude": -104.907316
      },
      "distanceMeters": 52841.3,
      "durationMs": 8400000,
      "drivingDurationMs": 7353207,
      "idlingDurationMs": 1046793,
      "fuelConsumedMl": 6719,
      "fuelConsumedGallons": 1.775,
      "maxSpeedMph": 39.2,
      "averageSpeedMph": 14.1,
      "safetyEvents": []
    },
    {
      "id": "trip_41187077_20250402_003",
      "vehicleId": "41187077",
      "driverId": null,
      "startMs": 1743580800000,
      "endMs": 1743596722659,
      "startAddress": "54701 Powers Brooks Apt. 538",
      "endAddress": "3850 Estes Burg",
      "startCoords": {
        "latitude": 39.759866,
        "longitude": -105.020752
      },
      "endCoords": {
        "latitude": 39.761454,
        "longitude": -105.034588
      },
      "distanceMeters": 65850.2,
      "durationMs": 15922659,
      "drivingDurationMs": 12767498,
      "idlingDurationMs": 3155161,
      "fuelConsumedMl": 8373,
      "fuelConsumedGallons": 2.212,
      "maxSpeedMph": 38.0,
      "averageSpeedMph": 9.3,
      "safetyEvents": []
    },
    {
      "id": "trip_41187077_20250402_004",
      "vehicleId": "41187077",
      "driverId": "20000005",
      "startMs": 1743577980000,
      "endMs": 1743583844106,
      "startAddress": "9521 Roger Cliff Suite 153",
      "endAddress": "62995 Alvarez Neck",
      "startCoords": {
        "latitude": 39.709772,
        "longitude": -105.04536
      },
      "endCoords": {
        "latitude": 39.795027,
        "longitude": -104.91561
      },
      "distanceMeters": 30716.7,
      "durationMs": 5864107,
      "drivingDurationMs": 5604512,
      "idlingDurationMs": 259594,
      "fuelConsumedMl": 3907,
      "fuelConsumedGallons": 1.032,
      "maxSpeedMph": 48.9,
      "averageSpeedMph": 11.7,
      "safetyEvents": []
    },
    {
      "id": "trip_41187077_20250403_001",
      "vehicleId": "41187077",
      "driverId": "20000007",
      "startMs": 1743706620000,
      "endMs": 1743713021345,
      "startAddress": "479 Cole Parks Apt. 796",
      "endAddress": "86263 Amanda Plain Suite 349",
      "startCoords": {
        "latitude": 39.713027,
        "longitude": -104.901187
      },
      "endCoords": {
        "latitude": 39.711059,
        "longitude": -105.010296
      },
      "distanceMeters": 44616.8,
      "durationMs": 6401346,
      "drivingDurationMs": 5566339,
      "idlingDurationMs": 835006,
      "fuelConsumedMl": 5674,
      "fuelConsumedGallons": 1.499,
      "maxSpeedMph": 61.0,
      "averageSpeedMph": 15.6,
      "safetyEvents": []
    },
    {
      "id": "trip_41187077_20250403_002",
      "vehicleId": "41187077",
      "driverId": null,
      "startMs": 1743702960000,
      "endMs": 1743714000000,
      "startAddress": "163 Mcbride Lodge Apt. 764",
      "endAddress": "91312 Ortiz Street",
      "startCoords": {
        "latitude": 39.770953,
        "longitude": -105.075896
      },
      "endCoords": {
        "latitude": 39.697156,
        "longitude": -105.030146
      },
      "distanceMeters": 55168.3,
      "durationMs": 11040000,
      "drivingDurationMs": 8832000,
      "idlingDurationMs": 2208000,
      "fuelConsumedMl": 7014,
      "fuelConsumedGallons": 1.853,
      "maxSpeedMph": 65.4,
      "averageSpeedMph": 11.2,
      "safetyEvents": [
        {
          "type": "speeding",
          "startMs": 1743705300000,
          "maxSpeedMph": 65.4
        }
      ]
    },
    {
      "id": "trip_41187077_20250404_001",
      "vehicleId": "41187077",
      "driverId": "20000005",
      "startMs": 1743775920000,
      "endMs": 1743778884862,
      "startAddress": "513 Angela Course",
      "endAddress": "634 Jessica Bridge",
      "startCoords": {
        "latitude": 39.821261,
        "longitude": -105.087629
      },
      "endCoords": {
        "latitude": 39.719174,
        "longitude": -105.048231
      },
      "distanceMeters": 18820.7,
      "durationMs": 2964862,
      "drivingDurationMs": 2715520,
      "idlingDurationMs": 249342,
      "fuelConsumedMl": 2392,
      "fuelConsumedGallons": 0.632,
      "maxSpeedMph": 48.9,
      "averageSpeedMph": 14.2,
      "safetyEvents": []
    },
    {
      "id": "trip_41187077_20250404_002",
      "vehicleId": "41187077",
      "driverId": "20000005",
      "startMs": 1743757080000,
      "endMs": 1743765527505,
      "startAddress": "107 Williams Mountains",
      "endAddress": "9033 Lucas Extension Apt. 923",
      "startCoords": {
        "latitude": 39.796165,
        "longitude": -104.938517
      },
      "endCoords": {
        "latitude": 39.721479,
        "longitude": -105.035022
      },
      "distanceMeters": 49298.8,
      "durationMs": 8447505,
      "drivingDurationMs": 7168336,
      "idlingDurationMs": 1279169,
      "fuelConsumedMl": 6269,
      "fuelConsumedGallons": 1.656,
      "maxSpeedMph": 52.2,
      "averageSpeedMph": 13.1,
      "safetyEvents": []
    },
    {
      "id": "trip_41187077_20250404_003",
      "vehicleId": "41187077",
      "driverId": "20000005",
      "startMs": 1743789120000,
      "endMs": 1743797629550,
      "startAddress": "12766 Peterson Islands Suite 138",
      "endAddress": "1025 Bowen Creek",
      "startCoords": {
        "latitude": 39.761994,
        "longitude": -105.007025
      },
      "endCoords": {
        "latitude": 39.750956,
        "longitude": -105.038135
      },
      "distanceMeters": 70249.9,
      "durationMs": 8509551,
      "drivingDurationMs": 8208395,
      "idlingDurationMs": 301155,
      "fuelConsumedMl": 8934,
      "fuelConsumedGallons": 2.36,
      "maxSpeedMph": 71.8,
      "averageSpeedMph": 18.5,
      "safetyEvents": [
        {
          "type": "speeding",
          "startMs": 1743792120000,
          "maxSpeedMph": 71.8
        }
      ]
    },
    {
      "id": "trip_41187077_20250404_004",
      "vehicleId": "41187077",
      "driverId": "20000005",
      "startMs": 1743776940000,
      "endMs": 1743781435435,
      "startAddress": "56458 Ramirez Trail",
      "endAddress": "14621 Allen Forks Apt. 801",
      "startCoords": {
        "latitude": 39.709319,
        "longitude": -105.018128
      },
      "endCoords": {
        "latitude": 39.826384,
        "longitude": -105.026183
      },
      "distanceMeters": 30088.2,
      "durationMs": 4495436,
      "drivingDurationMs": 4313596,
      "idlingDurationMs": 181840,
      "fuelConsumedMl": 3827,
      "fuelConsumedGallons": 1.011,
      "maxSpeedMph": 38.9,
      "averageSpeedMph": 15.0,
      "safetyEvents": []
    },
    {
      "id": "trip_41187077_20250404_005",
      "vehicleId": "41187077",
      "driverId": "20000005",
      "startMs": 1743764520000,
      "endMs": 1743778502463,
      "startAddress": "33920 James Springs",
      "endAddress": "430 John Oval Apt. 165",
      "startCoords": {
        "latitude": 39.788441,
        "longitude": -104.975315
      },
      "endCoords": {
        "latitude": 39.705232,
        "longitude": -104.983187
      },
      "distanceMeters": 81850.8,
      "durationMs": 13982463,
      "drivingDurationMs": 13290325,
      "idlingDurationMs": 692139,
      "fuelConsumedMl": 10406,
      "fuelConsumedGallons": 2.749,
      "maxSpeedMph": 69.9,
      "averageSpeedMph": 13.1,
      "safetyEvents": [
        {
          "type": "speeding",
          "startMs": 1743769020000,
          "maxSpeedMph": 69.9
        }
      ]
    },
    {
      "id": "trip_41187077_20250404_006",
      "vehicleId": "41187077",
      "driverId": "20000005",
      "startMs": 1743777540000,
      "endMs": 1743783883389,
      "startAddress": "2909 Sara Plain Suite 658",
      "endAddress": "8891 Gutierrez Pass",
      "startCoords": {
        "latitude": 39.69068,
        "longitude": -105.078712
      },
      "endCoords": {
        "latitude": 39.77075,
        "longitude": -104.999382
      },
      "distanceMeters": 40274.8,
      "durationMs": 6343390,
      "drivingDurationMs": 5371429,
      "idlingDurationMs": 971961,
      "fuelConsumedMl": 5122,
      "fuelConsumedGallons": 1.353,
      "maxSpeedMph": 69.7,
      "averageSpeedMph": 14.2,
      "safetyEvents": [
        {
          "type": "speeding",
          "startMs": 1743780720000,
          "maxSpeedMph": 69.7
        }
      ]
    },
    {
      "id": "trip_41187077_20250405_001",
      "vehicleId": "41187077",
      "driverId": "20000012",
      "startMs": 1743839640000,
      "endMs": 1743850195358,
      "startAddress": "09154 Kristin Neck Apt. 371",
      "endAddress": "1498 Stevens Field",
      "startCoords": {
        "latitude": 39.812551,
        "longitude": -105.031136
      },
      "endCoords": {
        "latitude": 39.691001,
        "longitude": -105.035434
      },
      "distanceMeters": 65921.8,
      "durationMs": 10555358,
      "drivingDurationMs": 8957416,
      "idlingDurationMs": 1597942,
      "fuelConsumedMl": 8381,
      "fuelConsumedGallons": 2.214,
      "maxSpeedMph": 33.8,
      "averageSpeedMph": 14.0,
      "safetyEvents": []
    },
    {
      "id": "trip_41187077_20250406_001",
      "vehicleId": "41187077",
      "driverId": "20000006",
      "startMs": 1743944460000,
      "endMs": 1743945644944,
      "startAddress": "9852 Nicole Pines",
      "endAddress": "8084 Cynthia Manor",
      "startCoords": {
        "latitude": 39.751452,
        "longitude": -105.073024
      },
      "endCoords": {
        "latitude": 39.805379,
        "longitude": -105.008868
      },
      "distanceMeters": 6616.6,
      "durationMs": 1184945,
      "drivingDurationMs": 959721,
      "idlingDurationMs": 225223,
      "fuelConsumedMl": 840,
      "fuelConsumedGallons": 0.222,
      "maxSpeedMph": 68.7,
      "averageSpeedMph": 12.5,
      "safetyEvents": [
        {
          "type": "speeding",
          "startMs": 1743945000000,
          "maxSpeedMph": 68.7
        }
      ]
    },
    {
      "id": "trip_41187077_20250406_002",
      "vehicleId": "41187077",
      "driverId": "20000006",
      "startMs": 1743954060000,
      "endMs": 1743962559676,
      "startAddress": "953 Cynthia Common",
      "endAddress": "33400 Flynn Keys",
      "startCoords": {
        "latitude": 39.684232,
        "longitude": -104.966574
      },
      "endCoords": {
        "latitude": 39.729966,
        "longitude": -104.909636
      },
      "distanceMeters": 49604.3,
      "durationMs": 8499677,
      "drivingDurationMs": 8117259,
      "idlingDurationMs": 382418,
      "fuelConsumedMl": 6306,
      "fuelConsumedGallons": 1.666,
      "maxSpeedMph": 60.4,
      "averageSpeedMph": 13.1,
      "safetyEvents": []
    },
    {
      "id": "trip_41187077_20250407_001",
      "vehicleId": "41187077",
      "driverId": "20000016",
      "startMs": 1744012500000,
      "endMs": 1744014743314,
      "startAddress": "242 Amy Motorway",
      "endAddress": "3012 Garza Cove Apt. 896",
      "startCoords": {
        "latitude": 39.737238,
        "longitude": -105.045773
      },
      "endCoords": {
        "latitude": 39.71408,
        "longitude": -105.023691
      },
      "distanceMeters": 15729.2,
      "durationMs": 2243314,
      "drivingDurationMs": 1815018,
      "idlingDurationMs": 428297,
      "fuelConsumedMl": 1999,
      "fuelConsumedGallons": 0.528,
      "maxSpeedMph": 64.8,
      "averageSpeedMph": 15.7,
      "safetyEvents": []
    },
    {
      "id": "trip_41187077_20250407_002",
      "vehicleId": "41187077",
      "driverId": "20000016",
      "startMs": 1744041840000,
      "endMs": 1744047994903,
      "startAddress": "508 Adams Ridge Suite 318",
      "endAddress": "6022 John Overpass Apt. 845",
      "startCoords": {
        "latitude": 39.754167,
        "longitude": -105.051534
      },
      "endCoords": {
        "latitude": 39.728894,
        "longitude": -105.06409
      },
      "distanceMeters": 42828.6,
      "durationMs": 6154903,
      "drivingDurationMs": 5729436,
      "idlingDurationMs": 425467,
      "fuelConsumedMl": 5447,
      "fuelConsumedGallons": 1.439,
      "maxSpeedMph": 53.2,
      "averageSpeedMph": 15.6,
      "safetyEvents": []
    },
    {
      "id": "trip_41187077_20250407_003",
      "vehicleId": "41187077",
      "driverId": "20000016",
      "startMs": 1744051620000,
      "endMs": 1744058102641,
      "startAddress": "2164 Mercado Path",
      "endAddress": "714 William Inlet Suite 738",
      "startCoords": {
        "latitude": 39.757111,
        "longitude": -104.940501
      },
      "endCoords": {
        "latitude": 39.791898,
        "longitude": -105.059902
      },
      "distanceMeters": 32642.0,
      "durationMs": 6482642,
      "drivingDurationMs": 5590484,
      "idlingDurationMs": 892158,
      "fuelConsumedMl": 4149,
      "fuelConsumedGallons": 1.096,
      "maxSpeedMph": 37.5,
      "averageSpeedMph": 11.3,
      "safetyEvents": []
    },
    {
      "id": "trip_41187077_20250407_004",
      "vehicleId": "41187077",
      "driverId": "20000016",
      "startMs": 1744006440000,
      "endMs": 1744013081454,
      "startAddress": "91419 Simmons Radial",
      "endAddress": "57767 Brett Islands",
      "startCoords": {
        "latitude": 39.708193,
        "longitude": -105.032841
      },
      "endCoords": {
        "latitude": 39.792572,
        "longitude": -104.916438
      },
      "distanceMeters": 52415.8,
      "durationMs": 6641454,
      "drivingDurationMs": 6171764,
      "idlingDurationMs": 469690,
      "fuelConsumedMl": 6666,
      "fuelConsumedGallons": 1.761,
      "maxSpeedMph": 29.8,
      "averageSpeedMph": 17.7,
      "safetyEvents": []
    },
    {
      "id": "trip_41187077_20250407_005",
      "vehicleId": "41187077",
      "driverId": "20000016",
      "startMs": 1744022220000,
      "endMs": 1744026055206,
      "startAddress": "072 Tammy Lane Apt. 894",
      "endAddress": "69301 Jacqueline Spring",
      "startCoords": {
        "latitude": 39.763262,
        "longitude": -104.991067
      },
      "endCoords": {
        "latitude": 39.810521,
        "longitude": -104.916735
      },
      "distanceMeters": 22821.0,
      "durationMs": 3835207,
      "drivingDurationMs": 3258477,
      "idlingDurationMs": 576730,
      "fuelConsumedMl": 2903,
      "fuelConsumedGallons": 0.767,
      "maxSpeedMph": 39.8,
      "averageSpeedMph": 13.3,
      "safetyEvents": []
    },
    {
      "id": "trip_41187077_20250407_006",
      "vehicleId": "41187077",
      "driverId": "20000016",
      "startMs": 1744015620000,
      "endMs": 1744022701376,
      "startAddress": "634 Paul Summit",
      "endAddress": "60334 Townsend Harbor",
      "startCoords": {
        "latitude": 39.824404,
        "longitude": -104.916962
      },
      "endCoords": {
        "latitude": 39.702782,
        "longitude": -105.040142
      },
      "distanceMeters": 36144.9,
      "durationMs": 7081376,
      "drivingDurationMs": 5851641,
      "idlingDurationMs": 1229736,
      "fuelConsumedMl": 4595,
      "fuelConsumedGallons": 1.214,
      "maxSpeedMph": 52.3,
      "averageSpeedMph": 11.4,
      "safetyEvents": []
    },
    {
      "id": "trip_41187077_20250408_001",
      "vehicleId": "41187077",
      "driverId": "20000014",
      "startMs": 1744112760000,
      "endMs": 1744114376860,
      "startAddress": "469 Nicholas Glens",
      "endAddress": "905 Williams Junctions",
      "startCoords": {
        "latitude": 39.810648,
        "longitude": -105.019029
      },
      "endCoords": {
        "latitude": 39.740785,
        "longitude": -105.052343
      },
      "distanceMeters": 9388.9,
      "durationMs": 1616860,
      "drivingDurationMs": 1297608,
      "idlingDurationMs": 319252,
      "fuelConsumedMl": 1192,
      "fuelConsumedGallons": 0.315,
      "maxSpeedMph": 48.9,
      "averageSpeedMph": 13.0,
      "safetyEvents": []
    },
    {
      "id": "trip_41187077_20250408_002",
      "vehicleId": "41187077",
      "driverId": "20000014",
      "startMs": 1744129200000,
      "endMs": 1744143136495,
      "startAddress": "149 Perez Key",
      "endAddress": "6157 Garrison Key",
      "startCoords": {
        "latitude": 39.71183,
        "longitude": -105.062363
      },
      "endCoords": {
        "latitude": 39.807694,
        "longitude": -105.076667
      },
      "distanceMeters": 78877.7,
      "durationMs": 13936495,
      "drivingDurationMs": 13300918,
      "idlingDurationMs": 635578,
      "fuelConsumedMl": 10028,
      "fuelConsumedGallons": 2.649,
      "maxSpeedMph": 43.1,
      "averageSpeedMph": 12.7,
      "safetyEvents": []
    },
    {
      "id": "trip_41187077_20250408_003",
      "vehicleId": "41187077",
      "driverId": "20000014",
      "startMs": 1744113780000,
      "endMs": 1744124650247,
      "startAddress": "699 Norris Passage",
      "endAddress": "3624 Vasquez Loaf",
      "startCoords": {
        "latitude": 39.733543,
        "longitude": -104.96004
      },
      "endCoords": {
        "latitude": 39.751909,
        "longitude": -104.915713
      },
      "distanceMeters": 58884.1,
      "durationMs": 10870247,
      "drivingDurationMs": 10011784,
      "idlingDurationMs": 858463,
      "fuelConsumedMl": 7488,
      "fuelConsumedGallons": 1.978,
      "maxSpeedMph": 41.6,
      "averageSpeedMph": 12.1,
      "safetyEvents": []
    },
    {
      "id": "trip_41187077_20250408_004",
      "vehicleId": "41187077",
      "driverId": "20000014",
      "startMs": 1744095240000,
      "endMs": 1744099423738,
      "startAddress": "069 Dale Via Suite 253",
      "endAddress": "62442 Alan Canyon",
      "startCoords": {
        "latitude": 39.720788,
        "longitude": -104.960818
      },
      "endCoords": {
        "latitude": 39.730743,
        "longitude": -105.042786
      },
      "distanceMeters": 33028.2,
      "durationMs": 4183738,
      "drivingDurationMs": 3963450,
      "idlingDurationMs": 220288,
      "fuelConsumedMl": 4198,
      "fuelConsumedGallons": 1.109,
      "maxSpeedMph": 34.3,
      "averageSpeedMph": 17.7,
      "safetyEvents": []
    },
    {
      "id": "trip_41187077_20250408_005",
      "vehicleId": "41187077",
      "driverId": "20000014",
      "startMs": 1744107060000,
      "endMs": 1744109146834,
      "startAddress": "70618 Kimberly Ranch Apt. 853",
      "endAddress": "28339 John Port",
      "startCoords": {
        "latitude": 39.69998,
        "longitude": -105.070309
      },
      "endCoords": {
        "latitude": 39.726714,
        "longitude": -105.040572
      },
      "distanceMeters": 10460.6,
      "durationMs": 2086834,
      "drivingDurationMs": 1737329,
      "idlingDurationMs": 349505,
      "fuelConsumedMl": 1329,
      "fuelConsumedGallons": 0.351,
      "maxSpeedMph": 38.1,
      "averageSpeedMph": 11.2,
      "safetyEvents": []
    },
    {
      "id": "trip_41187077_20250409_001",
      "vehicleId": "41187077",
      "driverId": "20000011",
      "startMs": 1744214340000,
      "endMs": 1744225350687,
      "startAddress": "413 James Lake Apt. 046",
      "endAddress": "7669 Suarez Shore Apt. 078",
      "startCoords": {
        "latitude": 39.739698,
        "longitude": -104.918463
      },
      "endCoords": {
        "latitude": 39.812102,
        "longitude": -105.023431
      },
      "distanceMeters": 65433.3,
      "durationMs": 11010687,
      "drivingDurationMs": 10548538,
      "idlingDurationMs": 462149,
      "fuelConsumedMl": 8320,
      "fuelConsumedGallons": 2.198,
      "maxSpeedMph": 65.3,
      "averageSpeedMph": 13.3,
      "safetyEvents": [
        {
          "type": "speeding",
          "startMs": 1744216860000,
          "maxSpeedMph": 65.3
        }
      ]
    },
    {
      "id": "trip_41187077_20250409_002",
      "vehicleId": "41187077",
      "driverId": "20000011",
      "startMs": 1744195320000,
      "endMs": 1744208672361,
      "startAddress": "292 Lewis Fords Suite 912",
      "endAddress": "002 Smith Grove Apt. 802",
      "startCoords": {
        "latitude": 39.816684,
        "longitude": -104.903979
      },
      "endCoords": {
        "latitude": 39.751793,
        "longitude": -105.014085
      },
      "distanceMeters": 78650.5,
      "durationMs": 13352361,
      "drivingDurationMs": 12381266,
      "idlingDurationMs": 971095,
      "fuelConsumedMl": 10001,
      "fuelConsumedGallons": 2.642,
      "maxSpeedMph": 37.4,
      "averageSpeedMph": 13.2,
      "safetyEvents": []
    },
    {
      "id": "trip_41187077_20250410_001",
      "vehicleId": "41187077",
      "driverId": "20000004",
      "startMs": 1744307220000,
      "endMs": 1744311512825,
      "startAddress": "98082 Tina Corner",
      "endAddress": "6155 White Locks Apt. 812",
      "startCoords": {
        "latitude": 39.805246,
        "longitude": -104.90266
      },
      "endCoords": {
        "latitude": 39.778334,
        "longitude": -105.041615
      },
      "distanceMeters": 21263.2,
      "durationMs": 4292826,
      "drivingDurationMs": 3731059,
      "idlingDurationMs": 561767,
      "fuelConsumedMl": 2703,
      "fuelConsumedGallons": 0.714,
      "maxSpeedMph": 37.5,
      "averageSpeedMph": 11.1,
      "safetyEvents": []
    },
    {
      "id": "trip_41187077_20250410_002",
      "vehicleId": "41187077",
      "driverId": null,
      "startMs": 1744298700000,
      "endMs": 1744308769230,
      "startAddress": "459 Roy Drives Suite 094",
      "endAddress": "0216 Ashley Forges",
      "startCoords": {
        "latitude": 39.80969,
        "longitude": -104.970717
      },
      "endCoords": {
        "latitude": 39.789823,
        "longitude": -104.975221
      },
      "distanceMeters": 67574.3,
      "durationMs": 10069231,
      "drivingDurationMs": 8755444,
      "idlingDurationMs": 1313786,
      "fuelConsumedMl": 8593,
      "fuelConsumedGallons": 2.27,
      "maxSpeedMph": 40.7,
      "averageSpeedMph": 15.0,
      "safetyEvents": []
    },
    {
      "id": "trip_41187077_20250411_001",
      "vehicleId": "41187077",
      "driverId": "20000012",
      "startMs": 1744387200000,
      "endMs": 1744388903962,
      "startAddress": "9619 Carla Island",
      "endAddress": "5075 Robinson Shores",
      "startCoords": {
        "latitude": 39.815872,
        "longitude": -104.913004
      },
      "endCoords": {
        "latitude": 39.704689,
        "longitude": -105.083762
      },
      "distanceMeters": 12307.9,
      "durationMs": 1703962,
      "drivingDurationMs": 1516383,
      "idlingDurationMs": 187579,
      "fuelConsumedMl": 1563,
      "fuelConsumedGallons": 0.413,
      "maxSpeedMph": 38.4,
      "averageSpeedMph": 16.2,
      "safetyEvents": []
    },
    {
      "id": "trip_41187077_20250411_002",
      "vehicleId": "41187077",
      "driverId": "20000012",
      "startMs": 1744393140000,
      "endMs": 1744403184809,
      "startAddress": "11328 Stanley Grove Suite 599",
      "endAddress": "870 Parker Stravenue",
      "startCoords": {
        "latitude": 39.687516,
        "longitude": -104.945515
      },
      "endCoords": {
        "latitude": 39.76381,
        "longitude": -105.075806
      },
      "distanceMeters": 58085.1,
      "durationMs": 10044809,
      "drivingDurationMs": 8232159,
      "idlingDurationMs": 1812650,
      "fuelConsumedMl": 7385,
      "fuelConsumedGallons": 1.951,
      "maxSpeedMph": 43.4,
      "averageSpeedMph": 12.9,
      "safetyEvents": []
    },
    {
      "id": "trip_41187077_20250412_001",
      "vehicleId": "41187077",
      "driverId": "20000004",
      "startMs": 1744439640000,
      "endMs": 1744444086267,
      "startAddress": "944 Laura Park Suite 299",
      "endAddress": "29916 Noble Vista Suite 261",
      "startCoords": {
        "latitude": 39.689975,
        "longitude": -105.084851
      },
      "endCoords": {
        "latitude": 39.812756,
        "longitude": -105.079895
      },
      "distanceMeters": 23487.3,
      "durationMs": 4446268,
      "drivingDurationMs": 3660794,
      "idlingDurationMs": 785474,
      "fuelConsumedMl": 2987,
      "fuelConsumedGallons": 0.789,
      "maxSpeedMph": 34.2,
      "averageSpeedMph": 11.8,
      "safetyEvents": []
    },
    {
      "id": "trip_41187077_20250412_002",
      "vehicleId": "41187077",
      "driverId": "20000004",
      "startMs": 1744443180000,
      "endMs": 1744452564531,
      "startAddress": "06574 Denise Springs",
      "endAddress": "74236 Beverly Plains",
      "startCoords": {
        "latitude": 39.749428,
        "longitude": -105.05327
      },
      "endCoords": {
        "latitude": 39.717348,
        "longitude": -104.996806
      },
      "distanceMeters": 53313.1,
      "durationMs": 9384532,
      "drivingDurationMs": 9111320,
      "idlingDurationMs": 273212,
      "fuelConsumedMl": 6780,
      "fuelConsumedGallons": 1.791,
      "maxSpeedMph": 48.1,
      "averageSpeedMph": 12.7,
      "safetyEvents": []
    },
    {
      "id": "trip_41187077_20250412_003",
      "vehicleId": "41187077",
      "driverId": "20000004",
      "startMs": 1744439040000,
      "endMs": 1744452204686,
      "startAddress": "20609 Burns Trafficway",
      "endAddress": "914 Tim Park Suite 803",
      "startCoords": {
        "latitude": 39.789025,
        "longitude": -104.952279
      },
      "endCoords": {
        "latitude": 39.824538,
        "longitude": -105.069587
      },
      "distanceMeters": 57500.7,
      "durationMs": 13164686,
      "drivingDurationMs": 10998018,
      "idlingDurationMs": 2166668,
      "fuelConsumedMl": 7310,
      "fuelConsumedGallons": 1.931,
      "maxSpeedMph": 71.0,
      "averageSpeedMph": 9.8,
      "safetyEvents": [
        {
          "type": "speeding",
          "startMs": 1744441380000,
          "maxSpeedMph": 71.0
        }
      ]
    },
    {
      "id": "trip_41187077_20250413_001",
      "vehicleId": "41187077",
      "driverId": "20000004",
      "startMs": 1744542360000,
      "endMs": 1744546906987,
      "startAddress": "96366 Fox Rest",
      "endAddress": "2540 Richardson Meadow Apt. 600",
      "startCoords": {
        "latitude": 39.759077,
        "longitude": -104.929251
      },
      "endCoords": {
        "latitude": 39.712342,
        "longitude": -104.921845
      },
      "distanceMeters": 29346.5,
      "durationMs": 4546987,
      "drivingDurationMs": 3911562,
      "idlingDurationMs": 635425,
      "fuelConsumedMl": 3732,
      "fuelConsumedGallons": 0.986,
      "maxSpeedMph": 67.3,
      "averageSpeedMph": 14.4,
      "safetyEvents": [
        {
          "type": "speeding",
          "startMs": 1744543740000,
          "maxSpeedMph": 67.3
        }
      ]
    },
    {
      "id": "trip_41187077_20250413_002",
      "vehicleId": "41187077",
      "driverId": "20000004",
      "startMs": 1744570500000,
      "endMs": 1744578000000,
      "startAddress": "6668 Russell Burgs Suite 795",
      "endAddress": "5659 Teresa Neck Suite 997",
      "startCoords": {
        "latitude": 39.702416,
        "longitude": -104.928495
      },
      "endCoords": {
        "latitude": 39.774294,
        "longitude": -104.954411
      },
      "distanceMeters": 40498.3,
      "durationMs": 7500000,
      "drivingDurationMs": 6000000,
      "idlingDurationMs": 1500000,
      "fuelConsumedMl": 5148,
      "fuelConsumedGallons": 1.36,
      "maxSpeedMph": 42.1,
      "averageSpeedMph": 12.1,
      "safetyEvents": []
    },
    {
      "id": "trip_41187077_20250413_003",
      "vehicleId": "41187077",
      "driverId": null,
      "startMs": 1744526820000,
      "endMs": 1744535885498,
      "startAddress": "6586 Johns Creek",
      "endAddress": "2964 Walter Lodge",
      "startCoords": {
        "latitude": 39.760358,
        "longitude": -104.993319
      },
      "endCoords": {
        "latitude": 39.732781,
        "longitude": -104.955547
      },
      "distanceMeters": 48381.3,
      "durationMs": 9065499,
      "drivingDurationMs": 7613764,
      "idlingDurationMs": 1451734,
      "fuelConsumedMl": 6151,
      "fuelConsumedGallons": 1.625,
      "maxSpeedMph": 59.3,
      "averageSpeedMph": 11.9,
      "safetyEvents": []
    },
    {
      "id": "trip_41187077_20250414_001",
      "vehicleId": "41187077",
      "driverId": "20000001",
      "startMs": 1744617660000,
      "endMs": 1744627854192,
      "startAddress": "6659 Joshua Common Suite 908",
      "endAddress": "92163 Jeffrey Fords Apt. 703",
      "startCoords": {
        "latitude": 39.724964,
        "longitude": -104.900089
      },
      "endCoords": {
        "latitude": 39.805529,
        "longitude": -105.033172
      },
      "distanceMeters": 70959.6,
      "durationMs": 10194193,
      "drivingDurationMs": 8353512,
      "idlingDurationMs": 1840681,
      "fuelConsumedMl": 9021,
      "fuelConsumedGallons": 2.383,
      "maxSpeedMph": 40.6,
      "averageSpeedMph": 15.6,
      "safetyEvents": []
    },
    {
      "id": "trip_41187077_20250414_002",
      "vehicleId": "41187077",
      "driverId": "20000001",
      "startMs": 1744610940000,
      "endMs": 1744626429819,
      "startAddress": "057 Singleton Springs",
      "endAddress": "22734 Sandra Forges",
      "startCoords": {
        "latitude": 39.751049,
        "longitude": -104.952617
      },
      "endCoords": {
        "latitude": 39.813826,
        "longitude": -105.028282
      },
      "distanceMeters": 76202.4,
      "durationMs": 15489820,
      "drivingDurationMs": 12549794,
      "idlingDurationMs": 2940026,
      "fuelConsumedMl": 9687,
      "fuelConsumedGallons": 2.559,
      "maxSpeedMph": 53.4,
      "averageSpeedMph": 11.0,
      "safetyEvents": []
    },
    {
      "id": "trip_41187077_20250414_003",
      "vehicleId": "41187077",
      "driverId": "20000001",
      "startMs": 1744656660000,
      "endMs": 1744664075569,
      "startAddress": "737 Gordon Junction Apt. 852",
      "endAddress": "58451 Matthew Stravenue Suite 992",
      "startCoords": {
        "latitude": 39.753837,
        "longitude": -105.067344
      },
      "endCoords": {
        "latitude": 39.798021,
        "longitude": -104.981224
      },
      "distanceMeters": 49155.9,
      "durationMs": 7415570,
      "drivingDurationMs": 6651232,
      "idlingDurationMs": 764337,
      "fuelConsumedMl": 6250,
      "fuelConsumedGallons": 1.651,
      "maxSpeedMph": 55.2,
      "averageSpeedMph": 14.8,
      "safetyEvents": []
    },
    {
      "id": "trip_41187077_20250415_001",
      "vehicleId": "41187077",
      "driverId": "20000011",
      "startMs": 1744704900000,
      "endMs": 1744708783002,
      "startAddress": "6968 Marks Pines Suite 675",
      "endAddress": "2565 Hailey Spring",
      "startCoords": {
        "latitude": 39.758676,
        "longitude": -104.967334
      },
      "endCoords": {
        "latitude": 39.700377,
        "longitude": -104.955248
      },
      "distanceMeters": 29482.2,
      "durationMs": 3883002,
      "drivingDurationMs": 3345855,
      "idlingDurationMs": 537147,
      "fuelConsumedMl": 3748,
      "fuelConsumedGallons": 0.99,
      "maxSpeedMph": 44.8,
      "averageSpeedMph": 17.0,
      "safetyEvents": []
    },
    {
      "id": "trip_41187077_20250415_002",
      "vehicleId": "41187077",
      "driverId": "20000011",
      "startMs": 1744714860000,
      "endMs": 1744721700058,
      "startAddress": "2555 Jennifer Drives Apt. 259",
      "endAddress": "534 Andre Knolls Suite 140",
      "startCoords": {
        "latitude": 39.698328,
        "longitude": -105.071852
      },
      "endCoords": {
        "latitude": 39.777504,
        "longitude": -105.08327
      },
      "distanceMeters": 47045.9,
      "durationMs": 6840059,
      "drivingDurationMs": 5545660,
      "idlingDurationMs": 1294399,
      "fuelConsumedMl": 5981,
      "fuelConsumedGallons": 1.58,
      "maxSpeedMph": 41.8,
      "averageSpeedMph": 15.4,
      "safetyEvents": []
    },
    {
      "id": "trip_41187077_20250416_001",
      "vehicleId": "41187077",
      "driverId": "20000001",
      "startMs": 1744810980000,
      "endMs": 1744823132714,
      "startAddress": "66432 Kevin Stream Apt. 958",
      "endAddress": "0007 Justin Roads",
      "startCoords": {
        "latitude": 39.74706,
        "longitude": -104.915334
      },
      "endCoords": {
        "latitude": 39.812032,
        "longitude": -105.062968
      },
      "distanceMeters": 73590.3,
      "durationMs": 12152714,
      "drivingDurationMs": 10192479,
      "idlingDurationMs": 1960236,
      "fuelConsumedMl": 9358,
      "fuelConsumedGallons": 2.472,
      "maxSpeedMph": 60.5,
      "averageSpeedMph": 13.5,
      "safetyEvents": []
    },
    {
      "id": "trip_41187077_20250416_002",
      "vehicleId": "41187077",
      "driverId": "20000001",
      "startMs": 1744801620000,
      "endMs": 1744804843707,
      "startAddress": "3082 James Cliffs Suite 634",
      "endAddress": "20007 Park Views Suite 697",
      "startCoords": {
        "latitude": 39.821591,
        "longitude": -105.072998
      },
      "endCoords": {
        "latitude": 39.742261,
        "longitude": -104.958822
      },
      "distanceMeters": 24392.7,
      "durationMs": 3223707,
      "drivingDurationMs": 2859063,
      "idlingDurationMs": 364644,
      "fuelConsumedMl": 3100,
      "fuelConsumedGallons": 0.819,
      "maxSpeedMph": 68.9,
      "averageSpeedMph": 16.9,
      "safetyEvents": [
        {
          "type": "speeding",
          "startMs": 1744801860000,
          "maxSpeedMph": 68.9
        }
      ]
    },
    {
      "id": "trip_41187077_20250416_003",
      "vehicleId": "41187077",
      "driverId": "20000001",
      "startMs": 1744787400000,
      "endMs": 1744801365337,
      "startAddress": "7488 Barbara Loop Apt. 858",
      "endAddress": "572 Hoover Stream",
      "startCoords": {
        "latitude": 39.80071,
        "longitude": -104.934218
      },
      "endCoords": {
        "latitude": 39.735568,
        "longitude": -104.987106
      },
      "distanceMeters": 78754.6,
      "durationMs": 13965337,
      "drivingDurationMs": 12499886,
      "idlingDurationMs": 1465451,
      "fuelConsumedMl": 10012,
      "fuelConsumedGallons": 2.645,
      "maxSpeedMph": 45.1,
      "averageSpeedMph": 12.6,
      "safetyEvents": []
    },
    {
      "id": "trip_41187077_20250417_001",
      "vehicleId": "41187077",
      "driverId": "20000020",
      "startMs": 1744912920000,
      "endMs": 1744923600000,
      "startAddress": "4061 Jennifer View",
      "endAddress": "23412 Patrick Square",
      "startCoords": {
        "latitude": 39.813797,
        "longitude": -104.939207
      },
      "endCoords": {
        "latitude": 39.816884,
        "longitude": -104.901632
      },
      "distanceMeters": 59476.6,
      "durationMs": 10680000,
      "drivingDurationMs": 8544000,
      "idlingDurationMs": 2136000,
      "fuelConsumedMl": 7563,
      "fuelConsumedGallons": 1.998,
      "maxSpeedMph": 64.9,
      "averageSpeedMph": 12.5,
      "safetyEvents": []
    },
    {
      "id": "trip_41187077_20250417_002",
      "vehicleId": "41187077",
      "driverId": "20000020",
      "startMs": 1744887060000,
      "endMs": 1744894230000,
      "startAddress": "46460 Brown Isle Suite 678",
      "endAddress": "800 Amy Mission Apt. 609",
      "startCoords": {
        "latitude": 39.708022,
        "longitude": -105.047244
      },
      "endCoords": {
        "latitude": 39.697941,
        "longitude": -104.95866
      },
      "distanceMeters": 44064.1,
      "durationMs": 7170001,
      "drivingDurationMs": 5900716,
      "idlingDurationMs": 1269285,
      "fuelConsumedMl": 5602,
      "fuelConsumedGallons": 1.48,
      "maxSpeedMph": 49.8,
      "averageSpeedMph": 13.7,
      "safetyEvents": []
    },
    {
      "id": "trip_41187077_20250418_001",
      "vehicleId": "41187077",
      "driverId": "20000010",
      "startMs": 1744967520000,
      "endMs": 1744976873231,
      "startAddress": "034 Schneider Summit",
      "endAddress": "548 Johnson Summit Apt. 551",
      "startCoords": {
        "latitude": 39.756161,
        "longitude": -104.916584
      },
      "endCoords": {
        "latitude": 39.752977,
        "longitude": -104.913455
      },
      "distanceMeters": 50179.8,
      "durationMs": 9353231,
      "drivingDurationMs": 7634367,
      "idlingDurationMs": 1718864,
      "fuelConsumedMl": 6378,
      "fuelConsumedGallons": 1.685,
      "maxSpeedMph": 48.7,
      "averageSpeedMph": 12.0,
      "safetyEvents": []
    },
    {
      "id": "trip_41187077_20250418_002",
      "vehicleId": "41187077",
      "driverId": "20000010",
      "startMs": 1744981800000,
      "endMs": 1744984985114,
      "startAddress": "929 Howell Throughway",
      "endAddress": "53625 Aguilar Station",
      "startCoords": {
        "latitude": 39.807947,
        "longitude": -105.034146
      },
      "endCoords": {
        "latitude": 39.717414,
        "longitude": -105.013948
      },
      "distanceMeters": 22824.7,
      "durationMs": 3185115,
      "drivingDurationMs": 2599321,
      "idlingDurationMs": 585794,
      "fuelConsumedMl": 2903,
      "fuelConsumedGallons": 0.767,
      "maxSpeedMph": 31.7,
      "averageSpeedMph": 16.0,
      "safetyEvents": []
    },
    {
      "id": "trip_41187077_20250418_003",
      "vehicleId": "41187077",
      "driverId": "20000010",
      "startMs": 1744988040000,
      "endMs": 1744998249139,
      "startAddress": "7055 Cindy Estates Apt. 634",
      "endAddress": "34905 Potter Loop Suite 256",
      "startCoords": {
        "latitude": 39.774829,
        "longitude": -104.953077
      },
      "endCoords": {
        "latitude": 39.721842,
        "longitude": -105.057684
      },
      "distanceMeters": 82262.9,
      "durationMs": 10209139,
      "drivingDurationMs": 9568360,
      "idlingDurationMs": 640780,
      "fuelConsumedMl": 10459,
      "fuelConsumedGallons": 2.763,
      "maxSpeedMph": 30.3,
      "averageSpeedMph": 18.0,
      "safetyEvents": []
    },
    {
      "id": "trip_41187077_20250419_001",
      "vehicleId": "41187077",
      "driverId": "20000006",
      "startMs": 1745063580000,
      "endMs": 1745067662588,
      "startAddress": "572 Cassandra Lodge",
      "endAddress": "4941 Ryan Mountains",
      "startCoords": {
        "latitude": 39.763811,
        "longitude": -104.945552
      },
      "endCoords": {
        "latitude": 39.81989,
        "longitude": -104.915132
      },
      "distanceMeters": 25390.6,
      "durationMs": 4082588,
      "drivingDurationMs": 3755240,
      "idlingDurationMs": 327349,
      "fuelConsumedMl": 3229,
      "fuelConsumedGallons": 0.853,
      "maxSpeedMph": 49.3,
      "averageSpeedMph": 13.9,
      "safetyEvents": []
    },
    {
      "id": "trip_41187077_20250420_001",
      "vehicleId": "41187077",
      "driverId": "20000002",
      "startMs": 1745167320000,
      "endMs": 1745176754507,
      "startAddress": "24808 Hardy Avenue",
      "endAddress": "25231 Meyers Orchard",
      "startCoords": {
        "latitude": 39.69096,
        "longitude": -105.044378
      },
      "endCoords": {
        "latitude": 39.746977,
        "longitude": -104.990749
      },
      "distanceMeters": 53070.0,
      "durationMs": 9434508,
      "drivingDurationMs": 8168037,
      "idlingDurationMs": 1266471,
      "fuelConsumedMl": 6746,
      "fuelConsumedGallons": 1.782,
      "maxSpeedMph": 66.1,
      "averageSpeedMph": 12.6,
      "safetyEvents": [
        {
          "type": "speeding",
          "startMs": 1745175420000,
          "maxSpeedMph": 66.1
        }
      ]
    },
    {
      "id": "trip_41187077_20250420_002",
      "vehicleId": "41187077",
      "driverId": "20000002",
      "startMs": 1745141580000,
      "endMs": 1745146431132,
      "startAddress": "403 Armstrong Crossroad",
      "endAddress": "8732 Michael Dale Apt. 734",
      "startCoords": {
        "latitude": 39.704732,
        "longitude": -104.917115
      },
      "endCoords": {
        "latitude": 39.802932,
        "longitude": -105.068289
      },
      "distanceMeters": 36616.5,
      "durationMs": 4851132,
      "drivingDurationMs": 4277686,
      "idlingDurationMs": 573447,
      "fuelConsumedMl": 4656,
      "fuelConsumedGallons": 1.23,
      "maxSpeedMph": 44.8,
      "averageSpeedMph": 16.9,
      "safetyEvents": []
    },
    {
      "id": "trip_41187077_20250420_003",
      "vehicleId": "41187077",
      "driverId": "20000002",
      "startMs": 1745149140000,
      "endMs": 1745154083089,
      "startAddress": "28387 Faulkner Drives",
      "endAddress": "2919 Sara Lodge Suite 249",
      "startCoords": {
        "latitude": 39.720589,
        "longitude": -105.079745
      },
      "endCoords": {
        "latitude": 39.811325,
        "longitude": -105.083078
      },
      "distanceMeters": 29098.4,
      "durationMs": 4943090,
      "drivingDurationMs": 4077306,
      "idlingDurationMs": 865783,
      "fuelConsumedMl": 3698,
      "fuelConsumedGallons": 0.977,
      "maxSpeedMph": 38.4,
      "averageSpeedMph": 13.2,
      "safetyEvents": []
    },
    {
      "id": "trip_41187077_20250421_001",
      "vehicleId": "41187077",
      "driverId": "20000009",
      "startMs": 1745235840000,
      "endMs": 1745248226546,
      "startAddress": "705 Taylor Radial",
      "endAddress": "187 Cox Lock Suite 089",
      "startCoords": {
        "latitude": 39.746561,
        "longitude": -104.981661
      },
      "endCoords": {
        "latitude": 39.773779,
        "longitude": -104.936164
      },
      "distanceMeters": 68137.5,
      "durationMs": 12386547,
      "drivingDurationMs": 10971843,
      "idlingDurationMs": 1414704,
      "fuelConsumedMl": 8665,
      "fuelConsumedGallons": 2.289,
      "maxSpeedMph": 46.6,
      "averageSpeedMph": 12.3,
      "safetyEvents": []
    },
    {
      "id": "trip_41187077_20250421_002",
      "vehicleId": "41187077",
      "driverId": "20000009",
      "startMs": 1745255880000,
      "endMs": 1745262775414,
      "startAddress": "650 Fowler Roads Apt. 864",
      "endAddress": "8547 Mcintosh Plaza",
      "startCoords": {
        "latitude": 39.745774,
        "longitude": -105.045345
      },
      "endCoords": {
        "latitude": 39.774256,
        "longitude": -105.033906
      },
      "distanceMeters": 47321.8,
      "durationMs": 6895414,
      "drivingDurationMs": 5859265,
      "idlingDurationMs": 1036149,
      "fuelConsumedMl": 6015,
      "fuelConsumedGallons": 1.589,
      "maxSpeedMph": 60.4,
      "averageSpeedMph": 15.4,
      "safetyEvents": []
    },
    {
      "id": "trip_41187077_20250421_003",
      "vehicleId": "41187077",
      "driverId": "20000009",
      "startMs": 1745217240000,
      "endMs": 1745228378606,
      "startAddress": "215 Kimberly Lock Suite 550",
      "endAddress": "79434 Bailey Knoll Suite 343",
      "startCoords": {
        "latitude": 39.804856,
        "longitude": -104.922674
      },
      "endCoords": {
        "latitude": 39.727679,
        "longitude": -104.963599
      },
      "distanceMeters": 82652.6,
      "durationMs": 11138606,
      "drivingDurationMs": 10443018,
      "idlingDurationMs": 695588,
      "fuelConsumedMl": 10508,
      "fuelConsumedGallons": 2.776,
      "maxSpeedMph": 42.8,
      "averageSpeedMph": 16.6,
      "safetyEvents": []
    },
    {
      "id": "trip_41187077_20250421_004",
      "vehicleId": "41187077",
      "driverId": "20000009",
      "startMs": 1745248380000,
      "endMs": 1745258291832,
      "startAddress": "94281 Michael Ford",
      "endAddress": "31427 Ashley Ranch",
      "startCoords": {
        "latitude": 39.68415,
        "longitude": -105.072058
      },
      "endCoords": {
        "latitude": 39.740594,
        "longitude": -104.997805
      },
      "distanceMeters": 52603.4,
      "durationMs": 9911833,
      "drivingDurationMs": 8008953,
      "idlingDurationMs": 1902880,
      "fuelConsumedMl": 6689,
      "fuelConsumedGallons": 1.767,
      "maxSpeedMph": 30.5,
      "averageSpeedMph": 11.9,
      "safetyEvents": []
    },
    {
      "id": "trip_41187077_20250422_001",
      "vehicleId": "41187077",
      "driverId": "20000011",
      "startMs": 1745325540000,
      "endMs": 1745333924080,
      "startAddress": "1896 Kristin Walk Apt. 855",
      "endAddress": "800 Woodard Landing Suite 626",
      "startCoords": {
        "latitude": 39.798892,
        "longitude": -105.028887
      },
      "endCoords": {
        "latitude": 39.714555,
        "longitude": -104.967907
      },
      "distanceMeters": 47015.9,
      "durationMs": 8384080,
      "drivingDurationMs": 7359896,
      "idlingDurationMs": 1024184,
      "fuelConsumedMl": 5977,
      "fuelConsumedGallons": 1.579,
      "maxSpeedMph": 37.5,
      "averageSpeedMph": 12.5,
      "safetyEvents": []
    },
    {
      "id": "trip_41187077_20250422_002",
      "vehicleId": "41187077",
      "driverId": null,
      "startMs": 1745304240000,
      "endMs": 1745314253031,
      "startAddress": "634 Matthew Place",
      "endAddress": "5112 Wright Views",
      "startCoords": {
        "latitude": 39.824403,
        "longitude": -105.034732
      },
      "endCoords": {
        "latitude": 39.727958,
        "longitude": -105.064283
      },
      "distanceMeters": 62478.0,
      "durationMs": 10013032,
      "drivingDurationMs": 9772044,
      "idlingDurationMs": 240988,
      "fuelConsumedMl": 7942,
      "fuelConsumedGallons": 2.098,
      "maxSpeedMph": 39.0,
      "averageSpeedMph": 14.0,
      "safetyEvents": []
    },
    {
      "id": "trip_41187077_20250422_003",
      "vehicleId": "41187077",
      "driverId": "20000011",
      "startMs": 1745320320000,
      "endMs": 1745323099708,
      "startAddress": "50851 Chelsea Meadows Suite 351",
      "endAddress": "6603 Lewis Via",
      "startCoords": {
        "latitude": 39.783182,
        "longitude": -104.954299
      },
      "endCoords": {
        "latitude": 39.72509,
        "longitude": -104.93987
      },
      "distanceMeters": 12136.5,
      "durationMs": 2779708,
      "drivingDurationMs": 2285691,
      "idlingDurationMs": 494017,
      "fuelConsumedMl": 1544,
      "fuelConsumedGallons": 0.408,
      "maxSpeedMph": 60.7,
      "averageSpeedMph": 9.8,
      "safetyEvents": []
    },
    {
      "id": "trip_41187077_20250422_004",
      "vehicleId": "41187077",
      "driverId": "20000011",
      "startMs": 1745337720000,
      "endMs": 1745350725857,
      "startAddress": "1747 Jamie Freeway Apt. 805",
      "endAddress": "0103 Delacruz Manors Suite 695",
      "startCoords": {
        "latitude": 39.752899,
        "longitude": -105.031416
      },
      "endCoords": {
        "latitude": 39.734393,
        "longitude": -105.031959
      },
      "distanceMeters": 73627.9,
      "durationMs": 13005858,
      "drivingDurationMs": 11358192,
      "idlingDurationMs": 1647666,
      "fuelConsumedMl": 9361,
      "fuelConsumedGallons": 2.473,
      "maxSpeedMph": 28.4,
      "averageSpeedMph": 12.7,
      "safetyEvents": []
    },
    {
      "id": "trip_41187077_20250422_005",
      "vehicleId": "41187077",
      "driverId": "20000011",
      "startMs": 1745310420000,
      "endMs": 1745316628938,
      "startAddress": "84654 Nicole Vista",
      "endAddress": "69222 Ramos Valleys",
      "startCoords": {
        "latitude": 39.758095,
        "longitude": -105.081597
      },
      "endCoords": {
        "latitude": 39.804821,
        "longitude": -105.051632
      },
      "distanceMeters": 39007.8,
      "durationMs": 6208939,
      "drivingDurationMs": 5520130,
      "idlingDurationMs": 688809,
      "fuelConsumedMl": 4959,
      "fuelConsumedGallons": 1.31,
      "maxSpeedMph": 31.3,
      "averageSpeedMph": 14.1,
      "safetyEvents": []
    },
    {
      "id": "trip_41187077_20250422_006",
      "vehicleId": "41187077",
      "driverId": null,
      "startMs": 1745335320000,
      "endMs": 1745346773424,
      "startAddress": "7456 Angela Lock Apt. 664",
      "endAddress": "62364 Melanie Ferry",
      "startCoords": {
        "latitude": 39.72476,
        "longitude": -105.078914
      },
      "endCoords": {
        "latitude": 39.802947,
        "longitude": -105.075527
      },
      "distanceMeters": 64948.4,
      "durationMs": 11453424,
      "drivingDurationMs": 10001768,
      "idlingDurationMs": 1451656,
      "fuelConsumedMl": 8256,
      "fuelConsumedGallons": 2.181,
      "maxSpeedMph": 61.2,
      "averageSpeedMph": 12.7,
      "safetyEvents": []
    },
    {
      "id": "trip_41187077_20250423_001",
      "vehicleId": "41187077",
      "driverId": "20000009",
      "startMs": 1745389920000,
      "endMs": 1745399579357,
      "startAddress": "9541 Troy Springs",
      "endAddress": "549 Robert Place Suite 677",
      "startCoords": {
        "latitude": 39.756666,
        "longitude": -104.957733
      },
      "endCoords": {
        "latitude": 39.750817,
        "longitude": -105.000937
      },
      "distanceMeters": 74133.4,
      "durationMs": 9659357,
      "drivingDurationMs": 8858898,
      "idlingDurationMs": 800460,
      "fuelConsumedMl": 9426,
      "fuelConsumedGallons": 2.49,
      "maxSpeedMph": 52.0,
      "averageSpeedMph": 17.2,
      "safetyEvents": []
    },
    {
      "id": "trip_41187077_20250423_002",
      "vehicleId": "41187077",
      "driverId": "20000009",
      "startMs": 1745424240000,
      "endMs": 1745430639510,
      "startAddress": "6952 Good Extension",
      "endAddress": "491 Kristen Isle Suite 366",
      "startCoords": {
        "latitude": 39.808767,
        "longitude": -105.086538
      },
      "endCoords": {
        "latitude": 39.723102,
        "longitude": -105.059529
      },
      "distanceMeters": 26987.9,
      "durationMs": 6399511,
      "drivingDurationMs": 5378834,
      "idlingDurationMs": 1020676,
      "fuelConsumedMl": 3430,
      "fuelConsumedGallons": 0.906,
      "maxSpeedMph": 43.6,
      "averageSpeedMph": 9.4,
      "safetyEvents": []
    },
    {
      "id": "trip_41187077_20250424_001",
      "vehicleId": "41187077",
      "driverId": "20000006",
      "startMs": 1745504100000,
      "endMs": 1745523029234,
      "startAddress": "2324 Faith Spurs Suite 283",
      "endAddress": "2797 Patrick Drives",
      "startCoords": {
        "latitude": 39.723948,
        "longitude": -104.995854
      },
      "endCoords": {
        "latitude": 39.685133,
        "longitude": -104.961492
      },
      "distanceMeters": 84376.6,
      "durationMs": 18929235,
      "drivingDurationMs": 16854624,
      "idlingDurationMs": 2074611,
      "fuelConsumedMl": 10728,
      "fuelConsumedGallons": 2.834,
      "maxSpeedMph": 32.8,
      "averageSpeedMph": 10.0,
      "safetyEvents": []
    },
    {
      "id": "trip_41187077_20250424_002",
      "vehicleId": "41187077",
      "driverId": "20000006",
      "startMs": 1745515860000,
      "endMs": 1745525937377,
      "startAddress": "6027 Steele Square Suite 254",
      "endAddress": "30181 Gallegos Forges Apt. 781",
      "startCoords": {
        "latitude": 39.708742,
        "longitude": -104.902235
      },
      "endCoords": {
        "latitude": 39.694358,
        "longitude": -105.052737
      },
      "distanceMeters": 76629.6,
      "durationMs": 10077378,
      "drivingDurationMs": 9334817,
      "idlingDurationMs": 742560,
      "fuelConsumedMl": 9744,
      "fuelConsumedGallons": 2.574,
      "maxSpeedMph": 31.6,
      "averageSpeedMph": 17.0,
      "safetyEvents": []
    },
    {
      "id": "trip_41187077_20250424_003",
      "vehicleId": "41187077",
      "driverId": "20000006",
      "startMs": 1745496120000,
      "endMs": 1745502709769,
      "startAddress": "7015 Tiffany Corner",
      "endAddress": "61501 Patricia Spur",
      "startCoords": {
        "latitude": 39.793013,
        "longitude": -104.917578
      },
      "endCoords": {
        "latitude": 39.792982,
        "longitude": -104.947593
      },
      "distanceMeters": 46741.7,
      "durationMs": 6589770,
      "drivingDurationMs": 5303555,
      "idlingDurationMs": 1286215,
      "fuelConsumedMl": 5943,
      "fuelConsumedGallons": 1.57,
      "maxSpeedMph": 38.9,
      "averageSpeedMph": 15.9,
      "safetyEvents": []
    },
    {
      "id": "trip_41187077_20250424_004",
      "vehicleId": "41187077",
      "driverId": "20000006",
      "startMs": 1745475120000,
      "endMs": 1745481601002,
      "startAddress": "22994 Mejia Parkway",
      "endAddress": "257 John Meadow Suite 954",
      "startCoords": {
        "latitude": 39.763027,
        "longitude": -104.910245
      },
      "endCoords": {
        "latitude": 39.771366,
        "longitude": -104.930713
      },
      "distanceMeters": 35256.4,
      "durationMs": 6481003,
      "drivingDurationMs": 5342227,
      "idlingDurationMs": 1138776,
      "fuelConsumedMl": 4482,
      "fuelConsumedGallons": 1.184,
      "maxSpeedMph": 61.5,
      "averageSpeedMph": 12.2,
      "safetyEvents": []
    },
    {
      "id": "trip_41187077_20250424_005",
      "vehicleId": "41187077",
      "driverId": "20000006",
      "startMs": 1745485980000,
      "endMs": 1745491204918,
      "startAddress": "27514 Ann Orchard Suite 615",
      "endAddress": "1220 Whitney Tunnel",
      "startCoords": {
        "latitude": 39.690664,
        "longitude": -104.989934
      },
      "endCoords": {
        "latitude": 39.80792,
        "longitude": -104.909723
      },
      "distanceMeters": 24875.1,
      "durationMs": 5224918,
      "drivingDurationMs": 4388069,
      "idlingDurationMs": 836849,
      "fuelConsumedMl": 3161,
      "fuelConsumedGallons": 0.835,
      "maxSpeedMph": 66.1,
      "averageSpeedMph": 10.6,
      "safetyEvents": [
        {
          "type": "speeding",
          "startMs": 1745489460000,
          "maxSpeedMph": 66.1
        }
      ]
    },
    {
      "id": "trip_41187077_20250424_006",
      "vehicleId": "41187077",
      "driverId": "20000006",
      "startMs": 1745516580000,
      "endMs": 1745522611698,
      "startAddress": "12613 Henry Lodge Suite 723",
      "endAddress": "1981 Henderson Garden Suite 219",
      "startCoords": {
        "latitude": 39.692947,
        "longitude": -105.009704
      },
      "endCoords": {
        "latitude": 39.756751,
        "longitude": -105.08431
      },
      "distanceMeters": 42688.6,
      "durationMs": 6031699,
      "drivingDurationMs": 5830078,
      "idlingDurationMs": 201621,
      "fuelConsumedMl": 5428,
      "fuelConsumedGallons": 1.434,
      "maxSpeedMph": 49.5,
      "averageSpeedMph": 15.8,
      "safetyEvents": []
    },
    {
      "id": "trip_41187077_20250425_001",
      "vehicleId": "41187077",
      "driverId": "20000021",
      "startMs": 1745595480000,
      "endMs": 1745597045872,
      "startAddress": "831 Paula Point",
      "endAddress": "838 Allen Lodge Apt. 760",
      "startCoords": {
        "latitude": 39.688629,
        "longitude": -104.911297
      },
      "endCoords": {
        "latitude": 39.684338,
        "longitude": -105.043043
      },
      "distanceMeters": 10213.1,
      "durationMs": 1565872,
      "drivingDurationMs": 1380868,
      "idlingDurationMs": 185004,
      "fuelConsumedMl": 1298,
      "fuelConsumedGallons": 0.343,
      "maxSpeedMph": 40.2,
      "averageSpeedMph": 14.6,
      "safetyEvents": []
    },
    {
      "id": "trip_41187077_20250425_002",
      "vehicleId": "41187077",
      "driverId": "20000021",
      "startMs": 1745564040000,
      "endMs": 1745565763377,
      "startAddress": "3373 Mckenzie Alley Suite 788",
      "endAddress": "42355 Bryant Cliff Apt. 359",
      "startCoords": {
        "latitude": 39.800146,
        "longitude": -104.902432
      },
      "endCoords": {
        "latitude": 39.709943,
        "longitude": -104.937179
      },
      "distanceMeters": 7399.8,
      "durationMs": 1723378,
      "drivingDurationMs": 1439514,
      "idlingDurationMs": 283864,
      "fuelConsumedMl": 943,
      "fuelConsumedGallons": 0.249,
      "maxSpeedMph": 34.6,
      "averageSpeedMph": 9.6,
      "safetyEvents": []
    },
    {
      "id": "trip_41187077_20250425_003",
      "vehicleId": "41187077",
      "driverId": "20000021",
      "startMs": 1745595780000,
      "endMs": 1745607790175,
      "startAddress": "03168 Mosley Mountain Apt. 679",
      "endAddress": "88781 Taylor Mount",
      "startCoords": {
        "latitude": 39.77452,
        "longitude": -105.0576
      },
      "endCoords": {
        "latitude": 39.755204,
        "longitude": -104.930918
      },
      "distanceMeters": 50637.2,
      "durationMs": 12010175,
      "drivingDurationMs": 10001363,
      "idlingDurationMs": 2008813,
      "fuelConsumedMl": 6439,
      "fuelConsumedGallons": 1.701,
      "maxSpeedMph": 61.7,
      "averageSpeedMph": 9.4,
      "safetyEvents": []
    },
    {
      "id": "trip_41187077_20250426_001",
      "vehicleId": "41187077",
      "driverId": "20000012",
      "startMs": 1745682780000,
      "endMs": 1745687048411,
      "startAddress": "524 Knight Harbors",
      "endAddress": "613 Fisher Burg",
      "startCoords": {
        "latitude": 39.821859,
        "longitude": -104.925621
      },
      "endCoords": {
        "latitude": 39.74296,
        "longitude": -105.011649
      },
      "distanceMeters": 27017.5,
      "durationMs": 4268411,
      "drivingDurationMs": 3947049,
      "idlingDurationMs": 321363,
      "fuelConsumedMl": 3433,
      "fuelConsumedGallons": 0.907,
      "maxSpeedMph": 39.1,
      "averageSpeedMph": 14.2,
      "safetyEvents": []
    },
    {
      "id": "trip_41187077_20250427_001",
      "vehicleId": "41187077",
      "driverId": "20000021",
      "startMs": 1745771160000,
      "endMs": 1745782568697,
      "startAddress": "953 Pamela Streets Suite 671",
      "endAddress": "07117 Dean Crest Suite 235",
      "startCoords": {
        "latitude": 39.686504,
        "longitude": -104.997527
      },
      "endCoords": {
        "latitude": 39.707628,
        "longitude": -105.01389
      },
      "distanceMeters": 67815.4,
      "durationMs": 11408698,
      "drivingDurationMs": 10764637,
      "idlingDurationMs": 644061,
      "fuelConsumedMl": 8623,
      "fuelConsumedGallons": 2.278,
      "maxSpeedMph": 32.5,
      "averageSpeedMph": 13.3,
      "safetyEvents": []
    },
    {
      "id": "trip_41187077_20250427_002",
      "vehicleId": "41187077",
      "driverId": "20000021",
      "startMs": 1745763060000,
      "endMs": 1745765401444,
      "startAddress": "492 Boyd Inlet Apt. 899",
      "endAddress": "71417 Christopher Green",
      "startCoords": {
        "latitude": 39.729453,
        "longitude": -105.056382
      },
      "endCoords": {
        "latitude": 39.808358,
        "longitude": -105.061186
      },
      "distanceMeters": 10589.9,
      "durationMs": 2341444,
      "drivingDurationMs": 2011852,
      "idlingDurationMs": 329592,
      "fuelConsumedMl": 1348,
      "fuelConsumedGallons": 0.356,
      "maxSpeedMph": 42.6,
      "averageSpeedMph": 10.1,
      "safetyEvents": []
    },
    {
      "id": "trip_41187077_20250428_001",
      "vehicleId": "41187077",
      "driverId": "20000012",
      "startMs": 1745852400000,
      "endMs": 1745861631700,
      "startAddress": "32259 Larry Expressway Apt. 303",
      "endAddress": "3884 Susan Estate Suite 844",
      "startCoords": {
        "latitude": 39.758734,
        "longitude": -105.053083
      },
      "endCoords": {
        "latitude": 39.769491,
        "longitude": -104.927926
      },
      "distanceMeters": 66528.8,
      "durationMs": 9231701,
      "drivingDurationMs": 8322931,
      "idlingDurationMs": 908770,
      "fuelConsumedMl": 8460,
      "fuelConsumedGallons": 2.235,
      "maxSpeedMph": 58.8,
      "averageSpeedMph": 16.1,
      "safetyEvents": []
    },
    {
      "id": "trip_41187077_20250428_002",
      "vehicleId": "41187077",
      "driverId": "20000012",
      "startMs": 1745828400000,
      "endMs": 1745831010697,
      "startAddress": "9784 Karen Dam Apt. 433",
      "endAddress": "51329 William Trail",
      "startCoords": {
        "latitude": 39.807086,
        "longitude": -105.001321
      },
      "endCoords": {
        "latitude": 39.700203,
        "longitude": -104.993992
      },
      "distanceMeters": 14132.0,
      "durationMs": 2610697,
      "drivingDurationMs": 2232762,
      "idlingDurationMs": 377935,
      "fuelConsumedMl": 1798,
      "fuelConsumedGallons": 0.475,
      "maxSpeedMph": 36.6,
      "averageSpeedMph": 12.1,
      "safetyEvents": []
    },
    {
      "id": "trip_41187077_20250428_003",
      "vehicleId": "41187077",
      "driverId": "20000012",
      "startMs": 1745842980000,
      "endMs": 1745846460757,
      "startAddress": "68745 Cindy Plaza Suite 968",
      "endAddress": "41741 Jeffrey Route Apt. 157",
      "startCoords": {
        "latitude": 39.697213,
        "longitude": -104.914438
      },
      "endCoords": {
        "latitude": 39.728087,
        "longitude": -104.973126
      },
      "distanceMeters": 16110.4,
      "durationMs": 3480758,
      "drivingDurationMs": 3215149,
      "idlingDurationMs": 265609,
      "fuelConsumedMl": 2048,
      "fuelConsumedGallons": 0.541,
      "maxSpeedMph": 58.1,
      "averageSpeedMph": 10.4,
      "safetyEvents": []
    },
    {
      "id": "trip_41187077_20250429_001",
      "vehicleId": "41187077",
      "driverId": "20000015",
      "startMs": 1745941200000,
      "endMs": 1745942273495,
      "startAddress": "39548 Barton Walk",
      "endAddress": "423 Anderson Trail",
      "startCoords": {
        "latitude": 39.696717,
        "longitude": -105.002257
      },
      "endCoords": {
        "latitude": 39.824311,
        "longitude": -104.949055
      },
      "distanceMeters": 6954.4,
      "durationMs": 1073496,
      "drivingDurationMs": 885758,
      "idlingDurationMs": 187738,
      "fuelConsumedMl": 886,
      "fuelConsumedGallons": 0.234,
      "maxSpeedMph": 59.9,
      "averageSpeedMph": 14.5,
      "safetyEvents": []
    },
    {
      "id": "trip_41187077_20250429_002",
      "vehicleId": "41187077",
      "driverId": "20000015",
      "startMs": 1745933820000,
      "endMs": 1745943969159,
      "startAddress": "2425 Jennifer Port",
      "endAddress": "49639 Hernandez Light",
      "startCoords": {
        "latitude": 39.795093,
        "longitude": -104.992044
      },
      "endCoords": {
        "latitude": 39.793881,
        "longitude": -104.996916
      },
      "distanceMeters": 63585.2,
      "durationMs": 10149160,
      "drivingDurationMs": 8618133,
      "idlingDurationMs": 1531027,
      "fuelConsumedMl": 8086,
      "fuelConsumedGallons": 2.136,
      "maxSpeedMph": 65.6,
      "averageSpeedMph": 14.0,
      "safetyEvents": [
        {
          "type": "speeding",
          "startMs": 1745934720000,
          "maxSpeedMph": 65.6
        }
      ]
    },
    {
      "id": "trip_41187077_20250429_003",
      "vehicleId": "41187077",
      "driverId": null,
      "startMs": 1745947800000,
      "endMs": 1745950711372,
      "startAddress": "249 Kevin Keys",
      "endAddress": "208 Mary Run Suite 774",
      "startCoords": {
        "latitude": 39.812285,
        "longitude": -105.032235
      },
      "endCoords": {
        "latitude": 39.693237,
        "longitude": -105.011148
      },
      "distanceMeters": 14357.4,
      "durationMs": 2911372,
      "drivingDurationMs": 2666429,
      "idlingDurationMs": 244943,
      "fuelConsumedMl": 1825,
      "fuelConsumedGallons": 0.482,
      "maxSpeedMph": 46.6,
      "averageSpeedMph": 11.0,
      "safetyEvents": []
    },
    {
      "id": "trip_41187077_20250430_001",
      "vehicleId": "41187077",
      "driverId": "20000007",
      "startMs": 1746013380000,
      "endMs": 1746029634298,
      "startAddress": "47169 Mccarthy Square",
      "endAddress": "64691 Baker Flats",
      "startCoords": {
        "latitude": 39.790561,
        "longitude": -105.03551
      },
      "endCoords": {
        "latitude": 39.707642,
        "longitude": -105.083019
      },
      "distanceMeters": 77683.6,
      "durationMs": 16254299,
      "drivingDurationMs": 15323965,
      "idlingDurationMs": 930334,
      "fuelConsumedMl": 9876,
      "fuelConsumedGallons": 2.609,
      "maxSpeedMph": 31.6,
      "averageSpeedMph": 10.7,
      "safetyEvents": []
    },
    {
      "id": "trip_41187077_20250430_002",
      "vehicleId": "41187077",
      "driverId": "20000007",
      "startMs": 1746009180000,
      "endMs": 1746015405919,
      "startAddress": "340 Hall Summit Apt. 654",
      "endAddress": "05846 Stevens Dale",
      "startCoords": {
        "latitude": 39.740302,
        "longitude": -104.956915
      },
      "endCoords": {
        "latitude": 39.739976,
        "longitude": -104.930499
      },
      "distanceMeters": 37306.3,
      "durationMs": 6225920,
      "drivingDurationMs": 5917436,
      "idlingDurationMs": 308484,
      "fuelConsumedMl": 4743,
      "fuelConsumedGallons": 1.253,
      "maxSpeedMph": 49.9,
      "averageSpeedMph": 13.4,
      "safetyEvents": []
    },
    {
      "id": "trip_41187077_20250430_003",
      "vehicleId": "41187077",
      "driverId": "20000007",
      "startMs": 1746030840000,
      "endMs": 1746041944873,
      "startAddress": "617 Turner Grove Apt. 549",
      "endAddress": "2831 Sabrina Road",
      "startCoords": {
        "latitude": 39.797599,
        "longitude": -104.967408
      },
      "endCoords": {
        "latitude": 39.703549,
        "longitude": -104.971472
      },
      "distanceMeters": 64599.1,
      "durationMs": 11104874,
      "drivingDurationMs": 10689532,
      "idlingDurationMs": 415342,
      "fuelConsumedMl": 8214,
      "fuelConsumedGallons": 2.17,
      "maxSpeedMph": 63.5,
      "averageSpeedMph": 13.0,
      "safetyEvents": []
    },
    {
      "id": "trip_41187077_20250430_004",
      "vehicleId": "41187077",
      "driverId": "20000007",
      "startMs": 1746037980000,
      "endMs": 1746045920268,
      "startAddress": "274 Hernandez Hollow",
      "endAddress": "8386 Castaneda Ports Suite 334",
      "startCoords": {
        "latitude": 39.723812,
        "longitude": -105.010806
      },
      "endCoords": {
        "latitude": 39.76614,
        "longitude": -104.999561
      },
      "distanceMeters": 57399.6,
      "durationMs": 7940268,
      "drivingDurationMs": 6473561,
      "idlingDurationMs": 1466707,
      "fuelConsumedMl": 7298,
      "fuelConsumedGallons": 1.928,
      "maxSpeedMph": 33.5,
      "averageSpeedMph": 16.2,
      "safetyEvents": []
    },
    {
      "id": "trip_41187077_20250430_005",
      "vehicleId": "41187077",
      "driverId": "20000007",
      "startMs": 1746005460000,
      "endMs": 1746011493556,
      "startAddress": "8058 Torres Orchard",
      "endAddress": "569 Christensen Falls Apt. 205",
      "startCoords": {
        "latitude": 39.755131,
        "longitude": -104.922883
      },
      "endCoords": {
        "latitude": 39.824511,
        "longitude": -104.982124
      },
      "distanceMeters": 44640.5,
      "durationMs": 6033557,
      "drivingDurationMs": 5578183,
      "idlingDurationMs": 455374,
      "fuelConsumedMl": 5674,
      "fuelConsumedGallons": 1.499,
      "maxSpeedMph": 50.4,
      "averageSpeedMph": 16.6,
      "safetyEvents": []
    }
  ]
}