{
  "vehicleId": "48503473",
  "vehicleName": "ABQ-VAN-03",
  "month": "2025_04",
  "pagination": {
    "endCursor": "trip_48503473_20250430_006",
    "hasNextPage": false
  },
  "trips": [
    {
      "id": "trip_48503473_20250401_001",
      "vehicleId": "48503473",
      "driverId": "20000044",
      "startMs": 1743524220000,
      "endMs": 1743537149990,
      "startAddress": "65242 Marsh Dam",
      "endAddress": "70331 Bryant Dam",
      "startCoords": {
        "latitude": 35.182154,
        "longitude": -106.612864
      },
      "endCoords": {
        "latitude": 35.043141,
        "longitude": -106.604345
      },
      "distanceMeters": 63849.7,
      "durationMs": 12929991,
      "drivingDurationMs": 10404581,
      "idlingDurationMs": 2525410,
      "fuelConsumedMl": 8120,
      "fuelConsumedGallons": 2.145,
      "maxSpeedMph": 59.9,
      "averageSpeedMph": 11.0,
      "safetyEvents": []
    },
    {
      "id": "trip_48503473_20250401_002",
      "vehicleId": "48503473",
      "driverId": "20000044",
      "startMs": 1743532380000,
      "endMs": 1743535334136,
      "startAddress": "990 Diana Grove Suite 103",
      "endAddress": "8212 Michael Ramp",
      "startCoords": {
        "latitude": 35.054601,
        "longitude": -106.559081
      },
      "endCoords": {
        "latitude": 35.122144,
        "longitude": -106.540414
      },
      "distanceMeters": 22995.8,
      "durationMs": 2954137,
      "drivingDurationMs": 2647466,
      "idlingDurationMs": 306671,
      "fuelConsumedMl": 2922,
      "fuelConsumedGallons": 0.772,
      "maxSpeedMph": 47.9,
      "averageSpeedMph": 17.4,
      "safetyEvents": []
    },
    {
      "id": "trip_48503473_20250402_001",
      "vehicleId": "48503473",
      "driverId": "20000045",
      "startMs": 1743619020000,
      "endMs": 1743620540755,
      "startAddress": "28758 Wright Stravenue",
      "endAddress": "220 Melissa Trail",
      "startCoords": {
        "latitude": 35.157247,
        "longitude": -106.570158
      },
      "endCoords": {
        "latitude": 35.104658,
        "longitude": -106.592649
      },
      "distanceMeters": 10506.9,
      "durationMs": 1520755,
      "drivingDurationMs": 1335281,
      "idlingDurationMs": 185474,
      "fuelConsumedMl": 1336,
      "fuelConsumedGallons": 0.353,
      "maxSpeedMph": 66.6,
      "averageSpeedMph": 15.5,
      "safetyEvents": [
        {
          "type": "speeding",
          "startMs": 1743619740000,
          "maxSpeedMph": 66.6
        }
      ]
    },
    {
      "id": "trip_48503473_20250402_002",
      "vehicleId": "48503473",
      "driverId": "20000045",
      "startMs": 1743616800000,
      "endMs": 1743620662349,
      "startAddress": "059 Cunningham Court Apt. 259",
      "endAddress": "10609 Burgess Cliffs Apt. 138",
      "startCoords": {
        "latitude": 35.071995,
        "longitude": -106.588496
      },
      "endCoords": {
        "latitude": 35.125963,
        "longitude": -106.555785
      },
      "distanceMeters": 27205.1,
      "durationMs": 3862350,
      "drivingDurationMs": 3364713,
      "idlingDurationMs": 497637,
      "fuelConsumedMl": 3460,
      "fuelConsumedGallons": 0.914,
      "maxSpeedMph": 57.1,
      "averageSpeedMph": 15.8,
      "safetyEvents": []
    },
    {
      "id": "trip_48503473_20250402_003",
      "vehicleId": "48503473",
      "driverId": "20000045",
      "startMs": 1743592620000,
      "endMs": 1743607596154,
      "startAddress": "26851 Timothy River Apt. 395",
      "endAddress": "95824 Hernandez Cove",
      "startCoords": {
        "latitude": 35.171459,
        "longitude": -106.538964
      },
      "endCoords": {
        "latitude": 35.08723,
        "longitude": -106.605821
      },
      "distanceMeters": 63649.1,
      "durationMs": 14976154,
      "drivingDurationMs": 12714219,
      "idlingDurationMs": 2261935,
      "fuelConsumedMl": 8093,
      "fuelConsumedGallons": 2.138,
      "maxSpeedMph": 46.9,
      "averageSpeedMph": 9.5,
      "safetyEvents": []
    },
    {
      "id": "trip_48503473_20250402_004",
      "vehicleId": "48503473",
      "driverId": "20000045",
      "startMs": 1743605580000,
      "endMs": 1743622206829,
      "startAddress": "55124 Lauren Light Suite 215",
      "endAddress": "292 Chan Groves Apt. 704",
      "startCoords": {
        "latitude": 35.092038,
        "longitude": -106.718713
      },
      "endCoords": {
        "latitude": 35.069497,
        "longitude": -106.556043
      },
      "distanceMeters": 79133.0,
      "durationMs": 16626830,
      "drivingDurationMs": 13525517,
      "idlingDurationMs": 3101313,
      "fuelConsumedMl": 10062,
      "fuelConsumedGallons": 2.658,
      "maxSpeedMph": 54.0,
      "averageSpeedMph": 10.6,
      "safetyEvents": []
    },
    {
      "id": "trip_48503473_20250402_005",
      "vehicleId": "48503473",
      "driverId": "20000045",
      "startMs": 1743605700000,
      "endMs": 1743609715154,
      "startAddress": "0931 Ramirez Mountains",
      "endAddress": "267 Timothy Crescent Suite 614",
      "startCoords": {
        "latitude": 35.145976,
        "longitude": -106.579289
      },
      "endCoords": {
        "latitude": 35.090884,
        "longitude": -106.548317
      },
      "distanceMeters": 23288.4,
      "durationMs": 4015155,
      "drivingDurationMs": 3249943,
      "idlingDurationMs": 765212,
      "fuelConsumedMl": 2960,
      "fuelConsumedGallons": 0.782,
      "maxSpeedMph": 45.1,
      "averageSpeedMph": 13.0,
      "safetyEvents": []
    },
    {
      "id": "trip_48503473_20250403_001",
      "vehicleId": "48503473",
      "driverId": "20000044",
      "startMs": 1743678900000,
      "endMs": 1743683499749,
      "startAddress": "957 Thomas Bypass Apt. 293",
      "endAddress": "9082 Smith Park",
      "startCoords": {
        "latitude": 35.112388,
        "longitude": -106.699989
      },
      "endCoords": {
        "latitude": 35.079454,
        "longitude": -106.618143
      },
      "distanceMeters": 25774.2,
      "durationMs": 4599749,
      "drivingDurationMs": 3851840,
      "idlingDurationMs": 747909,
      "fuelConsumedMl": 3278,
      "fuelConsumedGallons": 0.866,
      "maxSpeedMph": 68.9,
      "averageSpeedMph": 12.5,
      "safetyEvents": [
        {
          "type": "speeding",
          "startMs": 1743681420000,
          "maxSpeedMph": 68.9
        }
      ]
    },
    {
      "id": "trip_48503473_20250403_002",
      "vehicleId": "48503473",
      "driverId": "20000044",
      "startMs": 1743699540000,
      "endMs": 1743704983079,
      "startAddress": "72652 Daniel Ports",
      "endAddress": "74289 Jessica Avenue",
      "startCoords": {
        "latitude": 35.161218,
        "longitude": -106.691348
      },
      "endCoords": {
        "latitude": 35.148752,
        "longitude": -106.653374
      },
      "distanceMeters": 28034.8,
      "durationMs": 5443080,
      "drivingDurationMs": 4412830,
      "idlingDurationMs": 1030250,
      "fuelConsumedMl": 3566,
      "fuelConsumedGallons": 0.942,
      "maxSpeedMph": 29.1,
      "averageSpeedMph": 11.5,
      "safetyEvents": []
    },
    {
      "id": "trip_48503473_20250403_003",
      "vehicleId": "48503473",
      "driverId": "20000044",
      "startMs": 1743689820000,
      "endMs": 1743697735156,
      "startAddress": "44955 David Radial Suite 474",
      "endAddress": "461 Brown Isle",
      "startCoords": {
        "latitude": 35.127066,
        "longitude": -106.717859
      },
      "endCoords": {
        "latitude": 35.061228,
        "longitude": -106.542769
      },
      "distanceMeters": 58836.2,
      "durationMs": 7915156,
      "drivingDurationMs": 6855306,
      "idlingDurationMs": 1059850,
      "fuelConsumedMl": 7480,
      "fuelConsumedGallons": 1.976,
      "maxSpeedMph": 34.8,
      "averageSpeedMph": 16.6,
      "safetyEvents": []
    },
    {
      "id": "trip_48503473_20250403_004",
      "vehicleId": "48503473",
      "driverId": "20000044",
      "startMs": 1743676140000,
      "endMs": 1743682097998,
      "startAddress": "2253 Monique Spur",
      "endAddress": "889 Rowland Station",
      "startCoords": {
        "latitude": 35.082755,
        "longitude": -106.637272
      },
      "endCoords": {
        "latitude": 35.116746,
        "longitude": -106.608669
      },
      "distanceMeters": 28326.8,
      "durationMs": 5957998,
      "drivingDurationMs": 5052404,
      "idlingDurationMs": 905594,
      "fuelConsumedMl": 3600,
      "fuelConsumedGallons": 0.951,
      "maxSpeedMph": 46.2,
      "averageSpeedMph": 10.6,
      "safetyEvents": []
    },
    {
      "id": "trip_48503473_20250404_001",
      "vehicleId": "48503473",
      "driverId": "20000044",
      "startMs": 1743789420000,
      "endMs": 1743794804258,
      "startAddress": "34854 Donna Lock Suite 543",
      "endAddress": "062 Flores Isle Suite 245",
      "startCoords": {
        "latitude": 35.040384,
        "longitude": -106.613953
      },
      "endCoords": {
        "latitude": 35.133584,
        "longitude": -106.634582
      },
      "distanceMeters": 27096.3,
      "durationMs": 5384259,
      "drivingDurationMs": 4434737,
      "idlingDurationMs": 949521,
      "fuelConsumedMl": 3445,
      "fuelConsumedGallons": 0.91,
      "maxSpeedMph": 67.0,
      "averageSpeedMph": 11.3,
      "safetyEvents": [
        {
          "type": "speeding",
          "startMs": 1743789780000,
          "maxSpeedMph": 67.0
        }
      ]
    },
    {
      "id": "trip_48503473_20250404_002",
      "vehicleId": "48503473",
      "driverId": "20000044",
      "startMs": 1743790320000,
      "endMs": 1743797686303,
      "startAddress": "3269 Walters Shore Suite 707",
      "endAddress": "465 Hall Drive Suite 651",
      "startCoords": {
        "latitude": 35.153074,
        "longitude": -106.63643
      },
      "endCoords": {
        "latitude": 35.080491,
        "longitude": -106.697328
      },
      "distanceMeters": 49033.9,
      "durationMs": 7366303,
      "drivingDurationMs": 6152281,
      "idlingDurationMs": 1214022,
      "fuelConsumedMl": 6235,
      "fuelConsumedGallons": 1.647,
      "maxSpeedMph": 49.9,
      "averageSpeedMph": 14.9,
      "safetyEvents": []
    },
    {
      "id": "trip_48503473_20250404_003",
      "vehicleId": "48503473",
      "driverId": "20000044",
      "startMs": 1743758340000,
      "endMs": 1743771466993,
      "startAddress": "443 Maddox Field Suite 519",
      "endAddress": "57562 Jeffrey Street Apt. 881",
      "startCoords": {
        "latitude": 35.139312,
        "longitude": -106.603732
      },
      "endCoords": {
        "latitude": 35.122047,
        "longitude": -106.644977
      },
      "distanceMeters": 82039.0,
      "durationMs": 13126993,
      "drivingDurationMs": 11578243,
      "idlingDurationMs": 1548750,
      "fuelConsumedMl": 10429,
      "fuelConsumedGallons": 2.755,
      "maxSpeedMph": 52.3,
      "averageSpeedMph": 14.0,
      "safetyEvents": []
    },
    {
      "id": "trip_48503473_20250404_004",
      "vehicleId": "48503473",
      "driverId": "20000044",
      "startMs": 1743769020000,
      "endMs": 1743772281247,
      "startAddress": "6284 Manning Dale Suite 632",
      "endAddress": "097 Ruiz Court",
      "startCoords": {
        "latitude": 35.082466,
        "longitude": -106.594428
      },
      "endCoords": {
        "latitude": 35.161176,
        "longitude": -106.674501
      },
      "distanceMeters": 21622.4,
      "durationMs": 3261248,
      "drivingDurationMs": 2686929,
      "idlingDurationMs": 574319,
      "fuelConsumedMl": 2748,
      "fuelConsumedGallons": 0.726,
      "maxSpeedMph": 71.4,
      "averageSpeedMph": 14.8,
      "safetyEvents": [
        {
          "type": "speeding",
          "startMs": 1743771060000,
          "maxSpeedMph": 71.4
        }
      ]
    },
    {
      "id": "trip_48503473_20250404_005",
      "vehicleId": "48503473",
      "driverId": "20000044",
      "startMs": 1743750720000,
      "endMs": 1743757288619,
      "startAddress": "710 Megan Lodge Apt. 751",
      "endAddress": "405 Sara Circle",
      "startCoords": {
        "latitude": 35.108166,
        "longitude": -106.636085
      },
      "endCoords": {
        "latitude": 35.072639,
        "longitude": -106.567527
      },
      "distanceMeters": 49827.1,
      "durationMs": 6568620,
      "drivingDurationMs": 5937094,
      "idlingDurationMs": 631526,
      "fuelConsumedMl": 6337,
      "fuelConsumedGallons": 1.674,
      "maxSpeedMph": 34.1,
      "averageSpeedMph": 17.0,
      "safetyEvents": []
    },
    {
      "id": "trip_48503473_20250404_006",
      "vehicleId": "48503473",
      "driverId": "20000044",
      "startMs": 1743752340000,
      "endMs": 1743757433679,
      "startAddress": "464 Karen Rest",
      "endAddress": "02501 Brooks Overpass Apt. 391",
      "startCoords": {
        "latitude": 35.088318,
        "longitude": -106.701316
      },
      "endCoords": {
        "latitude": 35.180735,
        "longitude": -106.570197
      },
      "distanceMeters": 33177.7,
      "durationMs": 5093679,
      "drivingDurationMs": 4895725,
      "idlingDurationMs": 197954,
      "fuelConsumedMl": 4217,
      "fuelConsumedGallons": 1.114,
      "maxSpeedMph": 31.5,
      "averageSpeedMph": 14.6,
      "safetyEvents": []
    },
    {
      "id": "trip_48503473_20250405_001",
      "vehicleId": "48503473",
      "driverId": "20000044",
      "startMs": 1743862140000,
      "endMs": 1743868533784,
      "startAddress": "79237 Donald Flat Suite 154",
      "endAddress": "959 Mason Plains",
      "startCoords": {
        "latitude": 35.058221,
        "longitude": -106.714163
      },
      "endCoords": {
        "latitude": 35.04187,
        "longitude": -106.653051
      },
      "distanceMeters": 43571.8,
      "durationMs": 6393785,
      "drivingDurationMs": 5876681,
      "idlingDurationMs": 517104,
      "fuelConsumedMl": 5538,
      "fuelConsumedGallons": 1.463,
      "maxSpeedMph": 41.8,
      "averageSpeedMph": 15.2,
      "safetyEvents": []
    },
    {
      "id": "trip_48503473_20250405_002",
      "vehicleId": "48503473",
      "driverId": "20000044",
      "startMs": 1743842760000,
      "endMs": 1743850773618,
      "startAddress": "7897 Lynch Mount Suite 682",
      "endAddress": "37522 Page Keys Apt. 549",
      "startCoords": {
        "latitude": 35.097575,
        "longitude": -106.53941
      },
      "endCoords": {
        "latitude": 35.079469,
        "longitude": -106.684806
      },
      "distanceMeters": 45033.5,
      "durationMs": 8013619,
      "drivingDurationMs": 7170027,
      "idlingDurationMs": 843592,
      "fuelConsumedMl": 5727,
      "fuelConsumedGallons": 1.513,
      "maxSpeedMph": 47.1,
      "averageSpeedMph": 12.6,
      "safetyEvents": []
    },
    {
      "id": "trip_48503473_20250406_001",
      "vehicleId": "48503473",
      "driverId": "20000045",
      "startMs": 1743947280000,
      "endMs": 1743953009548,
      "startAddress": "321 Harrell Well",
      "endAddress": "487 Schultz Fields",
      "startCoords": {
        "latitude": 35.129866,
        "longitude": -106.613891
      },
      "endCoords": {
        "latitude": 35.13107,
        "longitude": -106.710188
      },
      "distanceMeters": 40258.1,
      "durationMs": 5729548,
      "drivingDurationMs": 4966408,
      "idlingDurationMs": 763140,
      "fuelConsumedMl": 5118,
      "fuelConsumedGallons": 1.352,
      "maxSpeedMph": 31.7,
      "averageSpeedMph": 15.7,
      "safetyEvents": []
    },
    {
      "id": "trip_48503473_20250407_001",
      "vehicleId": "48503473",
      "driverId": null,
      "startMs": 1744008720000,
      "endMs": 1744010344380,
      "startAddress": "2882 Shawn Forge",
      "endAddress": "3805 Thomas Hollow Apt. 457",
      "startCoords": {
        "latitude": 35.057723,
        "longitude": -106.559304
      },
      "endCoords": {
        "latitude": 35.136124,
        "longitude": -106.568893
      },
      "distanceMeters": 8201.8,
      "durationMs": 1624381,
      "drivingDurationMs": 1313664,
      "idlingDurationMs": 310717,
      "fuelConsumedMl": 1041,
      "fuelConsumedGallons": 0.275,
      "maxSpeedMph": 33.2,
      "averageSpeedMph": 11.3,
      "safetyEvents": []
    },
    {
      "id": "trip_48503473_20250407_002",
      "vehicleId": "48503473",
      "driverId": "20000046",
      "startMs": 1744034220000,
      "endMs": 1744038757342,
      "startAddress": "511 Benitez Summit",
      "endAddress": "66439 Mary Key Apt. 116",
      "startCoords": {
        "latitude": 35.12967,
        "longitude": -106.553379
      },
      "endCoords": {
        "latitude": 35.099586,
        "longitude": -106.559242
      },
      "distanceMeters": 24614.9,
      "durationMs": 4537342,
      "drivingDurationMs": 3871419,
      "idlingDurationMs": 665923,
      "fuelConsumedMl": 3131,
      "fuelConsumedGallons": 0.827,
      "maxSpeedMph": 55.8,
      "averageSpeedMph": 12.1,
      "safetyEvents": []
    },
    {
      "id": "trip_48503473_20250408_001",
      "vehicleId": "48503473",
      "driverId": "20000046",
      "startMs": 1744093320000,
      "endMs": 1744101786312,
      "startAddress": "815 Sanchez Meadow",
      "endAddress": "08818 Nolan Falls",
      "startCoords": {
        "latitude": 35.089899,
        "longitude": -106.646082
      },
      "endCoords": {
        "latitude": 35.051347,
        "longitude": -106.690298
      },
      "distanceMeters": 46015.9,
      "durationMs": 8466313,
      "drivingDurationMs": 7046495,
      "idlingDurationMs": 1419818,
      "fuelConsumedMl": 5852,
      "fuelConsumedGallons": 1.546,
      "maxSpeedMph": 37.6,
      "averageSpeedMph": 12.2,
      "safetyEvents": []
    },
    {
      "id": "trip_48503473_20250408_002",
      "vehicleId": "48503473",
      "driverId": "20000046",
      "startMs": 1744130880000,
      "endMs": 1744135020924,
      "startAddress": "91792 Jimenez Mills",
      "endAddress": "88193 Chen View",
      "startCoords": {
        "latitude": 35.074618,
        "longitude": -106.63764
      },
      "endCoords": {
        "latitude": 35.111031,
        "longitude": -106.692658
      },
      "distanceMeters": 22559.6,
      "durationMs": 4140924,
      "drivingDurationMs": 3869833,
      "idlingDurationMs": 271092,
      "fuelConsumedMl": 2869,
      "fuelConsumedGallons": 0.758,
      "maxSpeedMph": 68.1,
      "averageSpeedMph": 12.2,
      "safetyEvents": [
        {
          "type": "speeding",
          "startMs": 1744131420000,
          "maxSpeedMph": 68.1
        }
      ]
    },
    {
      "id": "trip_48503473_20250408_003",
      "vehicleId": "48503473",
      "driverId": "20000046",
      "startMs": 1744109340000,
      "endMs": 1744113075523,
      "startAddress": "3878 Rodgers Light Apt. 246",
      "endAddress": "2340 Bell Route Apt. 902",
      "startCoords": {
        "latitude": 35.125231,
        "longitude": -106.682433
      },
      "endCoords": {
        "latitude": 35.069135,
        "longitude": -106.584775
      },
      "distanceMeters": 26440.0,
      "durationMs": 3735523,
      "drivingDurationMs": 3401741,
      "idlingDurationMs": 333783,
      "fuelConsumedMl": 3361,
      "fuelConsumedGallons": 0.888,
      "maxSpeedMph": 50.1,
      "averageSpeedMph": 15.8,
      "safetyEvents": []
    },
    {
      "id": "trip_48503473_20250408_004",
      "vehicleId": "48503473",
      "driverId": "20000046",
      "startMs": 1744118340000,
      "endMs": 1744119765537,
      "startAddress": "7475 Bryant Place Apt. 906",
      "endAddress": "39211 Austin Crossroad Suite 549",
      "startCoords": {
        "latitude": 35.112453,
        "longitude": -106.552874
      },
      "endCoords": {
        "latitude": 35.047181,
        "longitude": -106.669455
      },
      "distanceMeters": 9251.4,
      "durationMs": 1425537,
      "drivingDurationMs": 1157167,
      "idlingDurationMs": 268370,
      "fuelConsumedMl": 1177,
      "fuelConsumedGallons": 0.311,
      "maxSpeedMph": 28.9,
      "averageSpeedMph": 14.5,
      "safetyEvents": []
    },
    {
      "id": "trip_48503473_20250409_001",
      "vehicleId": "48503473",
      "driverId": "20000046",
      "startMs": 1744220940000,
      "endMs": 1744223681829,
      "startAddress": "455 Robert Burgs Apt. 257",
      "endAddress": "9134 Cole Wells Suite 295",
      "startCoords": {
        "latitude": 35.080091,
        "longitude": -106.539016
      },
      "endCoords": {
        "latitude": 35.051278,
        "longitude": -106.565801
      },
      "distanceMeters": 16078.0,
      "durationMs": 2741830,
      "drivingDurationMs": 2425128,
      "idlingDurationMs": 316701,
      "fuelConsumedMl": 2044,
      "fuelConsumedGallons": 0.54,
      "maxSpeedMph": 56.7,
      "averageSpeedMph": 13.1,
      "safetyEvents": []
    },
    {
      "id": "trip_48503473_20250409_002",
      "vehicleId": "48503473",
      "driverId": "20000046",
      "startMs": 1744200540000,
      "endMs": 1744205814561,
      "startAddress": "670 Beth Walk",
      "endAddress": "7582 Brandon Street Apt. 325",
      "startCoords": {
        "latitude": 35.091955,
        "longitude": -106.704082
      },
      "endCoords": {
        "latitude": 35.109326,
        "longitude": -106.622954
      },
      "distanceMeters": 30950.1,
      "durationMs": 5274561,
      "drivingDurationMs": 5038584,
      "idlingDurationMs": 235977,
      "fuelConsumedMl": 3937,
      "fuelConsumedGallons": 1.04,
      "maxSpeedMph": 28.3,
      "averageSpeedMph": 13.1,
      "safetyEvents": []
    },
    {
      "id": "trip_48503473_20250409_003",
      "vehicleId": "48503473",
      "driverId": "20000046",
      "startMs": 1744201140000,
      "endMs": 1744203408555,
      "startAddress": "657 Brett Streets",
      "endAddress": "8691 Rebecca Corners Apt. 224",
      "startCoords": {
        "latitude": 35.092093,
        "longitude": -106.708826
      },
      "endCoords": {
        "latitude": 35.145155,
        "longitude": -106.692259
      },
      "distanceMeters": 11421.6,
      "durationMs": 2268556,
      "drivingDurationMs": 1831895,
      "idlingDurationMs": 436661,
      "fuelConsumedMl": 1454,
      "fuelConsumedGallons": 0.384,
      "maxSpeedMph": 65.3,
      "averageSpeedMph": 11.3,
      "safetyEvents": [
        {
          "type": "speeding",
          "startMs": 1744202760000,
          "maxSpeedMph": 65.3
        }
      ]
    },
    {
      "id": "trip_48503473_20250409_004",
      "vehicleId": "48503473",
      "driverId": "20000046",
      "startMs": 1744203000000,
      "endMs": 1744214614382,
      "startAddress": "5764 Kenneth Wall",
      "endAddress": "270 Taylor Roads Suite 535",
      "startCoords": {
        "latitude": 35.075869,
        "longitude": -106.559392
      },
      "endCoords": {
        "latitude": 35.132049,
        "longitude": -106.618461
      },
      "distanceMeters": 75559.2,
      "durationMs": 11614383,
      "drivingDurationMs": 10058961,
      "idlingDurationMs": 1555421,
      "fuelConsumedMl": 9607,
      "fuelConsumedGallons": 2.538,
      "maxSpeedMph": 57.3,
      "averageSpeedMph": 14.6,
      "safetyEvents": []
    },
    {
      "id": "trip_48503473_20250409_005",
      "vehicleId": "48503473",
      "driverId": "20000046",
      "startMs": 1744181760000,
      "endMs": 1744196435016,
      "startAddress": "6313 Boyd Villages Suite 457",
      "endAddress": "78316 Jordan Burg Apt. 913",
      "startCoords": {
        "latitude": 35.093629,
        "longitude": -106.606557
      },
      "endCoords": {
        "latitude": 35.064914,
        "longitude": -106.654924
      },
      "distanceMeters": 67737.2,
      "durationMs": 14675017,
      "drivingDurationMs": 12359274,
      "idlingDurationMs": 2315743,
      "fuelConsumedMl": 8612,
      "fuelConsumedGallons": 2.275,
      "maxSpeedMph": 65.8,
      "averageSpeedMph": 10.3,
      "safetyEvents": [
        {
          "type": "speeding",
          "startMs": 1744193700000,
          "maxSpeedMph": 65.8
        }
      ]
    },
    {
      "id": "trip_48503473_20250410_001",
      "vehicleId": "48503473",
      "driverId": "20000044",
      "startMs": 1744292040000,
      "endMs": 1744302195242,
      "startAddress": "863 Lindsey Brooks Suite 778",
      "endAddress": "3630 Ricky Forge",
      "startCoords": {
        "latitude": 35.15935,
        "longitude": -106.552115
      },
      "endCoords": {
        "latitude": 35.172943,
        "longitude": -106.679332
      },
      "distanceMeters": 73339.4,
      "durationMs": 10155242,
      "drivingDurationMs": 9793692,
      "idlingDurationMs": 361550,
      "fuelConsumedMl": 9323,
      "fuelConsumedGallons": 2.463,
      "maxSpeedMph": 59.5,
      "averageSpeedMph": 16.2,
      "safetyEvents": []
    },
    {
      "id": "trip_48503473_20250410_002",
      "vehicleId": "48503473",
      "driverId": "20000044",
      "startMs": 1744276320000,
      "endMs": 1744288190665,
      "startAddress": "265 Vasquez Shore",
      "endAddress": "613 Guerrero Dale",
      "startCoords": {
        "latitude": 35.12243,
        "longitude": -106.627391
      },
      "endCoords": {
        "latitude": 35.094612,
        "longitude": -106.606445
      },
      "distanceMeters": 57000.5,
      "durationMs": 11870666,
      "drivingDurationMs": 10972489,
      "idlingDurationMs": 898177,
      "fuelConsumedMl": 7249,
      "fuelConsumedGallons": 1.915,
      "maxSpeedMph": 53.2,
      "averageSpeedMph": 10.7,
      "safetyEvents": []
    },
    {
      "id": "trip_48503473_20250410_003",
      "vehicleId": "48503473",
      "driverId": "20000044",
      "startMs": 1744285140000,
      "endMs": 1744290027113,
      "startAddress": "418 David Trace Apt. 051",
      "endAddress": "905 Powell Radial",
      "startCoords": {
        "latitude": 35.061839,
        "longitude": -106.630779
      },
      "endCoords": {
        "latitude": 35.124992,
        "longitude": -106.562659
      },
      "distanceMeters": 25586.5,
      "durationMs": 4887113,
      "drivingDurationMs": 4202389,
      "idlingDurationMs": 684725,
      "fuelConsumedMl": 3252,
      "fuelConsumedGallons": 0.859,
      "maxSpeedMph": 66.4,
      "averageSpeedMph": 11.7,
      "safetyEvents": [
        {
          "type": "speeding",
          "startMs": 1744285440000,
          "maxSpeedMph": 66.4
        }
      ]
    },
    {
      "id": "trip_48503473_20250410_004",
      "vehicleId": "48503473",
      "driverId": "20000044",
      "startMs": 1744299960000,
      "endMs": 1744317318797,
      "startAddress": "301 Brittany Lights",
      "endAddress": "6182 Andrew Spring Suite 339",
      "startCoords": {
        "latitude": 35.156386,
        "longitude": -106.689654
      },
      "endCoords": {
        "latitude": 35.07193,
        "longitude": -106.540552
      },
      "distanceMeters": 78480.2,
      "durationMs": 17358798,
      "drivingDurationMs": 13935472,
      "idlingDurationMs": 3423326,
      "fuelConsumedMl": 9978,
      "fuelConsumedGallons": 2.636,
      "maxSpeedMph": 55.2,
      "averageSpeedMph": 10.1,
      "safetyEvents": []
    },
    {
      "id": "trip_48503473_20250410_005",
      "vehicleId": "48503473",
      "driverId": "20000044",
      "startMs": 1744304940000,
      "endMs": 1744313244358,
      "startAddress": "083 Adkins Mount Apt. 922",
      "endAddress": "63602 John Roads",
      "startCoords": {
        "latitude": 35.118898,
        "longitude": -106.579055
      },
      "endCoords": {
        "latitude": 35.156863,
        "longitude": -106.699903
      },
      "distanceMeters": 37685.1,
      "durationMs": 8304358,
      "drivingDurationMs": 6825940,
      "idlingDurationMs": 1478418,
      "fuelConsumedMl": 4792,
      "fuelConsumedGallons": 1.266,
      "maxSpeedMph": 30.1,
      "averageSpeedMph": 10.2,
      "safetyEvents": []
    },
    {
      "id": "trip_48503473_20250411_001",
      "vehicleId": "48503473",
      "driverId": "20000044",
      "startMs": 1744351260000,
      "endMs": 1744360203777,
      "startAddress": "78077 Williams Harbor Apt. 638",
      "endAddress": "125 Martin Passage Apt. 671",
      "startCoords": {
        "latitude": 35.12831,
        "longitude": -106.701189
      },
      "endCoords": {
        "latitude": 35.132293,
        "longitude": -106.597587
      },
      "distanceMeters": 61469.1,
      "durationMs": 8943777,
      "drivingDurationMs": 7399905,
      "idlingDurationMs": 1543872,
      "fuelConsumedMl": 7817,
      "fuelConsumedGallons": 2.065,
      "maxSpeedMph": 33.4,
      "averageSpeedMph": 15.4,
      "safetyEvents": []
    },
    {
      "id": "trip_48503473_20250411_002",
      "vehicleId": "48503473",
      "driverId": "20000044",
      "startMs": 1744365720000,
      "endMs": 1744378306524,
      "startAddress": "9989 Warner Courts",
      "endAddress": "611 Garcia Knolls",
      "startCoords": {
        "latitude": 35.128201,
        "longitude": -106.639206
      },
      "endCoords": {
        "latitude": 35.076949,
        "longitude": -106.680821
      },
      "distanceMeters": 74850.0,
      "durationMs": 12586525,
      "drivingDurationMs": 10909070,
      "idlingDurationMs": 1677455,
      "fuelConsumedMl": 9517,
      "fuelConsumedGallons": 2.514,
      "maxSpeedMph": 41.6,
      "averageSpeedMph": 13.3,
      "safetyEvents": []
    },
    {
      "id": "trip_48503473_20250411_003",
      "vehicleId": "48503473",
      "driverId": "20000044",
      "startMs": 1744390800000,
      "endMs": 1744402130384,
      "startAddress": "76202 King Harbors Suite 387",
      "endAddress": "8004 Santos Courts",
      "startCoords": {
        "latitude": 35.10112,
        "longitude": -106.616663
      },
      "endCoords": {
        "latitude": 35.17584,
        "longitude": -106.64083
      },
      "distanceMeters": 64665.5,
      "durationMs": 11330384,
      "drivingDurationMs": 10049402,
      "idlingDurationMs": 1280982,
      "fuelConsumedMl": 8222,
      "fuelConsumedGallons": 2.172,
      "maxSpeedMph": 71.3,
      "averageSpeedMph": 12.8,
      "safetyEvents": [
        {
          "type": "speeding",
          "startMs": 1744392000000,
          "maxSpeedMph": 71.3
        }
      ]
    },
    {
      "id": "trip_48503473_20250411_004",
      "vehicleId": "48503473",
      "driverId": "20000044",
      "startMs": 1744396560000,
      "endMs": 1744398141523,
      "startAddress": "0110 Sandra Mews Apt. 785",
      "endAddress": "795 Diana Landing",
      "startCoords": {
        "latitude": 35.04989,
        "longitude": -106.721717
      },
      "endCoords": {
        "latitude": 35.15256,
        "longitude": -106.653713
      },
      "distanceMeters": 8672.1,
      "durationMs": 1581524,
      "drivingDurationMs": 1360434,
      "idlingDurationMs": 221090,
      "fuelConsumedMl": 1102,
      "fuelConsumedGallons": 0.291,
      "maxSpeedMph": 51.5,
      "averageSpeedMph": 12.3,
      "safetyEvents": []
    },
    {
      "id": "trip_48503473_20250411_005",
      "vehicleId": "48503473",
      "driverId": "20000044",
      "startMs": 1744373280000,
      "endMs": 1744377008535,
      "startAddress": "8679 Powell Knoll",
      "endAddress": "3636 Jason Isle Suite 356",
      "startCoords": {
        "latitude": 35.050152,
        "longitude": -106.598829
      },
      "endCoords": {
        "latitude": 35.170281,
        "longitude": -106.615341
      },
      "distanceMeters": 22791.6,
      "durationMs": 3728536,
      "drivingDurationMs": 3275014,
      "idlingDurationMs": 453522,
      "fuelConsumedMl": 2900,
      "fuelConsumedGallons": 0.766,
      "maxSpeedMph": 37.8,
      "averageSpeedMph": 13.7,
      "safetyEvents": []
    },
    {
      "id": "trip_48503473_20250411_006",
      "vehicleId": "48503473",
      "driverId": "20000044",
      "startMs": 1744355220000,
      "endMs": 1744360019921,
      "startAddress": "311 Burnett Fords Apt. 496",
      "endAddress": "8129 Gary Stravenue Apt. 899",
      "startCoords": {
        "latitude": 35.099903,
        "longitude": -106.630346
      },
      "endCoords": {
        "latitude": 35.118641,
        "longitude": -106.70396
      },
      "distanceMeters": 35296.2,
      "durationMs": 4799922,
      "drivingDurationMs": 4018164,
      "idlingDurationMs": 781758,
      "fuelConsumedMl": 4489,
      "fuelConsumedGallons": 1.186,
      "maxSpeedMph": 60.0,
      "averageSpeedMph": 16.4,
      "safetyEvents": []
    },
    {
      "id": "trip_48503473_20250412_001",
      "vehicleId": "48503473",
      "driverId": "20000045",
      "startMs": 1744443540000,
      "endMs": 1744445245524,
      "startAddress": "780 Patricia Lodge",
      "endAddress": "948 Flynn Trafficway",
      "startCoords": {
        "latitude": 35.04677,
        "longitude": -106.688419
      },
      "endCoords": {
        "latitude": 35.073083,
        "longitude": -106.619609
      },
      "distanceMeters": 10568.3,
      "durationMs": 1705524,
      "drivingDurationMs": 1458660,
      "idlingDurationMs": 246864,
      "fuelConsumedMl": 1344,
      "fuelConsumedGallons": 0.355,
      "maxSpeedMph": 33.1,
      "averageSpeedMph": 13.9,
      "safetyEvents": []
    },
    {
      "id": "trip_48503473_20250412_002",
      "vehicleId": "48503473",
      "driverId": "20000045",
      "startMs": 1744471680000,
      "endMs": 1744474577600,
      "startAddress": "00216 Brianna Cliff",
      "endAddress": "9012 Derrick Ramp Apt. 350",
      "startCoords": {
        "latitude": 35.047103,
        "longitude": -106.718001
      },
      "endCoords": {
        "latitude": 35.138729,
        "longitude": -106.668732
      },
      "distanceMeters": 15617.4,
      "durationMs": 2897600,
      "drivingDurationMs": 2717513,
      "idlingDurationMs": 180087,
      "fuelConsumedMl": 1987,
      "fuelConsumedGallons": 0.525,
      "maxSpeedMph": 33.1,
      "averageSpeedMph": 12.1,
      "safetyEvents": []
    },
    {
      "id": "trip_48503473_20250412_003",
      "vehicleId": "48503473",
      "driverId": "20000045",
      "startMs": 1744442940000,
      "endMs": 1744449198920,
      "startAddress": "1035 Timothy Squares",
      "endAddress": "604 Brooks Stravenue Apt. 753",
      "startCoords": {
        "latitude": 35.076624,
        "longitude": -106.567268
      },
      "endCoords": {
        "latitude": 35.039543,
        "longitude": -106.626393
      },
      "distanceMeters": 34356.0,
      "durationMs": 6258921,
      "drivingDurationMs": 5602118,
      "idlingDurationMs": 656803,
      "fuelConsumedMl": 4368,
      "fuelConsumedGallons": 1.154,
      "maxSpeedMph": 42.9,
      "averageSpeedMph": 12.3,
      "safetyEvents": []
    },
    {
      "id": "trip_48503473_20250412_004",
      "vehicleId": "48503473",
      "driverId": "20000045",
      "startMs": 1744441080000,
      "endMs": 1744448952240,
      "startAddress": "72778 Emily Center",
      "endAddress": "2148 Porter Plain",
      "startCoords": {
        "latitude": 35.151511,
        "longitude": -106.714607
      },
      "endCoords": {
        "latitude": 35.070744,
        "longitude": -106.690168
      },
      "distanceMeters": 36016.2,
      "durationMs": 7872241,
      "drivingDurationMs": 7187176,
      "idlingDurationMs": 685064,
      "fuelConsumedMl": 4580,
      "fuelConsumedGallons": 1.21,
      "maxSpeedMph": 35.7,
      "averageSpeedMph": 10.2,
      "safetyEvents": []
    },
    {
      "id": "trip_48503473_20250413_001",
      "vehicleId": "48503473",
      "driverId": "20000045",
      "startMs": 1744531980000,
      "endMs": 1744542076835,
      "startAddress": "2860 Avila Station Apt. 187",
      "endAddress": "197 Matthew Groves",
      "startCoords": {
        "latitude": 35.123783,
        "longitude": -106.691329
      },
      "endCoords": {
        "latitude": 35.126886,
        "longitude": -106.705668
      },
      "distanceMeters": 74110.5,
      "durationMs": 10096835,
      "drivingDurationMs": 8433625,
      "idlingDurationMs": 1663210,
      "fuelConsumedMl": 9422,
      "fuelConsumedGallons": 2.489,
      "maxSpeedMph": 70.4,
      "averageSpeedMph": 16.4,
      "safetyEvents": [
        {
          "type": "speeding",
          "startMs": 1744535880000,
          "maxSpeedMph": 70.4
        }
      ]
    },
    {
      "id": "trip_48503473_20250413_002",
      "vehicleId": "48503473",
      "driverId": "20000045",
      "startMs": 1744559040000,
      "endMs": 1744563599770,
      "startAddress": "029 Daniel Bridge Suite 920",
      "endAddress": "3688 Erika Brooks Apt. 641",
      "startCoords": {
        "latitude": 35.150499,
        "longitude": -106.549426
      },
      "endCoords": {
        "latitude": 35.09776,
        "longitude": -106.578834
      },
      "distanceMeters": 33513.3,
      "durationMs": 4559771,
      "drivingDurationMs": 3849277,
      "idlingDurationMs": 710494,
      "fuelConsumedMl": 4262,
      "fuelConsumedGallons": 1.126,
      "maxSpeedMph": 57.5,
      "averageSpeedMph": 16.4,
      "safetyEvents": []
    },
    {
      "id": "trip_48503473_20250413_003",
      "vehicleId": "48503473",
      "driverId": "20000045",
      "startMs": 1744524060000,
      "endMs": 1744529217235,
      "startAddress": "1866 Billy Grove Suite 701",
      "endAddress": "9994 Pamela Circles",
      "startCoords": {
        "latitude": 35.045799,
        "longitude": -106.626917
      },
      "endCoords": {
        "latitude": 35.040431,
        "longitude": -106.674606
      },
      "distanceMeters": 38950.7,
      "durationMs": 5157236,
      "drivingDurationMs": 4518369,
      "idlingDurationMs": 638867,
      "fuelConsumedMl": 4951,
      "fuelConsumedGallons": 1.308,
      "maxSpeedMph": 36.2,
      "averageSpeedMph": 16.9,
      "safetyEvents": []
    },
    {
      "id": "trip_48503473_20250413_004",
      "vehicleId": "48503473",
      "driverId": "20000045",
      "startMs": 1744540920000,
      "endMs": 1744542626999,
      "startAddress": "992 Harrison Hill",
      "endAddress": "35380 Floyd Radial Suite 854",
      "startCoords": {
        "latitude": 35.165101,
        "longitude": -106.638187
      },
      "endCoords": {
        "latitude": 35.044011,
        "longitude": -106.622989
      },
      "distanceMeters": 8387.6,
      "durationMs": 1707000,
      "drivingDurationMs": 1380873,
      "idlingDurationMs": 326127,
      "fuelConsumedMl": 1067,
      "fuelConsumedGallons": 0.282,
      "maxSpeedMph": 62.9,
      "averageSpeedMph": 11.0,
      "safetyEvents": []
    },
    {
      "id": "trip_48503473_20250414_001",
      "vehicleId": "48503473",
      "driverId": "20000046",
      "startMs": 1744644300000,
      "endMs": 1744649879791,
      "startAddress": "6610 Steele Drives Suite 827",
      "endAddress": "82837 Taylor Via",
      "startCoords": {
        "latitude": 35.163189,
        "longitude": -106.624467
      },
      "endCoords": {
        "latitude": 35.132503,
        "longitude": -106.561219
      },
      "distanceMeters": 36004.8,
      "durationMs": 5579791,
      "drivingDurationMs": 4838380,
      "idlingDurationMs": 741411,
      "fuelConsumedMl": 4577,
      "fuelConsumedGallons": 1.209,
      "maxSpeedMph": 50.7,
      "averageSpeedMph": 14.4,
      "safetyEvents": []
    },
    {
      "id": "trip_48503473_20250414_002",
      "vehicleId": "48503473",
      "driverId": "20000046",
      "startMs": 1744655340000,
      "endMs": 1744658979267,
      "startAddress": "45081 Smith Hills Apt. 286",
      "endAddress": "2146 Gary Alley",
      "startCoords": {
        "latitude": 35.118214,
        "longitude": -106.688415
      },
      "endCoords": {
        "latitude": 35.122552,
        "longitude": -106.597457
      },
      "distanceMeters": 22557.8,
      "durationMs": 3639267,
      "drivingDurationMs": 3017087,
      "idlingDurationMs": 622180,
      "fuelConsumedMl": 2869,
      "fuelConsumedGallons": 0.758,
      "maxSpeedMph": 39.8,
      "averageSpeedMph": 13.9,
      "safetyEvents": []
    },
    {
      "id": "trip_48503473_20250414_003",
      "vehicleId": "48503473",
      "driverId": "20000046",
      "startMs": 1744645680000,
      "endMs": 1744650033541,
      "startAddress": "3217 Karen Valley",
      "endAddress": "66381 Walker Mews Apt. 902",
      "startCoords": {
        "latitude": 35.067157,
        "longitude": -106.719602
      },
      "endCoords": {
        "latitude": 35.043783,
        "longitude": -106.688394
      },
      "distanceMeters": 26310.1,
      "durationMs": 4353541,
      "drivingDurationMs": 3835547,
      "idlingDurationMs": 517994,
      "fuelConsumedMl": 3346,
      "fuelConsumedGallons": 0.884,
      "maxSpeedMph": 67.1,
      "averageSpeedMph": 13.5,
      "safetyEvents": [
        {
          "type": "speeding",
          "startMs": 1744649100000,
          "maxSpeedMph": 67.1
        }
      ]
    },
    {
      "id": "trip_48503473_20250414_004",
      "vehicleId": "48503473",
      "driverId": "20000046",
      "startMs": 1744622280000,
      "endMs": 1744624682312,
      "startAddress": "7055 Mccarthy Stream",
      "endAddress": "4822 Sonya Heights Suite 349",
      "startCoords": {
        "latitude": 35.105074,
        "longitude": -106.586649
      },
      "endCoords": {
        "latitude": 35.152201,
        "longitude": -106.719948
      },
      "distanceMeters": 14888.3,
      "durationMs": 2402312,
      "drivingDurationMs": 2203877,
      "idlingDurationMs": 198435,
      "fuelConsumedMl": 1893,
      "fuelConsumedGallons": 0.5,
      "maxSpeedMph": 70.6,
      "averageSpeedMph": 13.9,
      "safetyEvents": [
        {
          "type": "speeding",
          "startMs": 1744624440000,
          "maxSpeedMph": 70.6
        }
      ]
    },
    {
      "id": "trip_48503473_20250415_001",
      "vehicleId": "48503473",
      "driverId": "20000044",
      "startMs": 1744726500000,
      "endMs": 1744734106838,
      "startAddress": "163 Stevens Lock",
      "endAddress": "67600 Parker Cliff",
      "startCoords": {
        "latitude": 35.068121,
        "longitude": -106.599534
      },
      "endCoords": {
        "latitude": 35.142138,
        "longitude": -106.590453
      },
      "distanceMeters": 56392.8,
      "durationMs": 7606838,
      "drivingDurationMs": 6649260,
      "idlingDurationMs": 957578,
      "fuelConsumedMl": 7170,
      "fuelConsumedGallons": 1.894,
      "maxSpeedMph": 68.7,
      "averageSpeedMph": 16.6,
      "safetyEvents": [
        {
          "type": "speeding",
          "startMs": 1744730520000,
          "maxSpeedMph": 68.7
        }
      ]
    },
    {
      "id": "trip_48503473_20250415_002",
      "vehicleId": "48503473",
      "driverId": "20000044",
      "startMs": 1744733280000,
      "endMs": 1744742600290,
      "startAddress": "12860 Andres Rapid Apt. 641",
      "endAddress": "9328 Deanna Lane Suite 773",
      "startCoords": {
        "latitude": 35.154246,
        "longitude": -106.640027
      },
      "endCoords": {
        "latitude": 35.069934,
        "longitude": -106.680608
      },
      "distanceMeters": 73621.1,
      "durationMs": 9320290,
      "drivingDurationMs": 8400222,
      "idlingDurationMs": 920068,
      "fuelConsumedMl": 9361,
      "fuelConsumedGallons": 2.473,
      "maxSpeedMph": 38.5,
      "averageSpeedMph": 17.7,
      "safetyEvents": []
    },
    {
      "id": "trip_48503473_20250415_003",
      "vehicleId": "48503473",
      "driverId": "20000044",
      "startMs": 1744697280000,
      "endMs": 1744698103707,
      "startAddress": "5885 Peterson Trace Suite 882",
      "endAddress": "3443 Meyer Plains",
      "startCoords": {
        "latitude": 35.125504,
        "longitude": -106.583573
      },
      "endCoords": {
        "latitude": 35.125331,
        "longitude": -106.706042
      },
      "distanceMeters": 5561.7,
      "durationMs": 823707,
      "drivingDurationMs": 649630,
      "idlingDurationMs": 174077,
      "fuelConsumedMl": 708,
      "fuelConsumedGallons": 0.187,
      "maxSpeedMph": 68.1,
      "averageSpeedMph": 15.1,
      "safetyEvents": [
        {
          "type": "speeding",
          "startMs": 1744697580000,
          "maxSpeedMph": 68.1
        }
      ]
    },
    {
      "id": "trip_48503473_20250415_004",
      "vehicleId": "48503473",
      "driverId": "20000044",
      "startMs": 1744714920000,
      "endMs": 1744724868618,
      "startAddress": "586 Alicia Turnpike",
      "endAddress": "277 Benjamin Highway Suite 622",
      "startCoords": {
        "latitude": 35.17188,
        "longitude": -106.659525
      },
      "endCoords": {
        "latitude": 35.084527,
        "longitude": -106.669351
      },
      "distanceMeters": 65332.8,
      "durationMs": 9948619,
      "drivingDurationMs": 8105118,
      "idlingDurationMs": 1843501,
      "fuelConsumedMl": 8305,
      "fuelConsumedGallons": 2.194,
      "maxSpeedMph": 57.4,
      "averageSpeedMph": 14.7,
      "safetyEvents": []
    },
    {
      "id": "trip_48503473_20250415_005",
      "vehicleId": "48503473",
      "driverId": "20000044",
      "startMs": 1744743300000,
      "endMs": 1744750800000,
      "startAddress": "910 Mercedes Pass",
      "endAddress": "3998 Floyd Junctions",
      "startCoords": {
        "latitude": 35.139734,
        "longitude": -106.587049
      },
      "endCoords": {
        "latitude": 35.175744,
        "longitude": -106.672938
      },
      "distanceMeters": 34934.9,
      "durationMs": 7500000,
      "drivingDurationMs": 6000000,
      "idlingDurationMs": 1500000,
      "fuelConsumedMl": 4440,
      "fuelConsumedGallons": 1.173,
      "maxSpeedMph": 65.7,
      "averageSpeedMph": 10.4,
      "safetyEvents": [
        {
          "type": "speeding",
          "startMs": 1744745880000,
          "maxSpeedMph": 65.7
        }
      ]
    },
    {
      "id": "trip_48503473_20250415_006",
      "vehicleId": "48503473",
      "driverId": "20000044",
      "startMs": 1744721220000,
      "endMs": 1744722997757,
      "startAddress": "9637 Lam Glen",
      "endAddress": "78101 Wells Lights",
      "startCoords": {
        "latitude": 35.150478,
        "longitude": -106.655925
      },
      "endCoords": {
        "latitude": 35.132358,
        "longitude": -106.550146
      },
      "distanceMeters": 13129.2,
      "durationMs": 1777758,
      "drivingDurationMs": 1559491,
      "idlingDurationMs": 218266,
      "fuelConsumedMl": 1669,
      "fuelConsumedGallons": 0.441,
      "maxSpeedMph": 61.8,
      "averageSpeedMph": 16.5,
      "safetyEvents": []
    },
    {
      "id": "trip_48503473_20250416_001",
      "vehicleId": "48503473",
      "driverId": "20000046",
      "startMs": 1744807140000,
      "endMs": 1744808388885,
      "startAddress": "69401 Andrew Hill Suite 663",
      "endAddress": "381 Tiffany Mission Apt. 384",
      "startCoords": {
        "latitude": 35.15257,
        "longitude": -106.604789
      },
      "endCoords": {
        "latitude": 35.131006,
        "longitude": -106.644985
      },
      "distanceMeters": 8422.9,
      "durationMs": 1248885,
      "drivingDurationMs": 1020111,
      "idlingDurationMs": 228774,
      "fuelConsumedMl": 1071,
      "fuelConsumedGallons": 0.283,
      "maxSpeedMph": 55.1,
      "averageSpeedMph": 15.1,
      "safetyEvents": []
    },
    {
      "id": "trip_48503473_20250416_002",
      "vehicleId": "48503473",
      "driverId": "20000046",
      "startMs": 1744798500000,
      "endMs": 1744801947497,
      "startAddress": "8511 Johns Dam Apt. 485",
      "endAddress": "99014 Charles Highway",
      "startCoords": {
        "latitude": 35.058079,
        "longitude": -106.601495
      },
      "endCoords": {
        "latitude": 35.113804,
        "longitude": -106.563275
      },
      "distanceMeters": 26865.0,
      "durationMs": 3447497,
      "drivingDurationMs": 3117628,
      "idlingDurationMs": 329870,
      "fuelConsumedMl": 3414,
      "fuelConsumedGallons": 0.902,
      "maxSpeedMph": 66.9,
      "averageSpeedMph": 17.4,
      "safetyEvents": [
        {
          "type": "speeding",
          "startMs": 1744798860000,
          "maxSpeedMph": 66.9
        }
      ]
    },
    {
      "id": "trip_48503473_20250416_003",
      "vehicleId": "48503473",
      "driverId": "20000046",
      "startMs": 1744800180000,
      "endMs": 1744808759829,
      "startAddress": "8793 Simon Bypass Suite 039",
      "endAddress": "057 Fisher Mountains",
      "startCoords": {
        "latitude": 35.080385,
        "longitude": -106.669414
      },
      "endCoords": {
        "latitude": 35.10867,
        "longitude": -106.60705
      },
      "distanceMeters": 48060.3,
      "durationMs": 8579829,
      "drivingDurationMs": 7249619,
      "idlingDurationMs": 1330210,
      "fuelConsumedMl": 6110,
      "fuelConsumedGallons": 1.614,
      "maxSpeedMph": 47.7,
      "averageSpeedMph": 12.5,
      "safetyEvents": []
    },
    {
      "id": "trip_48503473_20250416_004",
      "vehicleId": "48503473",
      "driverId": "20000046",
      "startMs": 1744798920000,
      "endMs": 1744806663266,
      "startAddress": "2553 Wallace Parkways",
      "endAddress": "145 Tiffany Spurs Suite 462",
      "startCoords": {
        "latitude": 35.173166,
        "longitude": -106.637804
      },
      "endCoords": {
        "latitude": 35.156268,
        "longitude": -106.659292
      },
      "distanceMeters": 43256.6,
      "durationMs": 7743267,
      "drivingDurationMs": 6710265,
      "idlingDurationMs": 1033002,
      "fuelConsumedMl": 5500,
      "fuelConsumedGallons": 1.453,
      "maxSpeedMph": 30.9,
      "averageSpeedMph": 12.5,
      "safetyEvents": []
    },
    {
      "id": "trip_48503473_20250417_001",
      "vehicleId": "48503473",
      "driverId": "20000046",
      "startMs": 1744885080000,
      "endMs": 1744899352742,
      "startAddress": "01414 Savage Underpass",
      "endAddress": "13566 Johnson Glens Suite 651",
      "startCoords": {
        "latitude": 35.143935,
        "longitude": -106.698509
      },
      "endCoords": {
        "latitude": 35.101663,
        "longitude": -106.574505
      },
      "distanceMeters": 77021.0,
      "durationMs": 14272742,
      "drivingDurationMs": 12224073,
      "idlingDurationMs": 2048670,
      "fuelConsumedMl": 9793,
      "fuelConsumedGallons": 2.587,
      "maxSpeedMph": 37.0,
      "averageSpeedMph": 12.1,
      "safetyEvents": []
    },
    {
      "id": "trip_48503473_20250417_002",
      "vehicleId": "48503473",
      "driverId": "20000046",
      "startMs": 1744891320000,
      "endMs": 1744893592754,
      "startAddress": "8496 Jessica Ferry",
      "endAddress": "00873 Amanda Knoll Apt. 571",
      "startCoords": {
        "latitude": 35.152813,
        "longitude": -106.628586
      },
      "endCoords": {
        "latitude": 35.041275,
        "longitude": -106.641456
      },
      "distanceMeters": 14092.5,
      "durationMs": 2272755,
      "drivingDurationMs": 1885648,
      "idlingDurationMs": 387107,
      "fuelConsumedMl": 1790,
      "fuelConsumedGallons": 0.473,
      "maxSpeedMph": 70.5,
      "averageSpeedMph": 13.9,
      "safetyEvents": [
        {
          "type": "speeding",
          "startMs": 1744893360000,
          "maxSpeedMph": 70.5
        }
      ]
    },
    {
      "id": "trip_48503473_20250417_003",
      "vehicleId": "48503473",
      "driverId": "20000046",
      "startMs": 1744909620000,
      "endMs": 1744923600000,
      "startAddress": "8306 Mack Ports",
      "endAddress": "06346 Cruz Prairie Apt. 923",
      "startCoords": {
        "latitude": 35.17062,
        "longitude": -106.63802
      },
      "endCoords": {
        "latitude": 35.068426,
        "longitude": -106.708795
      },
      "distanceMeters": 71277.2,
      "durationMs": 13980000,
      "drivingDurationMs": 13023217,
      "idlingDurationMs": 956783,
      "fuelConsumedMl": 9062,
      "fuelConsumedGallons": 2.394,
      "maxSpeedMph": 29.9,
      "averageSpeedMph": 11.4,
      "safetyEvents": []
    },
    {
      "id": "trip_48503473_20250417_004",
      "vehicleId": "48503473",
      "driverId": "20000046",
      "startMs": 1744877880000,
      "endMs": 1744881037941,
      "startAddress": "19003 Berry Branch",
      "endAddress": "6484 Brian Prairie",
      "startCoords": {
        "latitude": 35.137217,
        "longitude": -106.681302
      },
      "endCoords": {
        "latitude": 35.075242,
        "longitude": -106.631299
      },
      "distanceMeters": 18520.7,
      "durationMs": 3157942,
      "drivingDurationMs": 2554135,
      "idlingDurationMs": 603807,
      "fuelConsumedMl": 2355,
      "fuelConsumedGallons": 0.622,
      "maxSpeedMph": 37.7,
      "averageSpeedMph": 13.1,
      "safetyEvents": []
    },
    {
      "id": "trip_48503473_20250418_001",
      "vehicleId": "48503473",
      "driverId": "20000046",
      "startMs": 1744977060000,
      "endMs": 1744983471621,
      "startAddress": "79414 Kyle Plain Suite 486",
      "endAddress": "008 Natalie Common Apt. 606",
      "startCoords": {
        "latitude": 35.082918,
        "longitude": -106.608045
      },
      "endCoords": {
        "latitude": 35.049892,
        "longitude": -106.679442
      },
      "distanceMeters": 53471.7,
      "durationMs": 6411621,
      "drivingDurationMs": 6184732,
      "idlingDurationMs": 226889,
      "fuelConsumedMl": 6799,
      "fuelConsumedGallons": 1.796,
      "maxSpeedMph": 34.0,
      "averageSpeedMph": 18.7,
      "safetyEvents": []
    },
    {
      "id": "trip_48503473_20250418_002",
      "vehicleId": "48503473",
      "driverId": "20000046",
      "startMs": 1744995300000,
      "endMs": 1744998589643,
      "startAddress": "702 Elizabeth Motorway",
      "endAddress": "279 John Passage Suite 139",
      "startCoords": {
        "latitude": 35.095996,
        "longitude": -106.695598
      },
      "endCoords": {
        "latitude": 35.132012,
        "longitude": -106.624351
      },
      "distanceMeters": 16465.3,
      "durationMs": 3289643,
      "drivingDurationMs": 3021111,
      "idlingDurationMs": 268532,
      "fuelConsumedMl": 2093,
      "fuelConsumedGallons": 0.553,
      "maxSpeedMph": 54.6,
      "averageSpeedMph": 11.2,
      "safetyEvents": []
    },
    {
      "id": "trip_48503473_20250418_003",
      "vehicleId": "48503473",
      "driverId": "20000046",
      "startMs": 1744974000000,
      "endMs": 1744978275436,
      "startAddress": "53134 Sandra Extensions Suite 806",
      "endAddress": "66979 Riley Radial Apt. 132",
      "startCoords": {
        "latitude": 35.095331,
        "longitude": -106.683336
      },
      "endCoords": {
        "latitude": 35.118734,
        "longitude": -106.66139
      },
      "distanceMeters": 18688.9,
      "durationMs": 4275437,
      "drivingDurationMs": 3436148,
      "idlingDurationMs": 839289,
      "fuelConsumedMl": 2377,
      "fuelConsumedGallons": 0.628,
      "maxSpeedMph": 34.0,
      "averageSpeedMph": 9.8,
      "safetyEvents": []
    },
    {
      "id": "trip_48503473_20250418_004",
      "vehicleId": "48503473",
      "driverId": "20000046",
      "startMs": 1744991220000,
      "endMs": 1744997340415,
      "startAddress": "867 Black Garden Suite 906",
      "endAddress": "44096 Mary Ways Suite 050",
      "startCoords": {
        "latitude": 35.038781,
        "longitude": -106.600167
      },
      "endCoords": {
        "latitude": 35.092763,
        "longitude": -106.709899
      },
      "distanceMeters": 38006.1,
      "durationMs": 6120415,
      "drivingDurationMs": 4967044,
      "idlingDurationMs": 1153372,
      "fuelConsumedMl": 4834,
      "fuelConsumedGallons": 1.277,
      "maxSpeedMph": 54.6,
      "averageSpeedMph": 13.9,
      "safetyEvents": []
    },
    {
      "id": "trip_48503473_20250419_001",
      "vehicleId": "48503473",
      "driverId": "20000046",
      "startMs": 1745047440000,
      "endMs": 1745057658932,
      "startAddress": "6443 Perez Forks Suite 339",
      "endAddress": "4620 Shawn Green",
      "startCoords": {
        "latitude": 35.132192,
        "longitude": -106.563083
      },
      "endCoords": {
        "latitude": 35.154531,
        "longitude": -106.698704
      },
      "distanceMeters": 54038.6,
      "durationMs": 10218932,
      "drivingDurationMs": 9789985,
      "idlingDurationMs": 428948,
      "fuelConsumedMl": 6871,
      "fuelConsumedGallons": 1.815,
      "maxSpeedMph": 71.1,
      "averageSpeedMph": 11.8,
      "safetyEvents": [
        {
          "type": "speeding",
          "startMs": 1745055300000,
          "maxSpeedMph": 71.1
        }
      ]
    },
    {
      "id": "trip_48503473_20250419_002",
      "vehicleId": "48503473",
      "driverId": "20000046",
      "startMs": 1745042580000,
      "endMs": 1745049509952,
      "startAddress": "9353 Bowman Motorway Apt. 057",
      "endAddress": "2081 Lee Springs Apt. 038",
      "startCoords": {
        "latitude": 35.084414,
        "longitude": -106.641838
      },
      "endCoords": {
        "latitude": 35.070309,
        "longitude": -106.54321
      },
      "distanceMeters": 34890.6,
      "durationMs": 6929952,
      "drivingDurationMs": 6416779,
      "idlingDurationMs": 513173,
      "fuelConsumedMl": 4437,
      "fuelConsumedGallons": 1.172,
      "maxSpeedMph": 29.0,
      "averageSpeedMph": 11.3,
      "safetyEvents": []
    },
    {
      "id": "trip_48503473_20250420_001",
      "vehicleId": "48503473",
      "driverId": null,
      "startMs": 1745131860000,
      "endMs": 1745137859823,
      "startAddress": "13631 Tiffany Inlet",
      "endAddress": "02112 Dylan Glens Apt. 899",
      "startCoords": {
        "latitude": 35.102981,
        "longitude": -106.595525
      },
      "endCoords": {
        "latitude": 35.117672,
        "longitude": -106.596699
      },
      "distanceMeters": 45644.2,
      "durationMs": 5999823,
      "drivingDurationMs": 5594278,
      "idlingDurationMs": 405545,
      "fuelConsumedMl": 5803,
      "fuelConsumedGallons": 1.533,
      "maxSpeedMph": 62.2,
      "averageSpeedMph": 17.0,
      "safetyEvents": []
    },
    {
      "id": "trip_48503473_20250420_002",
      "vehicleId": "48503473",
      "driverId": "20000044",
      "startMs": 1745131020000,
      "endMs": 1745138758380,
      "startAddress": "594 Richardson View",
      "endAddress": "8012 Smith Alley Suite 888",
      "startCoords": {
        "latitude": 35.103918,
        "longitude": -106.627027
      },
      "endCoords": {
        "latitude": 35.0782,
        "longitude": -106.545744
      },
      "distanceMeters": 42440.8,
      "durationMs": 7738381,
      "drivingDurationMs": 6772480,
      "idlingDurationMs": 965900,
      "fuelConsumedMl": 5394,
      "fuelConsumedGallons": 1.425,
      "maxSpeedMph": 68.5,
      "averageSpeedMph": 12.3,
      "safetyEvents": [
        {
          "type": "speeding",
          "startMs": 1745134500000,
          "maxSpeedMph": 68.5
        }
      ]
    },
    {
      "id": "trip_48503473_20250420_003",
      "vehicleId": "48503473",
      "driverId": "20000044",
      "startMs": 1745168640000,
      "endMs": 1745171504853,
      "startAddress": "4424 Booker Shoal Suite 222",
      "endAddress": "836 Trevino Overpass Apt. 049",
      "startCoords": {
        "latitude": 35.057419,
        "longitude": -106.644475
      },
      "endCoords": {
        "latitude": 35.173219,
        "longitude": -106.722226
      },
      "distanceMeters": 13964.4,
      "durationMs": 2864853,
      "drivingDurationMs": 2370691,
      "idlingDurationMs": 494162,
      "fuelConsumedMl": 1775,
      "fuelConsumedGallons": 0.469,
      "maxSpeedMph": 53.0,
      "averageSpeedMph": 10.9,
      "safetyEvents": []
    },
    {
      "id": "trip_48503473_20250421_001",
      "vehicleId": "48503473",
      "driverId": "20000044",
      "startMs": 1745245620000,
      "endMs": 1745248274053,
      "startAddress": "9387 Benjamin Prairie Suite 435",
      "endAddress": "31516 Paul Rue",
      "startCoords": {
        "latitude": 35.096282,
        "longitude": -106.699195
      },
      "endCoords": {
        "latitude": 35.069852,
        "longitude": -106.59463
      },
      "distanceMeters": 16738.1,
      "durationMs": 2654054,
      "drivingDurationMs": 2268766,
      "idlingDurationMs": 385288,
      "fuelConsumedMl": 2127,
      "fuelConsumedGallons": 0.562,
      "maxSpeedMph": 43.5,
      "averageSpeedMph": 14.1,
      "safetyEvents": []
    },
    {
      "id": "trip_48503473_20250421_002",
      "vehicleId": "48503473",
      "driverId": "20000044",
      "startMs": 1745258520000,
      "endMs": 1745263885109,
      "startAddress": "15074 Kayla Islands",
      "endAddress": "4326 Clark Circles",
      "startCoords": {
        "latitude": 35.049963,
        "longitude": -106.540833
      },
      "endCoords": {
        "latitude": 35.113406,
        "longitude": -106.565637
      },
      "distanceMeters": 33896.5,
      "durationMs": 5365110,
      "drivingDurationMs": 4326022,
      "idlingDurationMs": 1039088,
      "fuelConsumedMl": 4312,
      "fuelConsumedGallons": 1.139,
      "maxSpeedMph": 38.4,
      "averageSpeedMph": 14.1,
      "safetyEvents": []
    },
    {
      "id": "trip_48503473_20250421_003",
      "vehicleId": "48503473",
      "driverId": "20000044",
      "startMs": 1745239200000,
      "endMs": 1745252082959,
      "startAddress": "18566 Silva Point Apt. 340",
      "endAddress": "57273 Alan Turnpike",
      "startCoords": {
        "latitude": 35.042463,
        "longitude": -106.612022
      },
      "endCoords": {
        "latitude": 35.079648,
        "longitude": -106.704424
      },
      "distanceMeters": 82313.8,
      "durationMs": 12882960,
      "drivingDurationMs": 11542492,
      "idlingDurationMs": 1340468,
      "fuelConsumedMl": 10467,
      "fuelConsumedGallons": 2.765,
      "maxSpeedMph": 28.4,
      "averageSpeedMph": 14.3,
      "safetyEvents": []
    },
    {
      "id": "trip_48503473_20250421_004",
      "vehicleId": "48503473",
      "driverId": "20000044",
      "startMs": 1745249820000,
      "endMs": 1745250842932,
      "startAddress": "917 Linda Stream",
      "endAddress": "632 Figueroa Road",
      "startCoords": {
        "latitude": 35.120695,
        "longitude": -106.687746
      },
      "endCoords": {
        "latitude": 35.051082,
        "longitude": -106.639681
      },
      "distanceMeters": 5992.1,
      "durationMs": 1022933,
      "drivingDurationMs": 840556,
      "idlingDurationMs": 182377,
      "fuelConsumedMl": 761,
      "fuelConsumedGallons": 0.201,
      "maxSpeedMph": 49.5,
      "averageSpeedMph": 13.1,
      "safetyEvents": []
    },
    {
      "id": "trip_48503473_20250421_005",
      "vehicleId": "48503473",
      "driverId": "20000044",
      "startMs": 1745261220000,
      "endMs": 1745269200000,
      "startAddress": "8368 Thomas Plaza",
      "endAddress": "967 Harmon Burgs Suite 722",
      "startCoords": {
        "latitude": 35.111479,
        "longitude": -106.544988
      },
      "endCoords": {
        "latitude": 35.104386,
        "longitude": -106.689716
      },
      "distanceMeters": 43447.3,
      "durationMs": 7980000,
      "drivingDurationMs": 6727553,
      "idlingDurationMs": 1252447,
      "fuelConsumedMl": 5523,
      "fuelConsumedGallons": 1.459,
      "maxSpeedMph": 33.7,
      "averageSpeedMph": 12.2,
      "safetyEvents": []
    },
    {
      "id": "trip_48503473_20250422_001",
      "vehicleId": "48503473",
      "driverId": "20000046",
      "startMs": 1745331660000,
      "endMs": 1745344472693,
      "startAddress": "7496 Mckee Flat Apt. 755",
      "endAddress": "47520 Owens Highway",
      "startCoords": {
        "latitude": 35.115031,
        "longitude": -106.682995
      },
      "endCoords": {
        "latitude": 35.148629,
        "longitude": -106.555268
      },
      "distanceMeters": 83403.3,
      "durationMs": 12812694,
      "drivingDurationMs": 11137220,
      "idlingDurationMs": 1675474,
      "fuelConsumedMl": 10603,
      "fuelConsumedGallons": 2.801,
      "maxSpeedMph": 37.9,
      "averageSpeedMph": 14.6,
      "safetyEvents": []
    },
    {
      "id": "trip_48503473_20250422_002",
      "vehicleId": "48503473",
      "driverId": "20000046",
      "startMs": 1745322780000,
      "endMs": 1745333001335,
      "startAddress": "0218 Danielle Garden",
      "endAddress": "123 Smith Road Apt. 263",
      "startCoords": {
        "latitude": 35.06833,
        "longitude": -106.599235
      },
      "endCoords": {
        "latitude": 35.04428,
        "longitude": -106.563885
      },
      "distanceMeters": 66855.1,
      "durationMs": 10221335,
      "drivingDurationMs": 8603311,
      "idlingDurationMs": 1618024,
      "fuelConsumedMl": 8502,
      "fuelConsumedGallons": 2.246,
      "maxSpeedMph": 63.8,
      "averageSpeedMph": 14.6,
      "safetyEvents": []
    },
    {
      "id": "trip_48503473_20250422_003",
      "vehicleId": "48503473",
      "driverId": "20000046",
      "startMs": 1745341200000,
      "endMs": 1745346867512,
      "startAddress": "6565 Sarah Field Apt. 261",
      "endAddress": "287 Williams Bypass Apt. 644",
      "startCoords": {
        "latitude": 35.133543,
        "longitude": -106.561707
      },
      "endCoords": {
        "latitude": 35.132249,
        "longitude": -106.570824
      },
      "distanceMeters": 43259.6,
      "durationMs": 5667512,
      "drivingDurationMs": 4964797,
      "idlingDurationMs": 702715,
      "fuelConsumedMl": 5500,
      "fuelConsumedGallons": 1.453,
      "maxSpeedMph": 53.2,
      "averageSpeedMph": 17.1,
      "safetyEvents": []
    },
    {
      "id": "trip_48503473_20250422_004",
      "vehicleId": "48503473",
      "driverId": "20000046",
      "startMs": 1745306520000,
      "endMs": 1745314601575,
      "startAddress": "582 Leslie Motorway Apt. 655",
      "endAddress": "66438 Patrick Fords",
      "startCoords": {
        "latitude": 35.095659,
        "longitude": -106.630171
      },
      "endCoords": {
        "latitude": 35.102089,
        "longitude": -106.627936
      },
      "distanceMeters": 39700.5,
      "durationMs": 8081576,
      "drivingDurationMs": 7810687,
      "idlingDurationMs": 270889,
      "fuelConsumedMl": 5046,
      "fuelConsumedGallons": 1.333,
      "maxSpeedMph": 46.0,
      "averageSpeedMph": 11.0,
      "safetyEvents": []
    },
    {
      "id": "trip_48503473_20250422_005",
      "vehicleId": "48503473",
      "driverId": "20000046",
      "startMs": 1745315040000,
      "endMs": 1745322920563,
      "startAddress": "8188 Patrick Radial",
      "endAddress": "733 Garcia Locks",
      "startCoords": {
        "latitude": 35.108046,
        "longitude": -106.705762
      },
      "endCoords": {
        "latitude": 35.158483,
        "longitude": -106.571
      },
      "distanceMeters": 57616.8,
      "durationMs": 7880564,
      "drivingDurationMs": 6863800,
      "idlingDurationMs": 1016764,
      "fuelConsumedMl": 7325,
      "fuelConsumedGallons": 1.935,
      "maxSpeedMph": 62.8,
      "averageSpeedMph": 16.4,
      "safetyEvents": []
    },
    {
      "id": "trip_48503473_20250423_001",
      "vehicleId": "48503473",
      "driverId": "20000046",
      "startMs": 1745399400000,
      "endMs": 1745402221557,
      "startAddress": "0354 Austin Fields Apt. 331",
      "endAddress": "036 Riley Dam Suite 703",
      "startCoords": {
        "latitude": 35.153755,
        "longitude": -106.543462
      },
      "endCoords": {
        "latitude": 35.125225,
        "longitude": -106.592155
      },
      "distanceMeters": 21700.2,
      "durationMs": 2821558,
      "drivingDurationMs": 2492329,
      "idlingDurationMs": 329229,
      "fuelConsumedMl": 2760,
      "fuelConsumedGallons": 0.729,
      "maxSpeedMph": 56.6,
      "averageSpeedMph": 17.2,
      "safetyEvents": []
    },
    {
      "id": "trip_48503473_20250423_002",
      "vehicleId": "48503473",
      "driverId": "20000046",
      "startMs": 1745398860000,
      "endMs": 1745405850582,
      "startAddress": "3854 Brittany Branch Apt. 891",
      "endAddress": "79059 Donna Fork",
      "startCoords": {
        "latitude": 35.054917,
        "longitude": -106.631432
      },
      "endCoords": {
        "latitude": 35.164962,
        "longitude": -106.659807
      },
      "distanceMeters": 37981.4,
      "durationMs": 6990583,
      "drivingDurationMs": 6547946,
      "idlingDurationMs": 442637,
      "fuelConsumedMl": 4830,
      "fuelConsumedGallons": 1.276,
      "maxSpeedMph": 53.0,
      "averageSpeedMph": 12.2,
      "safetyEvents": []
    },
    {
      "id": "trip_48503473_20250423_003",
      "vehicleId": "48503473",
      "driverId": "20000046",
      "startMs": 1745425560000,
      "endMs": 1745438142460,
      "startAddress": "31571 Connie View",
      "endAddress": "156 Thornton Lights",
      "startCoords": {
        "latitude": 35.058684,
        "longitude": -106.722689
      },
      "endCoords": {
        "latitude": 35.059336,
        "longitude": -106.581391
      },
      "distanceMeters": 71578.4,
      "durationMs": 12582460,
      "drivingDurationMs": 12086766,
      "idlingDurationMs": 495694,
      "fuelConsumedMl": 9100,
      "fuelConsumedGallons": 2.404,
      "maxSpeedMph": 53.3,
      "averageSpeedMph": 12.7,
      "safetyEvents": []
    },
    {
      "id": "trip_48503473_20250423_004",
      "vehicleId": "48503473",
      "driverId": "20000046",
      "startMs": 1745409900000,
      "endMs": 1745421941648,
      "startAddress": "32975 Garcia Locks",
      "endAddress": "986 Aguilar Skyway",
      "startCoords": {
        "latitude": 35.099525,
        "longitude": -106.542781
      },
      "endCoords": {
        "latitude": 35.155874,
        "longitude": -106.653745
      },
      "distanceMeters": 83162.4,
      "durationMs": 12041648,
      "drivingDurationMs": 10882156,
      "idlingDurationMs": 1159492,
      "fuelConsumedMl": 10573,
      "fuelConsumedGallons": 2.793,
      "maxSpeedMph": 42.0,
      "averageSpeedMph": 15.4,
      "safetyEvents": []
    },
    {
      "id": "trip_48503473_20250424_001",
      "vehicleId": "48503473",
      "driverId": "20000046",
      "startMs": 1745515440000,
      "endMs": 1745521299550,
      "startAddress": "8056 Laura Dam",
      "endAddress": "49912 Guerrero Camp Suite 851",
      "startCoords": {
        "latitude": 35.068735,
        "longitude": -106.574845
      },
      "endCoords": {
        "latitude": 35.148962,
        "longitude": -106.550911
      },
      "distanceMeters": 34944.3,
      "durationMs": 5859550,
      "drivingDurationMs": 4920005,
      "idlingDurationMs": 939545,
      "fuelConsumedMl": 4444,
      "fuelConsumedGallons": 1.174,
      "maxSpeedMph": 48.2,
      "averageSpeedMph": 13.3,
      "safetyEvents": []
    },
    {
      "id": "trip_48503473_20250424_002",
      "vehicleId": "48503473",
      "driverId": "20000046",
      "startMs": 1745484240000,
      "endMs": 1745488560138,
      "startAddress": "33649 Preston Stream Apt. 929",
      "endAddress": "1201 Hebert Junction Suite 943",
      "startCoords": {
        "latitude": 35.164146,
        "longitude": -106.687895
      },
      "endCoords": {
        "latitude": 35.062276,
        "longitude": -106.543752
      },
      "distanceMeters": 19311.7,
      "durationMs": 4320138,
      "drivingDurationMs": 3662459,
      "idlingDurationMs": 657679,
      "fuelConsumedMl": 2457,
      "fuelConsumedGallons": 0.649,
      "maxSpeedMph": 36.1,
      "averageSpeedMph": 10.0,
      "safetyEvents": []
    },
    {
      "id": "trip_48503473_20250424_003",
      "vehicleId": "48503473",
      "driverId": "20000046",
      "startMs": 1745515560000,
      "endMs": 1745525326877,
      "startAddress": "0384 James Squares",
      "endAddress": "0813 Avila Station",
      "startCoords": {
        "latitude": 35.115358,
        "longitude": -106.583769
      },
      "endCoords": {
        "latitude": 35.052386,
        "longitude": -106.71661
      },
      "distanceMeters": 65286.1,
      "durationMs": 9766878,
      "drivingDurationMs": 8893498,
      "idlingDurationMs": 873380,
      "fuelConsumedMl": 8301,
      "fuelConsumedGallons": 2.193,
      "maxSpeedMph": 67.4,
      "averageSpeedMph": 15.0,
      "safetyEvents": [
        {
          "type": "speeding",
          "startMs": 1745522520000,
          "maxSpeedMph": 67.4
        }
      ]
    },
    {
      "id": "trip_48503473_20250424_004",
      "vehicleId": "48503473",
      "driverId": "20000046",
      "startMs": 1745510640000,
      "endMs": 1745519676362,
      "startAddress": "360 Green Stravenue",
      "endAddress": "648 Anderson Meadow Suite 757",
      "startCoords": {
        "latitude": 35.066947,
        "longitude": -106.619433
      },
      "endCoords": {
        "latitude": 35.167909,
        "longitude": -106.684587
      },
      "distanceMeters": 49217.1,
      "durationMs": 9036362,
      "drivingDurationMs": 8294860,
      "idlingDurationMs": 741502,
      "fuelConsumedMl": 6257,
      "fuelConsumedGallons": 1.653,
      "maxSpeedMph": 67.9,
      "averageSpeedMph": 12.2,
      "safetyEvents": [
        {
          "type": "speeding",
          "startMs": 1745515200000,
          "maxSpeedMph": 67.9
        }
      ]
    },
    {
      "id": "trip_48503473_20250425_001",
      "vehicleId": "48503473",
      "driverId": "20000045",
      "startMs": 1745576460000,
      "endMs": 1745596380148,
      "startAddress": "757 Davis Crescent",
      "endAddress": "03942 Turner Harbors",
      "startCoords": {
        "latitude": 35.167521,
        "longitude": -106.548252
      },
      "endCoords": {
        "latitude": 35.101516,
        "longitude": -106.597491
      },
      "distanceMeters": 84766.7,
      "durationMs": 19920149,
      "drivingDurationMs": 16322931,
      "idlingDurationMs": 3597217,
      "fuelConsumedMl": 10777,
      "fuelConsumedGallons": 2.847,
      "maxSpeedMph": 51.9,
      "averageSpeedMph": 9.5,
      "safetyEvents": []
    },
    {
      "id": "trip_48503473_20250425_002",
      "vehicleId": "48503473",
      "driverId": "20000045",
      "startMs": 1745579280000,
      "endMs": 1745587637023,
      "startAddress": "7682 Wilson Common Suite 780",
      "endAddress": "91530 Brianna Shoals",
      "startCoords": {
        "latitude": 35.051291,
        "longitude": -106.684592
      },
      "endCoords": {
        "latitude": 35.164457,
        "longitude": -106.703165
      },
      "distanceMeters": 49843.8,
      "durationMs": 8357024,
      "drivingDurationMs": 7414174,
      "idlingDurationMs": 942850,
      "fuelConsumedMl": 6337,
      "fuelConsumedGallons": 1.674,
      "maxSpeedMph": 41.8,
      "averageSpeedMph": 13.3,
      "safetyEvents": []
    },
    {
      "id": "trip_48503473_20250425_003",
      "vehicleId": "48503473",
      "driverId": "20000045",
      "startMs": 1745590620000,
      "endMs": 1745601110465,
      "startAddress": "3409 Wilson Turnpike",
      "endAddress": "8536 Sanchez Drives Suite 630",
      "startCoords": {
        "latitude": 35.110576,
        "longitude": -106.611159
      },
      "endCoords": {
        "latitude": 35.081639,
        "longitude": -106.576796
      },
      "distanceMeters": 83877.3,
      "durationMs": 10490466,
      "drivingDurationMs": 9496926,
      "idlingDurationMs": 993539,
      "fuelConsumedMl": 10663,
      "fuelConsumedGallons": 2.817,
      "maxSpeedMph": 68.1,
      "averageSpeedMph": 17.9,
      "safetyEvents": [
        {
          "type": "speeding",
          "startMs": 1745595660000,
          "maxSpeedMph": 68.1
        }
      ]
    },
    {
      "id": "trip_48503473_20250425_004",
      "vehicleId": "48503473",
      "driverId": "20000045",
      "startMs": 1745578380000,
      "endMs": 1745596762929,
      "startAddress": "0887 Vicki Tunnel",
      "endAddress": "689 Smith Squares Apt. 753",
      "startCoords": {
        "latitude": 35.160485,
        "longitude": -106.688909
      },
      "endCoords": {
        "latitude": 35.18112,
        "longitude": -106.574077
      },
      "distanceMeters": 84689.8,
      "durationMs": 18382930,
      "drivingDurationMs": 15347905,
      "idlingDurationMs": 3035024,
      "fuelConsumedMl": 10769,
      "fuelConsumedGallons": 2.845,
      "maxSpeedMph": 60.0,
      "averageSpeedMph": 10.3,
      "safetyEvents": []
    },
    {
      "id": "trip_48503473_20250425_005",
      "vehicleId": "48503473",
      "driverId": "20000045",
      "startMs": 1745580180000,
      "endMs": 1745589995263,
      "startAddress": "69831 Estrada Throughway Apt. 423",
      "endAddress": "6303 Nelson Harbor Apt. 439",
      "startCoords": {
        "latitude": 35.136901,
        "longitude": -106.714923
      },
      "endCoords": {
        "latitude": 35.138583,
        "longitude": -106.712476
      },
      "distanceMeters": 45287.5,
      "durationMs": 9815264,
      "drivingDurationMs": 7939137,
      "idlingDurationMs": 1876127,
      "fuelConsumedMl": 5758,
      "fuelConsumedGallons": 1.521,
      "maxSpeedMph": 65.2,
      "averageSpeedMph": 10.3,
      "safetyEvents": [
        {
          "type": "speeding",
          "startMs": 1745587980000,
          "maxSpeedMph": 65.2
        }
      ]
    },
    {
      "id": "trip_48503473_20250426_001",
      "vehicleId": "48503473",
      "driverId": "20000044",
      "startMs": 1745669340000,
      "endMs": 1745678441566,
      "startAddress": "29656 David Center Suite 907",
      "endAddress": "688 Melissa Junctions",
      "startCoords": {
        "latitude": 35.167555,
        "longitude": -106.542668
      },
      "endCoords": {
        "latitude": 35.099433,
        "longitude": -106.58417
      },
      "distanceMeters": 69806.6,
      "durationMs": 9101566,
      "drivingDurationMs": 8495267,
      "idlingDurationMs": 606299,
      "fuelConsumedMl": 8877,
      "fuelConsumedGallons": 2.345,
      "maxSpeedMph": 29.1,
      "averageSpeedMph": 17.2,
      "safetyEvents": []
    },
    {
      "id": "trip_48503473_20250426_002",
      "vehicleId": "48503473",
      "driverId": "20000044",
      "startMs": 1745675580000,
      "endMs": 1745679279229,
      "startAddress": "17199 Oliver Underpass",
      "endAddress": "2474 Melton Canyon",
      "startCoords": {
        "latitude": 35.038691,
        "longitude": -106.556534
      },
      "endCoords": {
        "latitude": 35.038949,
        "longitude": -106.558359
      },
      "distanceMeters": 27385.3,
      "durationMs": 3699229,
      "drivingDurationMs": 3108796,
      "idlingDurationMs": 590433,
      "fuelConsumedMl": 3483,
      "fuelConsumedGallons": 0.92,
      "maxSpeedMph": 41.9,
      "averageSpeedMph": 16.6,
      "safetyEvents": []
    },
    {
      "id": "trip_48503473_20250426_003",
      "vehicleId": "48503473",
      "driverId": "20000044",
      "startMs": 1745680080000,
      "endMs": 1745681896555,
      "startAddress": "39940 Christy Trail",
      "endAddress": "08698 Ann Mountains",
      "startCoords": {
        "latitude": 35.146389,
        "longitude": -106.592535
      },
      "endCoords": {
        "latitude": 35.117082,
        "longitude": -106.682888
      },
      "distanceMeters": 7891.0,
      "durationMs": 1816556,
      "drivingDurationMs": 1570364,
      "idlingDurationMs": 246191,
      "fuelConsumedMl": 1003,
      "fuelConsumedGallons": 0.265,
      "maxSpeedMph": 69.7,
      "averageSpeedMph": 9.7,
      "safetyEvents": [
        {
          "type": "speeding",
          "startMs": 1745680980000,
          "maxSpeedMph": 69.7
        }
      ]
    },
    {
      "id": "trip_48503473_20250426_004",
      "vehicleId": "48503473",
      "driverId": "20000044",
      "startMs": 1745647740000,
      "endMs": 1745656755714,
      "startAddress": "0699 Caitlyn Gardens",
      "endAddress": "59206 Julie Squares Apt. 111",
      "startCoords": {
        "latitude": 35.14181,
        "longitude": -106.663831
      },
      "endCoords": {
        "latitude": 35.120551,
        "longitude": -106.579711
      },
      "distanceMeters": 59028.4,
      "durationMs": 9015714,
      "drivingDurationMs": 7333887,
      "idlingDurationMs": 1681828,
      "fuelConsumedMl": 7506,
      "fuelConsumedGallons": 1.983,
      "maxSpeedMph": 50.9,
      "averageSpeedMph": 14.6,
      "safetyEvents": []
    },
    {
      "id": "trip_48503473_20250427_001",
      "vehicleId": "48503473",
      "driverId": "20000044",
      "startMs": 1745762520000,
      "endMs": 1745765910848,
      "startAddress": "927 Hamilton Lane Apt. 725",
      "endAddress": "20614 Troy Springs",
      "startCoords": {
        "latitude": 35.168376,
        "longitude": -106.628068
      },
      "endCoords": {
        "latitude": 35.044129,
        "longitude": -106.634546
      },
      "distanceMeters": 21614.0,
      "durationMs": 3390849,
      "drivingDurationMs": 2824907,
      "idlingDurationMs": 565941,
      "fuelConsumedMl": 2748,
      "fuelConsumedGallons": 0.726,
      "maxSpeedMph": 38.9,
      "averageSpeedMph": 14.3,
      "safetyEvents": []
    },
    {
      "id": "trip_48503473_20250427_002",
      "vehicleId": "48503473",
      "driverId": "20000044",
      "startMs": 1745763840000,
      "endMs": 1745771972065,
      "startAddress": "15079 Tyler Mews",
      "endAddress": "158 Ross Terrace Suite 175",
      "startCoords": {
        "latitude": 35.108,
        "longitude": -106.536496
      },
      "endCoords": {
        "latitude": 35.148978,
        "longitude": -106.572789
      },
      "distanceMeters": 53077.6,
      "durationMs": 8132065,
      "drivingDurationMs": 6687762,
      "idlingDurationMs": 1444303,
      "fuelConsumedMl": 6749,
      "fuelConsumedGallons": 1.783,
      "maxSpeedMph": 51.0,
      "averageSpeedMph": 14.6,
      "safetyEvents": []
    },
    {
      "id": "trip_48503473_20250428_001",
      "vehicleId": "48503473",
      "driverId": "20000046",
      "startMs": 1745827920000,
      "endMs": 1745840785779,
      "startAddress": "1676 Wanda Parkway Suite 463",
      "endAddress": "073 Aaron Inlet Suite 171",
      "startCoords": {
        "latitude": 35.087971,
        "longitude": -106.666787
      },
      "endCoords": {
        "latitude": 35.072034,
        "longitude": -106.5761
      },
      "distanceMeters": 75404.0,
      "durationMs": 12865779,
      "drivingDurationMs": 12250136,
      "idlingDurationMs": 615643,
      "fuelConsumedMl": 9588,
      "fuelConsumedGallons": 2.533,
      "maxSpeedMph": 68.0,
      "averageSpeedMph": 13.1,
      "safetyEvents": [
        {
          "type": "speeding",
          "startMs": 1745837940000,
          "maxSpeedMph": 68.0
        }
      ]
    },
    {
      "id": "trip_48503473_20250428_002",
      "vehicleId": "48503473",
      "driverId": "20000046",
      "startMs": 1745836920000,
      "endMs": 1745841593850,
      "startAddress": "2320 Susan Drive Apt. 186",
      "endAddress": "185 Roger Rest Suite 474",
      "startCoords": {
        "latitude": 35.122254,
        "longitude": -106.635779
      },
      "endCoords": {
        "latitude": 35.161025,
        "longitude": -106.593604
      },
      "distanceMeters": 21178.4,
      "durationMs": 4673850,
      "drivingDurationMs": 3898301,
      "idlingDurationMs": 775549,
      "fuelConsumedMl": 2691,
      "fuelConsumedGallons": 0.711,
      "maxSpeedMph": 57.4,
      "averageSpeedMph": 10.1,
      "safetyEvents": []
    },
    {
      "id": "trip_48503473_20250428_003",
      "vehicleId": "48503473",
      "driverId": null,
      "startMs": 1745824020000,
      "endMs": 1745829601347,
      "startAddress": "2662 Johnson Mountain Suite 840",
      "endAddress": "131 Christopher Wall Suite 733",
      "startCoords": {
        "latitude": 35.109298,
        "longitude": -106.615972
      },
      "endCoords": {
        "latitude": 35.092079,
        "longitude": -106.611685
      },
      "distanceMeters": 41419.6,
      "durationMs": 5581347,
      "drivingDurationMs": 5345182,
      "idlingDurationMs": 236165,
      "fuelConsumedMl": 5266,
      "fuelConsumedGallons": 1.391,
      "maxSpeedMph": 51.1,
      "averageSpeedMph": 16.6,
      "safetyEvents": []
    },
    {
      "id": "trip_48503473_20250428_004",
      "vehicleId": "48503473",
      "driverId": "20000046",
      "startMs": 1745835480000,
      "endMs": 1745838131103,
      "startAddress": "36164 Johnson Club",
      "endAddress": "1129 Cohen Grove",
      "startCoords": {
        "latitude": 35.177759,
        "longitude": -106.551987
      },
      "endCoords": {
        "latitude": 35.101626,
        "longitude": -106.710319
      },
      "distanceMeters": 13698.5,
      "durationMs": 2651104,
      "drivingDurationMs": 2303432,
      "idlingDurationMs": 347672,
      "fuelConsumedMl": 1741,
      "fuelConsumedGallons": 0.46,
      "maxSpeedMph": 40.0,
      "averageSpeedMph": 11.6,
      "safetyEvents": []
    },
    {
      "id": "trip_48503473_20250428_005",
      "vehicleId": "48503473",
      "driverId": "20000046",
      "startMs": 1745848380000,
      "endMs": 1745860008061,
      "startAddress": "69349 Joseph Viaduct",
      "endAddress": "586 Heath Keys Apt. 999",
      "startCoords": {
        "latitude": 35.070892,
        "longitude": -106.69843
      },
      "endCoords": {
        "latitude": 35.168734,
        "longitude": -106.571633
      },
      "distanceMeters": 48401.3,
      "durationMs": 11628061,
      "drivingDurationMs": 9427008,
      "idlingDurationMs": 2201054,
      "fuelConsumedMl": 6155,
      "fuelConsumedGallons": 1.626,
      "maxSpeedMph": 70.5,
      "averageSpeedMph": 9.3,
      "safetyEvents": [
        {
          "type": "speeding",
          "startMs": 1745854620000,
          "maxSpeedMph": 70.5
        }
      ]
    },
    {
      "id": "trip_48503473_20250429_001",
      "vehicleId": "48503473",
      "driverId": "20000046",
      "startMs": 1745910660000,
      "endMs": 1745914274718,
      "startAddress": "74676 Garrett Circle",
      "endAddress": "5982 Wallace Row Apt. 878",
      "startCoords": {
        "latitude": 35.114765,
        "longitude": -106.715405
      },
      "endCoords": {
        "latitude": 35.106194,
        "longitude": -106.550624
      },
      "distanceMeters": 25213.5,
      "durationMs": 3614718,
      "drivingDurationMs": 3244976,
      "idlingDurationMs": 369742,
      "fuelConsumedMl": 3206,
      "fuelConsumedGallons": 0.847,
      "maxSpeedMph": 34.0,
      "averageSpeedMph": 15.6,
      "safetyEvents": []
    },
    {
      "id": "trip_48503473_20250429_002",
      "vehicleId": "48503473",
      "driverId": "20000046",
      "startMs": 1745910660000,
      "endMs": 1745924931443,
      "startAddress": "970 Perkins Mountains Apt. 731",
      "endAddress": "787 Duke Mountain",
      "startCoords": {
        "latitude": 35.070918,
        "longitude": -106.554522
      },
      "endCoords": {
        "latitude": 35.10364,
        "longitude": -106.649297
      },
      "distanceMeters": 80534.5,
      "durationMs": 14271444,
      "drivingDurationMs": 13239312,
      "idlingDurationMs": 1032132,
      "fuelConsumedMl": 10240,
      "fuelConsumedGallons": 2.705,
      "maxSpeedMph": 57.6,
      "averageSpeedMph": 12.6,
      "safetyEvents": []
    },
    {
      "id": "trip_48503473_20250429_003",
      "vehicleId": "48503473",
      "driverId": "20000046",
      "startMs": 1745937120000,
      "endMs": 1745941162738,
      "startAddress": "6149 Fitzgerald Prairie",
      "endAddress": "350 Amy Green",
      "startCoords": {
        "latitude": 35.153507,
        "longitude": -106.662846
      },
      "endCoords": {
        "latitude": 35.079241,
        "longitude": -106.601643
      },
      "distanceMeters": 19182.7,
      "durationMs": 4042738,
      "drivingDurationMs": 3390536,
      "idlingDurationMs": 652202,
      "fuelConsumedMl": 2438,
      "fuelConsumedGallons": 0.644,
      "maxSpeedMph": 33.0,
      "averageSpeedMph": 10.6,
      "safetyEvents": []
    },
    {
      "id": "trip_48503473_20250429_004",
      "vehicleId": "48503473",
      "driverId": "20000046",
      "startMs": 1745906640000,
      "endMs": 1745912471105,
      "startAddress": "5608 Jennifer Centers Suite 698",
      "endAddress": "8349 Watson Drive Apt. 553",
      "startCoords": {
        "latitude": 35.048041,
        "longitude": -106.71453
      },
      "endCoords": {
        "latitude": 35.069996,
        "longitude": -106.705692
      },
      "distanceMeters": 25834.8,
      "durationMs": 5831106,
      "drivingDurationMs": 4737371,
      "idlingDurationMs": 1093735,
      "fuelConsumedMl": 3286,
      "fuelConsumedGallons": 0.868,
      "maxSpeedMph": 44.8,
      "averageSpeedMph": 9.9,
      "safetyEvents": []
    },
    {
      "id": "trip_48503473_20250430_001",
      "vehicleId": "48503473",
      "driverId": "20000044",
      "startMs": 1745998320000,
      "endMs": 1746004348587,
      "startAddress": "31341 Kevin Union",
      "endAddress": "0198 Omar Haven",
      "startCoords": {
        "latitude": 35.121264,
        "longitude": -106.706752
      },
      "endCoords": {
        "latitude": 35.174987,
        "longitude": -106.572768
      },
      "distanceMeters": 39712.0,
      "durationMs": 6028587,
      "drivingDurationMs": 5410312,
      "idlingDurationMs": 618275,
      "fuelConsumedMl": 5050,
      "fuelConsumedGallons": 1.334,
      "maxSpeedMph": 39.6,
      "averageSpeedMph": 14.7,
      "safetyEvents": []
    },
    {
      "id": "trip_48503473_20250430_002",
      "vehicleId": "48503473",
      "driverId": "20000044",
      "startMs": 1746013800000,
      "endMs": 1746021243129,
      "startAddress": "441 Burch Harbors",
      "endAddress": "6054 Tracy Branch",
      "startCoords": {
        "latitude": 35.038622,
        "longitude": -106.596198
      },
      "endCoords": {
        "latitude": 35.165487,
        "longitude": -106.574983
      },
      "distanceMeters": 49207.8,
      "durationMs": 7443130,
      "drivingDurationMs": 6709059,
      "idlingDurationMs": 734071,
      "fuelConsumedMl": 6257,
      "fuelConsumedGallons": 1.653,
      "maxSpeedMph": 48.8,
      "averageSpeedMph": 14.8,
      "safetyEvents": []
    },
    {
      "id": "trip_48503473_20250430_003",
      "vehicleId": "48503473",
      "driverId": null,
      "startMs": 1746006720000,
      "endMs": 1746022252387,
      "startAddress": "82959 Tanya Crescent",
      "endAddress": "75825 Cindy Curve",
      "startCoords": {
        "latitude": 35.084381,
        "longitude": -106.603567
      },
      "endCoords": {
        "latitude": 35.081916,
        "longitude": -106.719905
      },
      "distanceMeters": 66743.2,
      "durationMs": 15532387,
      "drivingDurationMs": 12931799,
      "idlingDurationMs": 2600588,
      "fuelConsumedMl": 8487,
      "fuelConsumedGallons": 2.242,
      "maxSpeedMph": 61.6,
      "averageSpeedMph": 9.6,
      "safetyEvents": []
    },
    {
      "id": "trip_48503473_20250430_004",
      "vehicleId": "48503473",
      "driverId": "20000044",
      "startMs": 1746020940000,
      "endMs": 1746034876581,
      "startAddress": "66220 Avery Dale",
      "endAddress": "4213 Larsen Rapid Apt. 586",
      "startCoords": {
        "latitude": 35.085262,
        "longitude": -106.654492
      },
      "endCoords": {
        "latitude": 35.078174,
        "longitude": -106.686061
      },
      "distanceMeters": 71911.8,
      "durationMs": 13936582,
      "drivingDurationMs": 12984014,
      "idlingDurationMs": 952568,
      "fuelConsumedMl": 9142,
      "fuelConsumedGallons": 2.415,
      "maxSpeedMph": 51.5,
      "averageSpeedMph": 11.5,
      "safetyEvents": []
    },
    {
      "id": "trip_48503473_20250430_005",
      "vehicleId": "48503473",
      "driverId": "20000044",
      "startMs": 1746021840000,
      "endMs": 1746031871946,
      "startAddress": "11669 Chapman Crossing Suite 645",
      "endAddress": "4130 Carlos Road Apt. 502",
      "startCoords": {
        "latitude": 35.052417,
        "longitude": -106.633208
      },
      "endCoords": {
        "latitude": 35.054962,
        "longitude": -106.661722
      },
      "distanceMeters": 76184.8,
      "durationMs": 10031947,
      "drivingDurationMs": 9371309,
      "idlingDurationMs": 660638,
      "fuelConsumedMl": 9687,
      "fuelConsumedGallons": 2.559,
      "maxSpeedMph": 69.0,
      "averageSpeedMph": 17.0,
      "safetyEvents": [
        {
          "type": "speeding",
          "startMs": 1746022380000,
          "maxSpeedMph": 69.0
        }
      ]
    },
    {
      "id": "trip_48503473_20250430_006",
      "vehicleId": "48503473",
      "driverId": "20000044",
      "startMs": 1746005100000,
      "endMs": 1746010985375,
      "startAddress": "26879 Garcia Locks Apt. 845",
      "endAddress": "5877 Johnson Squares Apt. 313",
      "startCoords": {
        "latitude": 35.051691,
        "longitude": -106.657093
      },
      "endCoords": {
        "latitude": 35.046839,
        "longitude": -106.680916
      },
      "distanceMeters": 38493.0,
      "durationMs": 5885376,
      "drivingDurationMs": 5165815,
      "idlingDurationMs": 719561,
      "fuelConsumedMl": 4895,
      "fuelConsumedGallons": 1.293,
      "maxSpeedMph": 58.2,
      "averageSpeedMph": 14.6,
      "safetyEvents": []
    }
  ]
}