{
  "vehicleId": "48291021",
  "vehicleName": "DEN-BOX-02",
  "month": "2025_04",
  "pagination": {
    "endCursor": "trip_48291021_20250430_001",
    "hasNextPage": false
  },
  "trips": [
    {
      "id": "trip_48291021_20250401_001",
      "vehicleId": "48291021",
      "driverId": "22831020",
      "startMs": 1743515280000,
      "endMs": 1743520238486,
      "startLocation": {
        "latitude": 39.741425,
        "longitude": -104.924129
      },
      "endLocation": {
        "latitude": 39.757763,
        "longitude": -104.972557
      },
      "startAddress": "045 Tina Drive",
      "endAddress": "56071 Coleman Plain",
      "startCoords": {
        "latitude": 39.697093,
        "longitude": -104.938182
      },
      "endCoords": {
        "latitude": 39.717785,
        "longitude": -104.914371
      },
      "distanceMeters": 60511.5,
      "durationMs": 4958487,
      "drivingDurationMs": 4113069,
      "idlingDurationMs": 845418,
      "fuelConsumedMl": 13556,
      "fuelConsumedGallons": 3.581,
      "maxSpeedMph": 38.9,
      "averageSpeedMph": 27.3,
      "safetyEvents": [],
      "_no_driver_login": false,
      "_fuel_note": "QUIRK 5: fuelConsumedGallons is in US gallons. Multiply by 3.785 for litres. Samsara does not link fuel to specific Onfleet tasks."
    },
    {
      "id": "trip_48291021_20250402_001",
      "vehicleId": "48291021",
      "driverId": "22831020",
      "startMs": 1743609180000,
      "endMs": 1743619519236,
      "startLocation": {
        "latitude": 39.725031,
        "longitude": -104.967127
      },
      "endLocation": {
        "latitude": 39.795173,
        "longitude": -104.931531
      },
      "startAddress": "222 Richard Heights Apt. 242",
      "endAddress": "29094 Carlos Isle Apt. 885",
      "startCoords": {
        "latitude": 39.779596,
        "longitude": -105.07644
      },
      "endCoords": {
        "latitude": 39.744144,
        "longitude": -104.989687
      },
      "distanceMeters": 119867.0,
      "durationMs": 10339237,
      "drivingDurationMs": 9380120,
      "idlingDurationMs": 959117,
      "fuelConsumedMl": 26854,
      "fuelConsumedGallons": 7.094,
      "maxSpeedMph": 69.1,
      "averageSpeedMph": 25.9,
      "safetyEvents": [
        {
          "type": "speeding",
          "startMs": 1743616620000,
          "maxSpeedMph": 69.1
        }
      ],
      "_no_driver_login": false,
      "_fuel_note": "QUIRK 5: fuelConsumedGallons is in US gallons. Multiply by 3.785 for litres. Samsara does not link fuel to specific Onfleet tasks."
    },
    {
      "id": "trip_48291021_20250403_001",
      "vehicleId": "48291021",
      "driverId": "22831020",
      "startMs": 1743664200000,
      "endMs": 1743678812776,
      "startLocation": {
        "latitude": 39.773906,
        "longitude": -105.042826
      },
      "endLocation": {
        "latitude": 39.803948,
        "longitude": -104.914998
      },
      "startAddress": "033 Mcclain Port Suite 933",
      "endAddress": "370 Seth Forks Suite 081",
      "startCoords": {
        "latitude": 39.767822,
        "longitude": -105.020705
      },
      "endCoords": {
        "latitude": 39.750686,
        "longitude": -104.900462
      },
      "distanceMeters": 161846.7,
      "durationMs": 14612776,
      "drivingDurationMs": 12141692,
      "idlingDurationMs": 2471084,
      "fuelConsumedMl": 36257,
      "fuelConsumedGallons": 9.578,
      "maxSpeedMph": 41.1,
      "averageSpeedMph": 24.8,
      "safetyEvents": [],
      "_no_driver_login": false,
      "_fuel_note": "QUIRK 5: fuelConsumedGallons is in US gallons. Multiply by 3.785 for litres. Samsara does not link fuel to specific Onfleet tasks."
    },
    {
      "id": "trip_48291021_20250404_001",
      "vehicleId": "48291021",
      "driverId": "22831020",
      "startMs": 1743758040000,
      "endMs": 1743761838665,
      "startLocation": {
        "latitude": 39.794497,
        "longitude": -105.076276
      },
      "endLocation": {
        "latitude": 39.77231,
        "longitude": -104.972039
      },
      "startAddress": "29498 Kathy Haven Apt. 313",
      "endAddress": "714 Samuel Views",
      "startCoords": {
        "latitude": 39.734811,
        "longitude": -105.050918
      },
      "endCoords": {
        "latitude": 39.758831,
        "longitude": -105.031879
      },
      "distanceMeters": 35675.9,
      "durationMs": 3798666,
      "drivingDurationMs": 3178675,
      "idlingDurationMs": 619991,
      "fuelConsumedMl": 7991,
      "fuelConsumedGallons": 2.111,
      "maxSpeedMph": 28.4,
      "averageSpeedMph": 21.0,
      "safetyEvents": [],
      "_no_driver_login": false,
      "_fuel_note": "QUIRK 5: fuelConsumedGallons is in US gallons. Multiply by 3.785 for litres. Samsara does not link fuel to specific Onfleet tasks."
    },
    {
      "id": "trip_48291021_20250407_001",
      "vehicleId": "48291021",
      "driverId": "22831020",
      "startMs": 1744008600000,
      "endMs": 1744020882420,
      "startLocation": {
        "latitude": 39.800823,
        "longitude": -105.071424
      },
      "endLocation": {
        "latitude": 39.722358,
        "longitude": -105.045889
      },
      "startAddress": "74386 Lee Terrace",
      "endAddress": "5995 Smith Keys",
      "startCoords": {
        "latitude": 39.815799,
        "longitude": -104.928771
      },
      "endCoords": {
        "latitude": 39.763043,
        "longitude": -105.081153
      },
      "distanceMeters": 116787.9,
      "durationMs": 12282421,
      "drivingDurationMs": 10079057,
      "idlingDurationMs": 2203364,
      "fuelConsumedMl": 26161,
      "fuelConsumedGallons": 6.911,
      "maxSpeedMph": 55.9,
      "averageSpeedMph": 21.3,
      "safetyEvents": [],
      "_no_driver_login": false,
      "_fuel_note": "QUIRK 5: fuelConsumedGallons is in US gallons. Multiply by 3.785 for litres. Samsara does not link fuel to specific Onfleet tasks."
    },
    {
      "id": "trip_48291021_20250408_001",
      "vehicleId": "48291021",
      "driverId": "22831020",
      "startMs": 1744099260000,
      "endMs": 1744109035236,
      "startLocation": {
        "latitude": 39.745494,
        "longitude": -105.009788
      },
      "endLocation": {
        "latitude": 39.799952,
        "longitude": -104.951277
      },
      "startAddress": "865 Johnson Highway",
      "endAddress": "5101 Tracy Gardens Apt. 341",
      "startCoords": {
        "latitude": 39.695263,
        "longitude": -105.006578
      },
      "endCoords": {
        "latitude": 39.708716,
        "longitude": -105.051733
      },
      "distanceMeters": 83813.2,
      "durationMs": 9775236,
      "drivingDurationMs": 9305215,
      "idlingDurationMs": 470021,
      "fuelConsumedMl": 18776,
      "fuelConsumedGallons": 4.96,
      "maxSpeedMph": 67.4,
      "averageSpeedMph": 19.2,
      "safetyEvents": [
        {
          "type": "speeding",
          "startMs": 1744105140000,
          "maxSpeedMph": 67.4
        }
      ],
      "_no_driver_login": false,
      "_fuel_note": "QUIRK 5: fuelConsumedGallons is in US gallons. Multiply by 3.785 for litres. Samsara does not link fuel to specific Onfleet tasks."
    },
    {
      "id": "trip_48291021_20250409_001",
      "vehicleId": "48291021",
      "driverId": "22831020",
      "startMs": 1744223820000,
      "endMs": 1744231724405,
      "startLocation": {
        "latitude": 39.717368,
        "longitude": -105.017522
      },
      "endLocation": {
        "latitude": 39.75872,
        "longitude": -105.000856
      },
      "startAddress": "92039 Cruz Ridge",
      "endAddress": "6427 Michaela Crest",
      "startCoords": {
        "latitude": 39.810107,
        "longitude": -104.928667
      },
      "endCoords": {
        "latitude": 39.808519,
        "longitude": -104.918839
      },
      "distanceMeters": 85576.1,
      "durationMs": 7904406,
      "drivingDurationMs": 6967803,
      "idlingDurationMs": 936603,
      "fuelConsumedMl": 19169,
      "fuelConsumedGallons": 5.064,
      "maxSpeedMph": 45.9,
      "averageSpeedMph": 24.2,
      "safetyEvents": [],
      "_no_driver_login": false,
      "_fuel_note": "QUIRK 5: fuelConsumedGallons is in US gallons. Multiply by 3.785 for litres. Samsara does not link fuel to specific Onfleet tasks."
    },
    {
      "id": "trip_48291021_20250410_001",
      "vehicleId": "48291021",
      "driverId": "22831020",
      "startMs": 1744302480000,
      "endMs": 1744318800000,
      "startLocation": {
        "latitude": 39.812306,
        "longitude": -105.062816
      },
      "endLocation": {
        "latitude": 39.7433,
        "longitude": -104.914288
      },
      "startAddress": "7894 Charles Stream Suite 653",
      "endAddress": "2932 Lauren Flat",
      "startCoords": {
        "latitude": 39.797157,
        "longitude": -105.053813
      },
      "endCoords": {
        "latitude": 39.71984,
        "longitude": -105.006567
      },
      "distanceMeters": 124006.3,
      "durationMs": 16320000,
      "drivingDurationMs": 13056000,
      "idlingDurationMs": 3264000,
      "fuelConsumedMl": 27777,
      "fuelConsumedGallons": 7.338,
      "maxSpeedMph": 65.2,
      "averageSpeedMph": 17.0,
      "safetyEvents": [
        {
          "type": "speeding",
          "startMs": 1744317420000,
          "maxSpeedMph": 65.2
        }
      ],
      "_no_driver_login": false,
      "_fuel_note": "QUIRK 5: fuelConsumedGallons is in US gallons. Multiply by 3.785 for litres. Samsara does not link fuel to specific Onfleet tasks."
    },
    {
      "id": "trip_48291021_20250411_001",
      "vehicleId": "48291021",
      "driverId": "22831020",
      "startMs": 1744396080000,
      "endMs": 1744402985436,
      "startLocation": {
        "latitude": 39.745663,
        "longitude": -105.044037
      },
      "endLocation": {
        "latitude": 39.694421,
        "longitude": -105.026804
      },
      "startAddress": "764 Chad Rapids",
      "endAddress": "9218 Cabrera Loaf",
      "startCoords": {
        "latitude": 39.816699,
        "longitude": -104.924223
      },
      "endCoords": {
        "latitude": 39.728166,
        "longitude": -104.920656
      },
      "distanceMeters": 90994.2,
      "durationMs": 6905436,
      "drivingDurationMs": 6086890,
      "idlingDurationMs": 818546,
      "fuelConsumedMl": 20384,
      "fuelConsumedGallons": 5.385,
      "maxSpeedMph": 65.7,
      "averageSpeedMph": 29.5,
      "safetyEvents": [
        {
          "type": "speeding",
          "startMs": 1744402380000,
          "maxSpeedMph": 65.7
        }
      ],
      "_no_driver_login": false,
      "_fuel_note": "QUIRK 5: fuelConsumedGallons is in US gallons. Multiply by 3.785 for litres. Samsara does not link fuel to specific Onfleet tasks."
    },
    {
      "id": "trip_48291021_20250412_001",
      "vehicleId": "48291021",
      "driverId": "22831020",
      "startMs": 1744440060000,
      "endMs": 1744451499198,
      "startLocation": {
        "latitude": 39.693557,
        "longitude": -104.98872
      },
      "endLocation": {
        "latitude": 39.783721,
        "longitude": -104.995102
      },
      "startAddress": "1464 Green Village",
      "endAddress": "35569 Baird Streets",
      "startCoords": {
        "latitude": 39.80196,
        "longitude": -104.984657
      },
      "endCoords": {
        "latitude": 39.708961,
        "longitude": -104.906784
      },
      "distanceMeters": 115285.9,
      "durationMs": 11439198,
      "drivingDurationMs": 9778925,
      "idlingDurationMs": 1660274,
      "fuelConsumedMl": 25824,
      "fuelConsumedGallons": 6.822,
      "maxSpeedMph": 47.6,
      "averageSpeedMph": 22.5,
      "safetyEvents": [],
      "_no_driver_login": false,
      "_fuel_note": "QUIRK 5: fuelConsumedGallons is in US gallons. Multiply by 3.785 for litres. Samsara does not link fuel to specific Onfleet tasks."
    },
    {
      "id": "trip_48291021_20250414_001",
      "vehicleId": "48291021",
      "driverId": "22831020",
      "startMs": 1744644060000,
      "endMs": 1744649292835,
      "startLocation": {
        "latitude": 39.811089,
        "longitude": -105.021612
      },
      "endLocation": {
        "latitude": 39.766469,
        "longitude": -104.957917
      },
      "startAddress": "63862 Long Summit Apt. 922",
      "endAddress": "472 Scott Avenue Apt. 763",
      "startCoords": {
        "latitude": 39.708271,
        "longitude": -104.905947
      },
      "endCoords": {
        "latitude": 39.728683,
        "longitude": -104.962797
      },
      "distanceMeters": 37576.5,
      "durationMs": 5232836,
      "drivingDurationMs": 4534090,
      "idlingDurationMs": 698746,
      "fuelConsumedMl": 8419,
      "fuelConsumedGallons": 2.224,
      "maxSpeedMph": 34.3,
      "averageSpeedMph": 16.1,
      "safetyEvents": [],
      "_no_driver_login": false,
      "_fuel_note": "QUIRK 5: fuelConsumedGallons is in US gallons. Multiply by 3.785 for litres. Samsara does not link fuel to specific Onfleet tasks."
    },
    {
      "id": "trip_48291021_20250415_001",
      "vehicleId": "48291021",
      "driverId": "22831020",
      "startMs": 1744707000000,
      "endMs": 1744719010434,
      "startLocation": {
        "latitude": 39.69424,
        "longitude": -104.900477
      },
      "endLocation": {
        "latitude": 39.696383,
        "longitude": -105.02713
      },
      "startAddress": "30589 Smith Harbor",
      "endAddress": "31887 Padilla Estate",
      "startCoords": {
        "latitude": 39.685745,
        "longitude": -105.060085
      },
      "endCoords": {
        "latitude": 39.739767,
        "longitude": -105.019106
      },
      "distanceMeters": 90870.7,
      "durationMs": 12010435,
      "drivingDurationMs": 9760687,
      "idlingDurationMs": 2249748,
      "fuelConsumedMl": 20358,
      "fuelConsumedGallons": 5.378,
      "maxSpeedMph": 29.5,
      "averageSpeedMph": 16.9,
      "safetyEvents": [],
      "_no_driver_login": false,
      "_fuel_note": "QUIRK 5: fuelConsumedGallons is in US gallons. Multiply by 3.785 for litres. Samsara does not link fuel to specific Onfleet tasks."
    },
    {
      "id": "trip_48291021_20250416_001",
      "vehicleId": "48291021",
      "driverId": "22831020",
      "startMs": 1744793520000,
      "endMs": 1744805651938,
      "startLocation": {
        "latitude": 39.781698,
        "longitude": -105.015958
      },
      "endLocation": {
        "latitude": 39.798923,
        "longitude": -105.030741
      },
      "startAddress": "87007 Gabriel Greens Suite 785",
      "endAddress": "39442 Todd Ferry",
      "startCoords": {
        "latitude": 39.69762,
        "longitude": -104.905707
      },
      "endCoords": {
        "latitude": 39.798621,
        "longitude": -104.947202
      },
      "distanceMeters": 158438.3,
      "durationMs": 12131939,
      "drivingDurationMs": 11298358,
      "idlingDurationMs": 833581,
      "fuelConsumedMl": 35492,
      "fuelConsumedGallons": 9.376,
      "maxSpeedMph": 51.1,
      "averageSpeedMph": 29.2,
      "safetyEvents": [],
      "_no_driver_login": false,
      "_fuel_note": "QUIRK 5: fuelConsumedGallons is in US gallons. Multiply by 3.785 for litres. Samsara does not link fuel to specific Onfleet tasks."
    },
    {
      "id": "trip_48291021_20250417_001",
      "vehicleId": "48291021",
      "driverId": "22831020",
      "startMs": 1744893900000,
      "endMs": 1744901097755,
      "startLocation": {
        "latitude": 39.764084,
        "longitude": -104.909164
      },
      "endLocation": {
        "latitude": 39.727264,
        "longitude": -105.027577
      },
      "startAddress": "9570 Farrell Neck",
      "endAddress": "090 Moore Grove",
      "startCoords": {
        "latitude": 39.684447,
        "longitude": -104.978433
      },
      "endCoords": {
        "latitude": 39.743986,
        "longitude": -105.021927
      },
      "distanceMeters": 53282.8,
      "durationMs": 7197756,
      "drivingDurationMs": 6018656,
      "idlingDurationMs": 1179099,
      "fuelConsumedMl": 11935,
      "fuelConsumedGallons": 3.153,
      "maxSpeedMph": 42.0,
      "averageSpeedMph": 16.6,
      "safetyEvents": [],
      "_no_driver_login": false,
      "_fuel_note": "QUIRK 5: fuelConsumedGallons is in US gallons. Multiply by 3.785 for litres. Samsara does not link fuel to specific Onfleet tasks."
    },
    {
      "id": "trip_48291021_20250418_001",
      "vehicleId": "48291021",
      "driverId": "22831020",
      "startMs": 1744979820000,
      "endMs": 1744996747930,
      "startLocation": {
        "latitude": 39.819973,
        "longitude": -104.956674
      },
      "endLocation": {
        "latitude": 39.692045,
        "longitude": -104.962295
      },
      "startAddress": "85145 Eric Glen",
      "endAddress": "76098 Patrick Cape Suite 000",
      "startCoords": {
        "latitude": 39.694342,
        "longitude": -104.912676
      },
      "endCoords": {
        "latitude": 39.797666,
        "longitude": -105.014507
      },
      "distanceMeters": 156938.2,
      "durationMs": 16927930,
      "drivingDurationMs": 14695540,
      "idlingDurationMs": 2232390,
      "fuelConsumedMl": 35155,
      "fuelConsumedGallons": 9.287,
      "maxSpeedMph": 35.7,
      "averageSpeedMph": 20.7,
      "safetyEvents": [],
      "_no_driver_login": false,
      "_fuel_note": "QUIRK 5: fuelConsumedGallons is in US gallons. Multiply by 3.785 for litres. Samsara does not link fuel to specific Onfleet tasks."
    },
    {
      "id": "trip_48291021_20250420_001",
      "vehicleId": "48291021",
      "driverId": "22831020",
      "startMs": 1745155800000,
      "endMs": 1745169337100,
      "startLocation": {
        "latitude": 39.709127,
        "longitude": -104.908277
      },
      "endLocation": {
        "latitude": 39.684835,
        "longitude": -104.937377
      },
      "startAddress": "45411 Crawford Greens",
      "endAddress": "1989 Trujillo Ferry Suite 844",
      "startCoords": {
        "latitude": 39.804336,
        "longitude": -104.950013
      },
      "endCoords": {
        "latitude": 39.79877,
        "longitude": -104.98918
      },
      "distanceMeters": 141962.7,
      "durationMs": 13537101,
      "drivingDurationMs": 13208073,
      "idlingDurationMs": 329028,
      "fuelConsumedMl": 31801,
      "fuelConsumedGallons": 8.401,
      "maxSpeedMph": 30.1,
      "averageSpeedMph": 23.5,
      "safetyEvents": [],
      "_no_driver_login": false,
      "_fuel_note": "QUIRK 5: fuelConsumedGallons is in US gallons. Multiply by 3.785 for litres. Samsara does not link fuel to specific Onfleet tasks."
    },
    {
      "id": "trip_48291021_20250421_001",
      "vehicleId": "48291021",
      "driverId": "22831020",
      "startMs": 1745249100000,
      "endMs": 1745265729229,
      "startLocation": {
        "latitude": 39.823797,
        "longitude": -105.019295
      },
      "endLocation": {
        "latitude": 39.803442,
        "longitude": -105.059419
      },
      "startAddress": "4621 West Mount",
      "endAddress": "278 Howell Alley Apt. 297",
      "startCoords": {
        "latitude": 39.735842,
        "longitude": -105.013974
      },
      "endCoords": {
        "latitude": 39.824449,
        "longitude": -104.976407
      },
      "distanceMeters": 152700.6,
      "durationMs": 16629229,
      "drivingDurationMs": 13538556,
      "idlingDurationMs": 3090673,
      "fuelConsumedMl": 34209,
      "fuelConsumedGallons": 9.037,
      "maxSpeedMph": 51.9,
      "averageSpeedMph": 20.5,
      "safetyEvents": [],
      "_no_driver_login": false,
      "_fuel_note": "QUIRK 5: fuelConsumedGallons is in US gallons. Multiply by 3.785 for litres. Samsara does not link fuel to specific Onfleet tasks."
    },
    {
      "id": "trip_48291021_20250422_001",
      "vehicleId": "48291021",
      "driverId": "22831020",
      "startMs": 1745326080000,
      "endMs": 1745335309244,
      "startLocation": {
        "latitude": 39.798735,
        "longitude": -105.067831
      },
      "endLocation": {
        "latitude": 39.69162,
        "longitude": -105.038744
      },
      "startAddress": "6684 Douglas Extensions Suite 149",
      "endAddress": "6470 David Hill Suite 047",
      "startCoords": {
        "latitude": 39.753295,
        "longitude": -104.960265
      },
      "endCoords": {
        "latitude": 39.729339,
        "longitude": -105.000645
      },
      "distanceMeters": 102030.4,
      "durationMs": 9229245,
      "drivingDurationMs": 7602144,
      "idlingDurationMs": 1627101,
      "fuelConsumedMl": 22856,
      "fuelConsumedGallons": 6.038,
      "maxSpeedMph": 30.5,
      "averageSpeedMph": 24.7,
      "safetyEvents": [],
      "_no_driver_login": false,
      "_fuel_note": "QUIRK 5: fuelConsumedGallons is in US gallons. Multiply by 3.785 for litres. Samsara does not link fuel to specific Onfleet tasks."
    },
    {
      "id": "trip_48291021_20250423_001",
      "vehicleId": "48291021",
      "driverId": "22831020",
      "startMs": 1745416620000,
      "endMs": 1745428639580,
      "startLocation": {
        "latitude": 39.734552,
        "longitude": -104.951233
      },
      "endLocation": {
        "latitude": 39.744257,
        "longitude": -105.004993
      },
      "startAddress": "627 Bullock Way Apt. 586",
      "endAddress": "62185 Joseph Mall",
      "startCoords": {
        "latitude": 39.725144,
        "longitude": -104.900321
      },
      "endCoords": {
        "latitude": 39.81711,
        "longitude": -104.971214
      },
      "distanceMeters": 93107.5,
      "durationMs": 12019581,
      "drivingDurationMs": 11133663,
      "idlingDurationMs": 885918,
      "fuelConsumedMl": 20858,
      "fuelConsumedGallons": 5.51,
      "maxSpeedMph": 61.9,
      "averageSpeedMph": 17.3,
      "safetyEvents": [],
      "_no_driver_login": false,
      "_fuel_note": "QUIRK 5: fuelConsumedGallons is in US gallons. Multiply by 3.785 for litres. Samsara does not link fuel to specific Onfleet tasks."
    },
    {
      "id": "trip_48291021_20250424_001",
      "vehicleId": "48291021",
      "driverId": "22831020",
      "startMs": 1745503680000,
      "endMs": 1745510825079,
      "startLocation": {
        "latitude": 39.749494,
        "longitude": -105.026332
      },
      "endLocation": {
        "latitude": 39.815207,
        "longitude": -105.081673
      },
      "startAddress": "342 Raymond Crossing",
      "endAddress": "260 Mark Points Suite 522",
      "startCoords": {
        "latitude": 39.814318,
        "longitude": -104.986213
      },
      "endCoords": {
        "latitude": 39.820192,
        "longitude": -104.949441
      },
      "distanceMeters": 86572.8,
      "durationMs": 7145080,
      "drivingDurationMs": 6258742,
      "idlingDurationMs": 886338,
      "fuelConsumedMl": 19393,
      "fuelConsumedGallons": 5.123,
      "maxSpeedMph": 41.4,
      "averageSpeedMph": 27.1,
      "safetyEvents": [],
      "_no_driver_login": false,
      "_fuel_note": "QUIRK 5: fuelConsumedGallons is in US gallons. Multiply by 3.785 for litres. Samsara does not link fuel to specific Onfleet tasks."
    },
    {
      "id": "trip_48291021_20250425_001",
      "vehicleId": "48291021",
      "driverId": "22831020",
      "startMs": 1745604600000,
      "endMs": 1745608659043,
      "startLocation": {
        "latitude": 39.712292,
        "longitude": -104.976041
      },
      "endLocation": {
        "latitude": 39.727963,
        "longitude": -104.97284
      },
      "startAddress": "77365 Douglas Stream Apt. 277",
      "endAddress": "55550 Mary Drives Apt. 903",
      "startCoords": {
        "latitude": 39.738965,
        "longitude": -105.043048
      },
      "endCoords": {
        "latitude": 39.761438,
        "longitude": -104.93355
      },
      "distanceMeters": 49209.9,
      "durationMs": 4059043,
      "drivingDurationMs": 3457468,
      "idlingDurationMs": 601575,
      "fuelConsumedMl": 11023,
      "fuelConsumedGallons": 2.912,
      "maxSpeedMph": 42.3,
      "averageSpeedMph": 27.1,
      "safetyEvents": [],
      "_no_driver_login": false,
      "_fuel_note": "QUIRK 5: fuelConsumedGallons is in US gallons. Multiply by 3.785 for litres. Samsara does not link fuel to specific Onfleet tasks."
    },
    {
      "id": "trip_48291021_20250426_001",
      "vehicleId": "48291021",
      "driverId": "22831020",
      "startMs": 1745653620000,
      "endMs": 1745671730260,
      "startLocation": {
        "latitude": 39.743457,
        "longitude": -105.070634
      },
      "endLocation": {
        "latitude": 39.729218,
        "longitude": -104.934109
      },
      "startAddress": "7313 Ricky Mountains Suite 638",
      "endAddress": "55845 Kristin Walks Apt. 946",
      "startCoords": {
        "latitude": 39.715115,
        "longitude": -104.960519
      },
      "endCoords": {
        "latitude": 39.803887,
        "longitude": -104.993446
      },
      "distanceMeters": 152337.5,
      "durationMs": 18110261,
      "drivingDurationMs": 14938329,
      "idlingDurationMs": 3171931,
      "fuelConsumedMl": 34125,
      "fuelConsumedGallons": 9.015,
      "maxSpeedMph": 31.7,
      "averageSpeedMph": 18.8,
      "safetyEvents": [],
      "_no_driver_login": false,
      "_fuel_note": "QUIRK 5: fuelConsumedGallons is in US gallons. Multiply by 3.785 for litres. Samsara does not link fuel to specific Onfleet tasks."
    },
    {
      "id": "trip_48291021_20250428_001",
      "vehicleId": "48291021",
      "driverId": "22831020",
      "startMs": 1745841420000,
      "endMs": 1745860144355,
      "startLocation": {
        "latitude": 39.72816,
        "longitude": -105.053073
      },
      "endLocation": {
        "latitude": 39.804693,
        "longitude": -105.070917
      },
      "startAddress": "70045 Brenda Pines",
      "endAddress": "248 Michael Cape Apt. 431",
      "startCoords": {
        "latitude": 39.777463,
        "longitude": -104.98261
      },
      "endCoords": {
        "latitude": 39.740283,
        "longitude": -105.009935
      },
      "distanceMeters": 176109.9,
      "durationMs": 18724355,
      "drivingDurationMs": 17848945,
      "idlingDurationMs": 875410,
      "fuelConsumedMl": 39452,
      "fuelConsumedGallons": 10.422,
      "maxSpeedMph": 49.5,
      "averageSpeedMph": 21.0,
      "safetyEvents": [],
      "_no_driver_login": false,
      "_fuel_note": "QUIRK 5: fuelConsumedGallons is in US gallons. Multiply by 3.785 for litres. Samsara does not link fuel to specific Onfleet tasks."
    },
    {
      "id": "trip_48291021_20250429_001",
      "vehicleId": "48291021",
      "driverId": "22831020",
      "startMs": 1745952180000,
      "endMs": 1745960400000,
      "startLocation": {
        "latitude": 39.729049,
        "longitude": -105.050612
      },
      "endLocation": {
        "latitude": 39.780727,
        "longitude": -104.975419
      },
      "startAddress": "124 Weiss Junction Apt. 355",
      "endAddress": "9512 Wilson Lake",
      "startCoords": {
        "latitude": 39.741713,
        "longitude": -104.978126
      },
      "endCoords": {
        "latitude": 39.726373,
        "longitude": -105.048525
      },
      "distanceMeters": 99463.0,
      "durationMs": 8220000,
      "drivingDurationMs": 7882822,
      "idlingDurationMs": 337178,
      "fuelConsumedMl": 22281,
      "fuelConsumedGallons": 5.886,
      "maxSpeedMph": 63.1,
      "averageSpeedMph": 27.1,
      "safetyEvents": [],
      "_no_driver_login": false,
      "_fuel_note": "QUIRK 5: fuelConsumedGallons is in US gallons. Multiply by 3.785 for litres. Samsara does not link fuel to specific Onfleet tasks."
    },
    {
      "id": "trip_48291021_20250430_001",
      "vehicleId": "48291021",
      "driverId": "22831020",
      "startMs": 1746026160000,
      "endMs": 1746034906932,
      "startLocation": {
        "latitude": 39.739051,
        "longitude": -105.048082
      },
      "endLocation": {
        "latitude": 39.725716,
        "longitude": -105.034406
      },
      "startAddress": "6456 King Drive Apt. 411",
      "endAddress": "3883 Harris Branch Apt. 845",
      "startCoords": {
        "latitude": 39.774424,
        "longitude": -105.058088
      },
      "endCoords": {
        "latitude": 39.744414,
        "longitude": -104.957503
      },
      "distanceMeters": 67562.4,
      "durationMs": 8746933,
      "drivingDurationMs": 8114041,
      "idlingDurationMs": 632891,
      "fuelConsumedMl": 15134,
      "fuelConsumedGallons": 3.998,
      "maxSpeedMph": 29.4,
      "averageSpeedMph": 17.3,
      "safetyEvents": [],
      "_no_driver_login": false,
      "_fuel_note": "QUIRK 5: fuelConsumedGallons is in US gallons. Multiply by 3.785 for litres. Samsara does not link fuel to specific Onfleet tasks."
    }
  ]
}