{
  "vehicleId": "48291015",
  "vehicleName": "DEN-MOT-02",
  "month": "2025_04",
  "pagination": {
    "endCursor": "trip_48291015_20250430_015",
    "hasNextPage": false
  },
  "trips": [
    {
      "id": "trip_48291015_20250401_001",
      "vehicleId": "48291015",
      "driverId": "22831014",
      "startMs": 1743489000000,
      "endMs": 1743491998954,
      "startLocation": {
        "latitude": 39.792766,
        "longitude": -105.076159
      },
      "endLocation": {
        "latitude": 39.778971,
        "longitude": -105.079144
      },
      "startAddress": "3291 Robert Court",
      "endAddress": "7695 Thomas Court Suite 495",
      "startCoords": {
        "latitude": 39.779075,
        "longitude": -105.006292
      },
      "endCoords": {
        "latitude": 39.6877,
        "longitude": -104.968315
      },
      "distanceMeters": 18470.9,
      "durationMs": 2998955,
      "drivingDurationMs": 2432489,
      "idlingDurationMs": 566466,
      "fuelConsumedMl": 837,
      "fuelConsumedGallons": 0.221,
      "maxSpeedMph": 41.1,
      "averageSpeedMph": 13.8,
      "safetyEvents": [],
      "_no_driver_login": false,
      "_fuel_note": "QUIRK 5: fuelConsumedGallons is in US gallons. Multiply by 3.785 for litres. Samsara does not link fuel to specific Onfleet tasks."
    },
    {
      "id": "trip_48291015_20250401_002",
      "vehicleId": "48291015",
      "driverId": "22831014",
      "startMs": 1743514980000,
      "endMs": 1743516710381,
      "startLocation": {
        "latitude": 39.774933,
        "longitude": -105.07458
      },
      "endLocation": {
        "latitude": 39.716862,
        "longitude": -104.920249
      },
      "startAddress": "462 Shane Mountains Suite 485",
      "endAddress": "8567 Justin Trafficway Suite 668",
      "startCoords": {
        "latitude": 39.742116,
        "longitude": -105.020379
      },
      "endCoords": {
        "latitude": 39.781947,
        "longitude": -105.024192
      },
      "distanceMeters": 11995.3,
      "durationMs": 1730381,
      "drivingDurationMs": 1527750,
      "idlingDurationMs": 202631,
      "fuelConsumedMl": 541,
      "fuelConsumedGallons": 0.143,
      "maxSpeedMph": 71.9,
      "averageSpeedMph": 15.5,
      "safetyEvents": [
        {
          "type": "speeding",
          "startMs": 1743516180000,
          "maxSpeedMph": 71.9
        }
      ],
      "_no_driver_login": false,
      "_fuel_note": ""
    },
    {
      "id": "trip_48291015_20250401_003",
      "vehicleId": "48291015",
      "driverId": "22831014",
      "startMs": 1743521520000,
      "endMs": 1743522323356,
      "startLocation": {
        "latitude": 39.689838,
        "longitude": -104.923989
      },
      "endLocation": {
        "latitude": 39.8056,
        "longitude": -105.068834
      },
      "startAddress": "8050 Wheeler Terrace Suite 227",
      "endAddress": "7565 Cheryl Loop",
      "startCoords": {
        "latitude": 39.767602,
        "longitude": -104.994704
      },
      "endCoords": {
        "latitude": 39.782242,
        "longitude": -104.956085
      },
      "distanceMeters": 5547.8,
      "durationMs": 803356,
      "drivingDurationMs": 642470,
      "idlingDurationMs": 160886,
      "fuelConsumedMl": 250,
      "fuelConsumedGallons": 0.066,
      "maxSpeedMph": 34.0,
      "averageSpeedMph": 15.4,
      "safetyEvents": [],
      "_no_driver_login": false,
      "_fuel_note": ""
    },
    {
      "id": "trip_48291015_20250401_004",
      "vehicleId": "48291015",
      "driverId": "22831014",
      "startMs": 1743514860000,
      "endMs": 1743515816497,
      "startLocation": {
        "latitude": 39.807517,
        "longitude": -105.034496
      },
      "endLocation": {
        "latitude": 39.725764,
        "longitude": -105.076248
      },
      "startAddress": "9273 Lopez Greens",
      "endAddress": "1434 Acosta Mission",
      "startCoords": {
        "latitude": 39.72482,
        "longitude": -105.020438
      },
      "endCoords": {
        "latitude": 39.779924,
        "longitude": -105.085164
      },
      "distanceMeters": 6584.1,
      "durationMs": 956497,
      "drivingDurationMs": 773570,
      "idlingDurationMs": 182928,
      "fuelConsumedMl": 299,
      "fuelConsumedGallons": 0.079,
      "maxSpeedMph": 58.4,
      "averageSpeedMph": 15.4,
      "safetyEvents": [],
      "_no_driver_login": false,
      "_fuel_note": ""
    },
    {
      "id": "trip_48291015_20250401_005",
      "vehicleId": "48291015",
      "driverId": "22831014",
      "startMs": 1743519600000,
      "endMs": 1743521687850,
      "startLocation": {
        "latitude": 39.75288,
        "longitude": -105.051205
      },
      "endLocation": {
        "latitude": 39.717891,
        "longitude": -105.002559
      },
      "startAddress": "418 Christopher Center",
      "endAddress": "3386 William Cliff Suite 011",
      "startCoords": {
        "latitude": 39.773996,
        "longitude": -105.02794
      },
      "endCoords": {
        "latitude": 39.803397,
        "longitude": -104.928812
      },
      "distanceMeters": 15669.6,
      "durationMs": 2087851,
      "drivingDurationMs": 1801441,
      "idlingDurationMs": 286410,
      "fuelConsumedMl": 708,
      "fuelConsumedGallons": 0.187,
      "maxSpeedMph": 41.4,
      "averageSpeedMph": 16.8,
      "safetyEvents": [],
      "_no_driver_login": false,
      "_fuel_note": ""
    },
    {
      "id": "trip_48291015_20250401_006",
      "vehicleId": "48291015",
      "driverId": "22831014",
      "startMs": 1743495360000,
      "endMs": 1743496414461,
      "startLocation": {
        "latitude": 39.789601,
        "longitude": -105.081869
      },
      "endLocation": {
        "latitude": 39.697222,
        "longitude": -104.962864
      },
      "startAddress": "2229 Sherry Terrace",
      "endAddress": "89641 Tiffany Roads",
      "startCoords": {
        "latitude": 39.798584,
        "longitude": -104.972756
      },
      "endCoords": {
        "latitude": 39.733661,
        "longitude": -104.990579
      },
      "distanceMeters": 7265.4,
      "durationMs": 1054462,
      "drivingDurationMs": 850988,
      "idlingDurationMs": 203474,
      "fuelConsumedMl": 329,
      "fuelConsumedGallons": 0.087,
      "maxSpeedMph": 62.1,
      "averageSpeedMph": 15.4,
      "safetyEvents": [],
      "_no_driver_login": false,
      "_fuel_note": ""
    },
    {
      "id": "trip_48291015_20250402_001",
      "vehicleId": "48291015",
      "driverId": "22831014",
      "startMs": 1743593280000,
      "endMs": 1743595513888,
      "startLocation": {
        "latitude": 39.771525,
        "longitude": -104.955736
      },
      "endLocation": {
        "latitude": 39.761258,
        "longitude": -105.052253
      },
      "startAddress": "31422 Black Walks Suite 351",
      "endAddress": "25568 Roberts Ports Suite 463",
      "startCoords": {
        "latitude": 39.78993,
        "longitude": -104.988327
      },
      "endCoords": {
        "latitude": 39.80444,
        "longitude": -104.959917
      },
      "distanceMeters": 19523.5,
      "durationMs": 2233889,
      "drivingDurationMs": 1902809,
      "idlingDurationMs": 331080,
      "fuelConsumedMl": 882,
      "fuelConsumedGallons": 0.233,
      "maxSpeedMph": 59.8,
      "averageSpeedMph": 19.6,
      "safetyEvents": [],
      "_no_driver_login": false,
      "_fuel_note": "QUIRK 5: fuelConsumedGallons is in US gallons. Multiply by 3.785 for litres. Samsara does not link fuel to specific Onfleet tasks."
    },
    {
      "id": "trip_48291015_20250402_002",
      "vehicleId": "48291015",
      "driverId": "22831014",
      "startMs": 1743576960000,
      "endMs": 1743579115123,
      "startLocation": {
        "latitude": 39.794385,
        "longitude": -104.980834
      },
      "endLocation": {
        "latitude": 39.769934,
        "longitude": -105.004665
      },
      "startAddress": "95660 Mathews Ford",
      "endAddress": "66307 Myers Springs Apt. 701",
      "startCoords": {
        "latitude": 39.710674,
        "longitude": -104.984491
      },
      "endCoords": {
        "latitude": 39.810813,
        "longitude": -104.972183
      },
      "distanceMeters": 14074.2,
      "durationMs": 2155123,
      "drivingDurationMs": 1756249,
      "idlingDurationMs": 398875,
      "fuelConsumedMl": 636,
      "fuelConsumedGallons": 0.168,
      "maxSpeedMph": 58.0,
      "averageSpeedMph": 14.6,
      "safetyEvents": [],
      "_no_driver_login": false,
      "_fuel_note": ""
    },
    {
      "id": "trip_48291015_20250402_003",
      "vehicleId": "48291015",
      "driverId": "22831014",
      "startMs": 1743614040000,
      "endMs": 1743615874201,
      "startLocation": {
        "latitude": 39.714794,
        "longitude": -104.989583
      },
      "endLocation": {
        "latitude": 39.741817,
        "longitude": -104.918779
      },
      "startAddress": "80199 Jeffrey Mall",
      "endAddress": "46089 Jackson Port Suite 866",
      "startCoords": {
        "latitude": 39.793667,
        "longitude": -105.058731
      },
      "endCoords": {
        "latitude": 39.797752,
        "longitude": -104.91687
      },
      "distanceMeters": 14543.1,
      "durationMs": 1834201,
      "drivingDurationMs": 1483828,
      "idlingDurationMs": 350374,
      "fuelConsumedMl": 659,
      "fuelConsumedGallons": 0.174,
      "maxSpeedMph": 49.0,
      "averageSpeedMph": 17.7,
      "safetyEvents": [],
      "_no_driver_login": false,
      "_fuel_note": ""
    },
    {
      "id": "trip_48291015_20250402_004",
      "vehicleId": "48291015",
      "driverId": "22831014",
      "startMs": 1743583920000,
      "endMs": 1743585550007,
      "startLocation": {
        "latitude": 39.689807,
        "longitude": -104.992658
      },
      "endLocation": {
        "latitude": 39.745264,
        "longitude": -105.031859
      },
      "startAddress": "0797 Tyler Overpass",
      "endAddress": "1918 Jenkins Avenue",
      "startCoords": {
        "latitude": 39.770771,
        "longitude": -104.941283
      },
      "endCoords": {
        "latitude": 39.730624,
        "longitude": -104.943772
      },
      "distanceMeters": 13924.3,
      "durationMs": 1630008,
      "drivingDurationMs": 1339902,
      "idlingDurationMs": 290106,
      "fuelConsumedMl": 628,
      "fuelConsumedGallons": 0.166,
      "maxSpeedMph": 53.6,
      "averageSpeedMph": 19.1,
      "safetyEvents": [],
      "_no_driver_login": false,
      "_fuel_note": ""
    },
    {
      "id": "trip_48291015_20250402_005",
      "vehicleId": "48291015",
      "driverId": "22831014",
      "startMs": 1743599580000,
      "endMs": 1743600124227,
      "startLocation": {
        "latitude": 39.732971,
        "longitude": -105.06174
      },
      "endLocation": {
        "latitude": 39.797455,
        "longitude": -104.948466
      },
      "startAddress": "816 Hawkins Lock Suite 629",
      "endAddress": "371 Henry Meadow",
      "startCoords": {
        "latitude": 39.728247,
        "longitude": -104.953902
      },
      "endCoords": {
        "latitude": 39.820598,
        "longitude": -105.026294
      },
      "distanceMeters": 3714.3,
      "durationMs": 544227,
      "drivingDurationMs": 414413,
      "idlingDurationMs": 129814,
      "fuelConsumedMl": 167,
      "fuelConsumedGallons": 0.044,
      "maxSpeedMph": 49.8,
      "averageSpeedMph": 15.3,
      "safetyEvents": [],
      "_no_driver_login": false,
      "_fuel_note": ""
    },
    {
      "id": "trip_48291015_20250402_006",
      "vehicleId": "48291015",
      "driverId": "22831014",
      "startMs": 1743600120000,
      "endMs": 1743601848079,
      "startLocation": {
        "latitude": 39.721941,
        "longitude": -104.989077
      },
      "endLocation": {
        "latitude": 39.71915,
        "longitude": -105.01732
      },
      "startAddress": "7287 Sharp Center",
      "endAddress": "727 Jon Fork Apt. 365",
      "startCoords": {
        "latitude": 39.772784,
        "longitude": -104.941882
      },
      "endCoords": {
        "latitude": 39.720686,
        "longitude": -104.962398
      },
      "distanceMeters": 13367.8,
      "durationMs": 1728080,
      "drivingDurationMs": 1504630,
      "idlingDurationMs": 223449,
      "fuelConsumedMl": 606,
      "fuelConsumedGallons": 0.16,
      "maxSpeedMph": 66.6,
      "averageSpeedMph": 17.3,
      "safetyEvents": [
        {
          "type": "speeding",
          "startMs": 1743600840000,
          "maxSpeedMph": 66.6
        }
      ],
      "_no_driver_login": false,
      "_fuel_note": ""
    },
    {
      "id": "trip_48291015_20250402_007",
      "vehicleId": "48291015",
      "driverId": "22831014",
      "startMs": 1743614280000,
      "endMs": 1743615381188,
      "startLocation": {
        "latitude": 39.767575,
        "longitude": -105.087381
      },
      "endLocation": {
        "latitude": 39.710593,
        "longitude": -105.068678
      },
      "startAddress": "2381 Moody Trail Suite 597",
      "endAddress": "8804 Scott Cliff Apt. 840",
      "startCoords": {
        "latitude": 39.706221,
        "longitude": -105.023244
      },
      "endCoords": {
        "latitude": 39.768469,
        "longitude": -105.063218
      },
      "distanceMeters": 8624.4,
      "durationMs": 1101189,
      "drivingDurationMs": 889937,
      "idlingDurationMs": 211252,
      "fuelConsumedMl": 390,
      "fuelConsumedGallons": 0.103,
      "maxSpeedMph": 29.4,
      "averageSpeedMph": 17.5,
      "safetyEvents": [],
      "_no_driver_login": false,
      "_fuel_note": ""
    },
    {
      "id": "trip_48291015_20250402_008",
      "vehicleId": "48291015",
      "driverId": "22831014",
      "startMs": 1743615600000,
      "endMs": 1743619650363,
      "startLocation": {
        "latitude": 39.820537,
        "longitude": -104.968234
      },
      "endLocation": {
        "latitude": 39.793759,
        "longitude": -105.051968
      },
      "startAddress": "45649 Meyer Plains",
      "endAddress": "20284 Stephanie Plains Apt. 100",
      "startCoords": {
        "latitude": 39.781638,
        "longitude": -104.983582
      },
      "endCoords": {
        "latitude": 39.824852,
        "longitude": -104.901548
      },
      "distanceMeters": 22416.7,
      "durationMs": 4050364,
      "drivingDurationMs": 3457146,
      "idlingDurationMs": 593217,
      "fuelConsumedMl": 1014,
      "fuelConsumedGallons": 0.268,
      "maxSpeedMph": 35.9,
      "averageSpeedMph": 12.4,
      "safetyEvents": [],
      "_no_driver_login": false,
      "_fuel_note": ""
    },
    {
      "id": "trip_48291015_20250402_009",
      "vehicleId": "48291015",
      "driverId": "22831014",
      "startMs": 1743585600000,
      "endMs": 1743586335026,
      "startLocation": {
        "latitude": 39.780211,
        "longitude": -104.984403
      },
      "endLocation": {
        "latitude": 39.74078,
        "longitude": -105.082419
      },
      "startAddress": "9619 Don Square Suite 623",
      "endAddress": "14990 Jacob Fort Apt. 219",
      "startCoords": {
        "latitude": 39.820111,
        "longitude": -104.909023
      },
      "endCoords": {
        "latitude": 39.720063,
        "longitude": -104.977886
      },
      "distanceMeters": 4154.7,
      "durationMs": 735027,
      "drivingDurationMs": 574138,
      "idlingDurationMs": 160889,
      "fuelConsumedMl": 189,
      "fuelConsumedGallons": 0.05,
      "maxSpeedMph": 50.6,
      "averageSpeedMph": 12.6,
      "safetyEvents": [],
      "_no_driver_login": false,
      "_fuel_note": ""
    },
    {
      "id": "trip_48291015_20250402_010",
      "vehicleId": "48291015",
      "driverId": "22831014",
      "startMs": 1743587520000,
      "endMs": 1743588720010,
      "startLocation": {
        "latitude": 39.75411,
        "longitude": -104.95785
      },
      "endLocation": {
        "latitude": 39.711214,
        "longitude": -104.992552
      },
      "startAddress": "8890 Espinoza Ford",
      "endAddress": "3792 Wright Club",
      "startCoords": {
        "latitude": 39.716053,
        "longitude": -104.973097
      },
      "endCoords": {
        "latitude": 39.800696,
        "longitude": -104.913343
      },
      "distanceMeters": 7204.3,
      "durationMs": 1200010,
      "drivingDurationMs": 975896,
      "idlingDurationMs": 224114,
      "fuelConsumedMl": 326,
      "fuelConsumedGallons": 0.086,
      "maxSpeedMph": 46.6,
      "averageSpeedMph": 13.4,
      "safetyEvents": [],
      "_no_driver_login": false,
      "_fuel_note": ""
    },
    {
      "id": "trip_48291015_20250402_011",
      "vehicleId": "48291015",
      "driverId": "22831014",
      "startMs": 1743594000000,
      "endMs": 1743596288359,
      "startLocation": {
        "latitude": 39.707278,
        "longitude": -105.074961
      },
      "endLocation": {
        "latitude": 39.748458,
        "longitude": -104.968871
      },
      "startAddress": "24240 Watts Shoal Apt. 741",
      "endAddress": "409 Wilson Avenue",
      "startCoords": {
        "latitude": 39.825067,
        "longitude": -104.967099
      },
      "endCoords": {
        "latitude": 39.719319,
        "longitude": -104.926103
      },
      "distanceMeters": 17530.6,
      "durationMs": 2288360,
      "drivingDurationMs": 2021500,
      "idlingDurationMs": 266859,
      "fuelConsumedMl": 791,
      "fuelConsumedGallons": 0.209,
      "maxSpeedMph": 65.5,
      "averageSpeedMph": 17.1,
      "safetyEvents": [
        {
          "type": "speeding",
          "startMs": 1743594720000,
          "maxSpeedMph": 65.5
        }
      ],
      "_no_driver_login": false,
      "_fuel_note": ""
    },
    {
      "id": "trip_48291015_20250402_012",
      "vehicleId": "48291015",
      "driverId": "22831014",
      "startMs": 1743586260000,
      "endMs": 1743588263905,
      "startLocation": {
        "latitude": 39.774634,
        "longitude": -104.97404
      },
      "endLocation": {
        "latitude": 39.735818,
        "longitude": -105.022231
      },
      "startAddress": "949 Rachel Summit Suite 518",
      "endAddress": "915 Timothy Prairie Suite 192",
      "startCoords": {
        "latitude": 39.698282,
        "longitude": -104.985306
      },
      "endCoords": {
        "latitude": 39.786323,
        "longitude": -105.050479
      },
      "distanceMeters": 11571.0,
      "durationMs": 2003906,
      "drivingDurationMs": 1717261,
      "idlingDurationMs": 286644,
      "fuelConsumedMl": 522,
      "fuelConsumedGallons": 0.138,
      "maxSpeedMph": 37.0,
      "averageSpeedMph": 12.9,
      "safetyEvents": [],
      "_no_driver_login": false,
      "_fuel_note": ""
    },
    {
      "id": "trip_48291015_20250402_013",
      "vehicleId": "48291015",
      "driverId": "22831014",
      "startMs": 1743586500000,
      "endMs": 1743588443113,
      "startLocation": {
        "latitude": 39.745037,
        "longitude": -104.956478
      },
      "endLocation": {
        "latitude": 39.730288,
        "longitude": -105.040616
      },
      "startAddress": "123 Pamela Trail",
      "endAddress": "1025 Tammy Hollow Apt. 132",
      "startCoords": {
        "latitude": 39.751394,
        "longitude": -105.06428
      },
      "endCoords": {
        "latitude": 39.729664,
        "longitude": -105.042153
      },
      "distanceMeters": 16925.7,
      "durationMs": 1943113,
      "drivingDurationMs": 1663137,
      "idlingDurationMs": 279976,
      "fuelConsumedMl": 765,
      "fuelConsumedGallons": 0.202,
      "maxSpeedMph": 64.6,
      "averageSpeedMph": 19.5,
      "safetyEvents": [],
      "_no_driver_login": false,
      "_fuel_note": ""
    },
    {
      "id": "trip_48291015_20250402_014",
      "vehicleId": "48291015",
      "driverId": "22831014",
      "startMs": 1743577620000,
      "endMs": 1743579554494,
      "startLocation": {
        "latitude": 39.765018,
        "longitude": -104.939611
      },
      "endLocation": {
        "latitude": 39.794729,
        "longitude": -104.987011
      },
      "startAddress": "82757 Christian Path Apt. 255",
      "endAddress": "8523 Megan Forges",
      "startCoords": {
        "latitude": 39.706902,
        "longitude": -105.081093
      },
      "endCoords": {
        "latitude": 39.735648,
        "longitude": -105.038755
      },
      "distanceMeters": 14898.4,
      "durationMs": 1934494,
      "drivingDurationMs": 1563369,
      "idlingDurationMs": 371125,
      "fuelConsumedMl": 674,
      "fuelConsumedGallons": 0.178,
      "maxSpeedMph": 36.3,
      "averageSpeedMph": 17.2,
      "safetyEvents": [],
      "_no_driver_login": false,
      "_fuel_note": ""
    },
    {
      "id": "trip_48291015_20250403_001",
      "vehicleId": "48291015",
      "driverId": "22831014",
      "startMs": 1743699120000,
      "endMs": 1743702044731,
      "startLocation": {
        "latitude": 39.725278,
        "longitude": -105.043257
      },
      "endLocation": {
        "latitude": 39.766078,
        "longitude": -104.932176
      },
      "startAddress": "564 Burton Canyon",
      "endAddress": "89705 Timothy Stravenue Apt. 919",
      "startCoords": {
        "latitude": 39.709706,
        "longitude": -105.075485
      },
      "endCoords": {
        "latitude": 39.730196,
        "longitude": -105.040581
      },
      "distanceMeters": 18037.7,
      "durationMs": 2924732,
      "drivingDurationMs": 2704486,
      "idlingDurationMs": 220245,
      "fuelConsumedMl": 818,
      "fuelConsumedGallons": 0.216,
      "maxSpeedMph": 65.2,
      "averageSpeedMph": 13.8,
      "safetyEvents": [
        {
          "type": "speeding",
          "startMs": 1743700020000,
          "maxSpeedMph": 65.2
        }
      ],
      "_no_driver_login": false,
      "_fuel_note": "QUIRK 5: fuelConsumedGallons is in US gallons. Multiply by 3.785 for litres. Samsara does not link fuel to specific Onfleet tasks."
    },
    {
      "id": "trip_48291015_20250403_002",
      "vehicleId": "48291015",
      "driverId": "22831014",
      "startMs": 1743660840000,
      "endMs": 1743662298198,
      "startLocation": {
        "latitude": 39.766742,
        "longitude": -104.910715
      },
      "endLocation": {
        "latitude": 39.696637,
        "longitude": -104.923902
      },
      "startAddress": "7481 Yolanda Unions Apt. 857",
      "endAddress": "485 Smith Center Suite 839",
      "startCoords": {
        "latitude": 39.712374,
        "longitude": -104.914065
      },
      "endCoords": {
        "latitude": 39.822486,
        "longitude": -104.953148
      },
      "distanceMeters": 10169.8,
      "durationMs": 1458199,
      "drivingDurationMs": 1238991,
      "idlingDurationMs": 219208,
      "fuelConsumedMl": 462,
      "fuelConsumedGallons": 0.122,
      "maxSpeedMph": 69.7,
      "averageSpeedMph": 15.6,
      "safetyEvents": [
        {
          "type": "speeding",
          "startMs": 1743661080000,
          "maxSpeedMph": 69.7
        }
      ],
      "_no_driver_login": false,
      "_fuel_note": ""
    },
    {
      "id": "trip_48291015_20250403_003",
      "vehicleId": "48291015",
      "driverId": "22831014",
      "startMs": 1743684600000,
      "endMs": 1743688622669,
      "startLocation": {
        "latitude": 39.738077,
        "longitude": -105.050955
      },
      "endLocation": {
        "latitude": 39.804522,
        "longitude": -105.066181
      },
      "startAddress": "741 Atkins Place",
      "endAddress": "050 Jacqueline Dam",
      "startCoords": {
        "latitude": 39.696622,
        "longitude": -104.99655
      },
      "endCoords": {
        "latitude": 39.823742,
        "longitude": -105.020507
      },
      "distanceMeters": 23479.5,
      "durationMs": 4022669,
      "drivingDurationMs": 3300609,
      "idlingDurationMs": 722061,
      "fuelConsumedMl": 1064,
      "fuelConsumedGallons": 0.281,
      "maxSpeedMph": 30.7,
      "averageSpeedMph": 13.1,
      "safetyEvents": [],
      "_no_driver_login": false,
      "_fuel_note": ""
    },
    {
      "id": "trip_48291015_20250403_004",
      "vehicleId": "48291015",
      "driverId": "22831014",
      "startMs": 1743663060000,
      "endMs": 1743665188827,
      "startLocation": {
        "latitude": 39.784872,
        "longitude": -104.982736
      },
      "endLocation": {
        "latitude": 39.752439,
        "longitude": -104.914877
      },
      "startAddress": "580 James Neck",
      "endAddress": "67066 Ann Extension",
      "startCoords": {
        "latitude": 39.760565,
        "longitude": -104.931051
      },
      "endCoords": {
        "latitude": 39.74886,
        "longitude": -104.951514
      },
      "distanceMeters": 15438.9,
      "durationMs": 2128828,
      "drivingDurationMs": 1851205,
      "idlingDurationMs": 277623,
      "fuelConsumedMl": 697,
      "fuelConsumedGallons": 0.184,
      "maxSpeedMph": 60.1,
      "averageSpeedMph": 16.2,
      "safetyEvents": [],
      "_no_driver_login": false,
      "_fuel_note": ""
    },
    {
      "id": "trip_48291015_20250403_005",
      "vehicleId": "48291015",
      "driverId": "22831014",
      "startMs": 1743702960000,
      "endMs": 1743703972460,
      "startLocation": {
        "latitude": 39.744988,
        "longitude": -104.946712
      },
      "endLocation": {
        "latitude": 39.811968,
        "longitude": -105.038409
      },
      "startAddress": "98012 Rebecca Meadow",
      "endAddress": "774 Hernandez Mount Apt. 073",
      "startCoords": {
        "latitude": 39.73,
        "longitude": -104.974875
      },
      "endCoords": {
        "latitude": 39.806811,
        "longitude": -105.086589
      },
      "distanceMeters": 8528.4,
      "durationMs": 1012460,
      "drivingDurationMs": 811363,
      "idlingDurationMs": 201097,
      "fuelConsumedMl": 386,
      "fuelConsumedGallons": 0.102,
      "maxSpeedMph": 57.4,
      "averageSpeedMph": 18.8,
      "safetyEvents": [],
      "_no_driver_login": false,
      "_fuel_note": ""
    },
    {
      "id": "trip_48291015_20250403_006",
      "vehicleId": "48291015",
      "driverId": "22831014",
      "startMs": 1743662280000,
      "endMs": 1743663929593,
      "startLocation": {
        "latitude": 39.785997,
        "longitude": -105.001763
      },
      "endLocation": {
        "latitude": 39.767255,
        "longitude": -104.969576
      },
      "startAddress": "565 Mendoza Port Apt. 538",
      "endAddress": "8339 Kevin Plaza Suite 424",
      "startCoords": {
        "latitude": 39.772434,
        "longitude": -104.953508
      },
      "endCoords": {
        "latitude": 39.754838,
        "longitude": -105.051826
      },
      "distanceMeters": 14175.7,
      "durationMs": 1649593,
      "drivingDurationMs": 1447864,
      "idlingDurationMs": 201730,
      "fuelConsumedMl": 640,
      "fuelConsumedGallons": 0.169,
      "maxSpeedMph": 54.8,
      "averageSpeedMph": 19.2,
      "safetyEvents": [],
      "_no_driver_login": false,
      "_fuel_note": ""
    },
    {
      "id": "trip_48291015_20250403_007",
      "vehicleId": "48291015",
      "driverId": "22831014",
      "startMs": 1743678420000,
      "endMs": 1743679077655,
      "startLocation": {
        "latitude": 39.800931,
        "longitude": -104.932597
      },
      "endLocation": {
        "latitude": 39.758965,
        "longitude": -104.968362
      },
      "startAddress": "98401 Barber Streets Suite 542",
      "endAddress": "368 Joseph Square Apt. 713",
      "startCoords": {
        "latitude": 39.701245,
        "longitude": -105.014557
      },
      "endCoords": {
        "latitude": 39.794018,
        "longitude": -105.079977
      },
      "distanceMeters": 4410.1,
      "durationMs": 657656,
      "drivingDurationMs": 522736,
      "idlingDurationMs": 134920,
      "fuelConsumedMl": 201,
      "fuelConsumedGallons": 0.053,
      "maxSpeedMph": 57.5,
      "averageSpeedMph": 15.0,
      "safetyEvents": [],
      "_no_driver_login": false,
      "_fuel_note": ""
    },
    {
      "id": "trip_48291015_20250403_008",
      "vehicleId": "48291015",
      "driverId": "22831014",
      "startMs": 1743667500000,
      "endMs": 1743669956808,
      "startLocation": {
        "latitude": 39.684152,
        "longitude": -104.926799
      },
      "endLocation": {
        "latitude": 39.724303,
        "longitude": -105.060001
      },
      "startAddress": "1721 Beck Forest",
      "endAddress": "43491 Joel Junctions",
      "startCoords": {
        "latitude": 39.805957,
        "longitude": -105.086589
      },
      "endCoords": {
        "latitude": 39.709853,
        "longitude": -104.993923
      },
      "distanceMeters": 16333.8,
      "durationMs": 2456808,
      "drivingDurationMs": 2227721,
      "idlingDurationMs": 229088,
      "fuelConsumedMl": 738,
      "fuelConsumedGallons": 0.195,
      "maxSpeedMph": 36.3,
      "averageSpeedMph": 14.9,
      "safetyEvents": [],
      "_no_driver_login": false,
      "_fuel_note": ""
    },
    {
      "id": "trip_48291015_20250403_009",
      "vehicleId": "48291015",
      "driverId": "22831014",
      "startMs": 1743673380000,
      "endMs": 1743676101280,
      "startLocation": {
        "latitude": 39.813135,
        "longitude": -104.972487
      },
      "endLocation": {
        "latitude": 39.784386,
        "longitude": -104.9493
      },
      "startAddress": "066 Kathleen Lights Apt. 089",
      "endAddress": "410 Kenneth Bridge",
      "startCoords": {
        "latitude": 39.689689,
        "longitude": -104.972522
      },
      "endCoords": {
        "latitude": 39.710943,
        "longitude": -105.007376
      },
      "distanceMeters": 20972.4,
      "durationMs": 2721280,
      "drivingDurationMs": 2370559,
      "idlingDurationMs": 350721,
      "fuelConsumedMl": 950,
      "fuelConsumedGallons": 0.251,
      "maxSpeedMph": 40.0,
      "averageSpeedMph": 17.2,
      "safetyEvents": [],
      "_no_driver_login": false,
      "_fuel_note": ""
    },
    {
      "id": "trip_48291015_20250403_010",
      "vehicleId": "48291015",
      "driverId": "22831014",
      "startMs": 1743695700000,
      "endMs": 1743697664741,
      "startLocation": {
        "latitude": 39.782032,
        "longitude": -105.081772
      },
      "endLocation": {
        "latitude": 39.742624,
        "longitude": -104.986885
      },
      "startAddress": "4456 Roy Fields",
      "endAddress": "03366 Craig Loop",
      "startCoords": {
        "latitude": 39.81737,
        "longitude": -104.906177
      },
      "endCoords": {
        "latitude": 39.782351,
        "longitude": -104.907059
      },
      "distanceMeters": 16191.4,
      "durationMs": 1964742,
      "drivingDurationMs": 1627048,
      "idlingDurationMs": 337694,
      "fuelConsumedMl": 731,
      "fuelConsumedGallons": 0.193,
      "maxSpeedMph": 72.0,
      "averageSpeedMph": 18.4,
      "safetyEvents": [
        {
          "type": "speeding",
          "startMs": 1743696240000,
          "maxSpeedMph": 72.0
        }
      ],
      "_no_driver_login": false,
      "_fuel_note": ""
    },
    {
      "id": "trip_48291015_20250403_011",
      "vehicleId": "48291015",
      "driverId": "22831014",
      "startMs": 1743679320000,
      "endMs": 1743679643763,
      "startLocation": {
        "latitude": 39.743453,
        "longitude": -104.941204
      },
      "endLocation": {
        "latitude": 39.79642,
        "longitude": -104.971332
      },
      "startAddress": "399 Cody Pines",
      "endAddress": "4603 Miller Ways Apt. 946",
      "startCoords": {
        "latitude": 39.775674,
        "longitude": -104.947373
      },
      "endCoords": {
        "latitude": 39.755304,
        "longitude": -105.01398
      },
      "distanceMeters": 2584.6,
      "durationMs": 323763,
      "drivingDurationMs": 257394,
      "idlingDurationMs": 66369,
      "fuelConsumedMl": 117,
      "fuelConsumedGallons": 0.031,
      "maxSpeedMph": 51.0,
      "averageSpeedMph": 17.9,
      "safetyEvents": [],
      "_no_driver_login": false,
      "_fuel_note": ""
    },
    {
      "id": "trip_48291015_20250403_012",
      "vehicleId": "48291015",
      "driverId": "22831014",
      "startMs": 1743687060000,
      "endMs": 1743688739422,
      "startLocation": {
        "latitude": 39.751845,
        "longitude": -105.030855
      },
      "endLocation": {
        "latitude": 39.827835,
        "longitude": -105.013469
      },
      "startAddress": "66930 Johnson Wall Apt. 065",
      "endAddress": "742 Abigail Plaza",
      "startCoords": {
        "latitude": 39.797852,
        "longitude": -104.974405
      },
      "endCoords": {
        "latitude": 39.800054,
        "longitude": -105.05752
      },
      "distanceMeters": 9440.3,
      "durationMs": 1679422,
      "drivingDurationMs": 1378937,
      "idlingDurationMs": 300485,
      "fuelConsumedMl": 428,
      "fuelConsumedGallons": 0.113,
      "maxSpeedMph": 60.7,
      "averageSpeedMph": 12.6,
      "safetyEvents": [],
      "_no_driver_login": false,
      "_fuel_note": ""
    },
    {
      "id": "trip_48291015_20250403_013",
      "vehicleId": "48291015",
      "driverId": "22831014",
      "startMs": 1743680700000,
      "endMs": 1743681946905,
      "startLocation": {
        "latitude": 39.717105,
        "longitude": -104.960885
      },
      "endLocation": {
        "latitude": 39.759269,
        "longitude": -105.084886
      },
      "startAddress": "968 Berg Center",
      "endAddress": "583 Shawn Course",
      "startCoords": {
        "latitude": 39.720742,
        "longitude": -105.031101
      },
      "endCoords": {
        "latitude": 39.74386,
        "longitude": -105.070333
      },
      "distanceMeters": 7805.3,
      "durationMs": 1246905,
      "drivingDurationMs": 1011071,
      "idlingDurationMs": 235834,
      "fuelConsumedMl": 352,
      "fuelConsumedGallons": 0.093,
      "maxSpeedMph": 65.3,
      "averageSpeedMph": 14.0,
      "safetyEvents": [
        {
          "type": "speeding",
          "startMs": 1743681180000,
          "maxSpeedMph": 65.3
        }
      ],
      "_no_driver_login": false,
      "_fuel_note": ""
    },
    {
      "id": "trip_48291015_20250403_014",
      "vehicleId": "48291015",
      "driverId": "22831014",
      "startMs": 1743700680000,
      "endMs": 1743701500399,
      "startLocation": {
        "latitude": 39.822866,
        "longitude": -104.904063
      },
      "endLocation": {
        "latitude": 39.684815,
        "longitude": -105.065222
      },
      "startAddress": "200 Perez Parkway Apt. 812",
      "endAddress": "8610 Robert Hills Apt. 364",
      "startCoords": {
        "latitude": 39.710967,
        "longitude": -105.059669
      },
      "endCoords": {
        "latitude": 39.737995,
        "longitude": -104.905629
      },
      "distanceMeters": 6454.6,
      "durationMs": 820399,
      "drivingDurationMs": 647655,
      "idlingDurationMs": 172744,
      "fuelConsumedMl": 291,
      "fuelConsumedGallons": 0.077,
      "maxSpeedMph": 46.8,
      "averageSpeedMph": 17.6,
      "safetyEvents": [],
      "_no_driver_login": false,
      "_fuel_note": ""
    },
    {
      "id": "trip_48291015_20250403_015",
      "vehicleId": "48291015",
      "driverId": "22831014",
      "startMs": 1743702180000,
      "endMs": 1743704007065,
      "startLocation": {
        "latitude": 39.780135,
        "longitude": -105.065428
      },
      "endLocation": {
        "latitude": 39.747973,
        "longitude": -105.005047
      },
      "startAddress": "3982 Williams Common Apt. 031",
      "endAddress": "459 William Valley",
      "startCoords": {
        "latitude": 39.719818,
        "longitude": -104.999634
      },
      "endCoords": {
        "latitude": 39.751184,
        "longitude": -104.914375
      },
      "distanceMeters": 13772.8,
      "durationMs": 1827066,
      "drivingDurationMs": 1519738,
      "idlingDurationMs": 307328,
      "fuelConsumedMl": 625,
      "fuelConsumedGallons": 0.165,
      "maxSpeedMph": 68.7,
      "averageSpeedMph": 16.9,
      "safetyEvents": [
        {
          "type": "speeding",
          "startMs": 1743703500000,
          "maxSpeedMph": 68.7
        }
      ],
      "_no_driver_login": false,
      "_fuel_note": ""
    },
    {
      "id": "trip_48291015_20250403_016",
      "vehicleId": "48291015",
      "driverId": "22831014",
      "startMs": 1743698520000,
      "endMs": 1743698970470,
      "startLocation": {
        "latitude": 39.796574,
        "longitude": -105.059783
      },
      "endLocation": {
        "latitude": 39.708924,
        "longitude": -104.9505
      },
      "startAddress": "04604 Contreras Summit",
      "endAddress": "717 Curtis Ramp",
      "startCoords": {
        "latitude": 39.815113,
        "longitude": -104.966394
      },
      "endCoords": {
        "latitude": 39.796627,
        "longitude": -105.021019
      },
      "distanceMeters": 2439.5,
      "durationMs": 450471,
      "drivingDurationMs": 297545,
      "idlingDurationMs": 152925,
      "fuelConsumedMl": 110,
      "fuelConsumedGallons": 0.029,
      "maxSpeedMph": 69.1,
      "averageSpeedMph": 12.1,
      "safetyEvents": [
        {
          "type": "speeding",
          "startMs": 1743698700000,
          "maxSpeedMph": 69.1
        }
      ],
      "_no_driver_login": false,
      "_fuel_note": ""
    },
    {
      "id": "trip_48291015_20250404_001",
      "vehicleId": "48291015",
      "driverId": "22831014",
      "startMs": 1743790860000,
      "endMs": 1743791822951,
      "startLocation": {
        "latitude": 39.691213,
        "longitude": -104.963557
      },
      "endLocation": {
        "latitude": 39.77296,
        "longitude": -105.004953
      },
      "startAddress": "3582 Charles Ports",
      "endAddress": "5836 Gutierrez Ranch",
      "startCoords": {
        "latitude": 39.812081,
        "longitude": -105.012579
      },
      "endCoords": {
        "latitude": 39.770478,
        "longitude": -105.041949
      },
      "distanceMeters": 7388.6,
      "durationMs": 962951,
      "drivingDurationMs": 774058,
      "idlingDurationMs": 188893,
      "fuelConsumedMl": 333,
      "fuelConsumedGallons": 0.088,
      "maxSpeedMph": 32.3,
      "averageSpeedMph": 17.2,
      "safetyEvents": [],
      "_no_driver_login": false,
      "_fuel_note": "QUIRK 5: fuelConsumedGallons is in US gallons. Multiply by 3.785 for litres. Samsara does not link fuel to specific Onfleet tasks."
    },
    {
      "id": "trip_48291015_20250404_002",
      "vehicleId": "48291015",
      "driverId": "22831014",
      "startMs": 1743784500000,
      "endMs": 1743787506381,
      "startLocation": {
        "latitude": 39.698511,
        "longitude": -105.070797
      },
      "endLocation": {
        "latitude": 39.766047,
        "longitude": -105.026834
      },
      "startAddress": "048 Anthony Spurs Suite 749",
      "endAddress": "38669 Samantha Ranch Suite 136",
      "startCoords": {
        "latitude": 39.796656,
        "longitude": -105.008196
      },
      "endCoords": {
        "latitude": 39.686892,
        "longitude": -104.986772
      },
      "distanceMeters": 23583.2,
      "durationMs": 3006381,
      "drivingDurationMs": 2723432,
      "idlingDurationMs": 282949,
      "fuelConsumedMl": 1067,
      "fuelConsumedGallons": 0.282,
      "maxSpeedMph": 53.5,
      "averageSpeedMph": 17.5,
      "safetyEvents": [],
      "_no_driver_login": false,
      "_fuel_note": ""
    },
    {
      "id": "trip_48291015_20250404_003",
      "vehicleId": "48291015",
      "driverId": "22831014",
      "startMs": 1743787020000,
      "endMs": 1743788224320,
      "startLocation": {
        "latitude": 39.714726,
        "longitude": -105.048744
      },
      "endLocation": {
        "latitude": 39.76837,
        "longitude": -104.941091
      },
      "startAddress": "19574 Kathleen Plaza",
      "endAddress": "615 Sanders Meadow Apt. 183",
      "startCoords": {
        "latitude": 39.730024,
        "longitude": -105.008633
      },
      "endCoords": {
        "latitude": 39.763292,
        "longitude": -104.989533
      },
      "distanceMeters": 7643.2,
      "durationMs": 1204320,
      "drivingDurationMs": 1014321,
      "idlingDurationMs": 189999,
      "fuelConsumedMl": 344,
      "fuelConsumedGallons": 0.091,
      "maxSpeedMph": 37.4,
      "averageSpeedMph": 14.2,
      "safetyEvents": [],
      "_no_driver_login": false,
      "_fuel_note": ""
    },
    {
      "id": "trip_48291015_20250404_004",
      "vehicleId": "48291015",
      "driverId": null,
      "startMs": 1743775140000,
      "endMs": 1743777955840,
      "startLocation": {
        "latitude": 39.819333,
        "longitude": -104.954355
      },
      "endLocation": {
        "latitude": 39.761571,
        "longitude": -104.989586
      },
      "startAddress": "1537 Taylor Landing Suite 907",
      "endAddress": "6537 Carlson Locks",
      "startCoords": {
        "latitude": 39.744238,
        "longitude": -105.040507
      },
      "endCoords": {
        "latitude": 39.715657,
        "longitude": -104.917674
      },
      "distanceMeters": 23002.8,
      "durationMs": 2815841,
      "drivingDurationMs": 2358315,
      "idlingDurationMs": 457526,
      "fuelConsumedMl": 1041,
      "fuelConsumedGallons": 0.275,
      "maxSpeedMph": 64.3,
      "averageSpeedMph": 18.3,
      "safetyEvents": [],
      "_no_driver_login": true,
      "_fuel_note": ""
    },
    {
      "id": "trip_48291015_20250404_005",
      "vehicleId": "48291015",
      "driverId": "22831014",
      "startMs": 1743778800000,
      "endMs": 1743780974136,
      "startLocation": {
        "latitude": 39.687282,
        "longitude": -104.973104
      },
      "endLocation": {
        "latitude": 39.733881,
        "longitude": -105.050626
      },
      "startAddress": "34366 Richardson Port Suite 013",
      "endAddress": "946 John Coves Suite 650",
      "startCoords": {
        "latitude": 39.733462,
        "longitude": -105.034769
      },
      "endCoords": {
        "latitude": 39.728002,
        "longitude": -104.952375
      },
      "distanceMeters": 12577.8,
      "durationMs": 2174137,
      "drivingDurationMs": 1828156,
      "idlingDurationMs": 345981,
      "fuelConsumedMl": 568,
      "fuelConsumedGallons": 0.15,
      "maxSpeedMph": 34.0,
      "averageSpeedMph": 12.9,
      "safetyEvents": [],
      "_no_driver_login": false,
      "_fuel_note": ""
    },
    {
      "id": "trip_48291015_20250404_006",
      "vehicleId": "48291015",
      "driverId": "22831014",
      "startMs": 1743774720000,
      "endMs": 1743778574779,
      "startLocation": {
        "latitude": 39.779393,
        "longitude": -105.057749
      },
      "endLocation": {
        "latitude": 39.743007,
        "longitude": -105.036281
      },
      "startAddress": "121 Christopher Branch",
      "endAddress": "9032 Vickie Road",
      "startCoords": {
        "latitude": 39.725456,
        "longitude": -105.015646
      },
      "endCoords": {
        "latitude": 39.68626,
        "longitude": -105.016003
      },
      "distanceMeters": 23597.2,
      "durationMs": 3854779,
      "drivingDurationMs": 3228649,
      "idlingDurationMs": 626130,
      "fuelConsumedMl": 1067,
      "fuelConsumedGallons": 0.282,
      "maxSpeedMph": 61.4,
      "averageSpeedMph": 13.7,
      "safetyEvents": [],
      "_no_driver_login": false,
      "_fuel_note": ""
    },
    {
      "id": "trip_48291015_20250404_007",
      "vehicleId": "48291015",
      "driverId": "22831014",
      "startMs": 1743782220000,
      "endMs": 1743783730244,
      "startLocation": {
        "latitude": 39.696658,
        "longitude": -104.997358
      },
      "endLocation": {
        "latitude": 39.824743,
        "longitude": -104.953872
      },
      "startAddress": "25476 Evans Parkways",
      "endAddress": "004 Mercer Skyway",
      "startCoords": {
        "latitude": 39.766963,
        "longitude": -104.944146
      },
      "endCoords": {
        "latitude": 39.816206,
        "longitude": -105.071579
      },
      "distanceMeters": 12937.2,
      "durationMs": 1510245,
      "drivingDurationMs": 1239373,
      "idlingDurationMs": 270872,
      "fuelConsumedMl": 587,
      "fuelConsumedGallons": 0.155,
      "maxSpeedMph": 40.0,
      "averageSpeedMph": 19.2,
      "safetyEvents": [],
      "_no_driver_login": false,
      "_fuel_note": ""
    },
    {
      "id": "trip_48291015_20250404_008",
      "vehicleId": "48291015",
      "driverId": "22831014",
      "startMs": 1743779580000,
      "endMs": 1743782030728,
      "startLocation": {
        "latitude": 39.814075,
        "longitude": -104.98528
      },
      "endLocation": {
        "latitude": 39.775713,
        "longitude": -104.930538
      },
      "startAddress": "54551 Austin Causeway Apt. 556",
      "endAddress": "2343 Clark Garden Suite 428",
      "startCoords": {
        "latitude": 39.759029,
        "longitude": -105.07308
      },
      "endCoords": {
        "latitude": 39.697262,
        "longitude": -105.010703
      },
      "distanceMeters": 20226.2,
      "durationMs": 2450729,
      "drivingDurationMs": 2263396,
      "idlingDurationMs": 187333,
      "fuelConsumedMl": 916,
      "fuelConsumedGallons": 0.242,
      "maxSpeedMph": 67.9,
      "averageSpeedMph": 18.5,
      "safetyEvents": [
        {
          "type": "speeding",
          "startMs": 1743780360000,
          "maxSpeedMph": 67.9
        }
      ],
      "_no_driver_login": false,
      "_fuel_note": ""
    },
    {
      "id": "trip_48291015_20250404_009",
      "vehicleId": "48291015",
      "driverId": "22831014",
      "startMs": 1743763380000,
      "endMs": 1743763840869,
      "startLocation": {
        "latitude": 39.816097,
        "longitude": -104.944163
      },
      "endLocation": {
        "latitude": 39.685535,
        "longitude": -104.967385
      },
      "startAddress": "63962 Robin Mission Suite 796",
      "endAddress": "7639 Flores Mission Suite 957",
      "startCoords": {
        "latitude": 39.809687,
        "longitude": -105.074755
      },
      "endCoords": {
        "latitude": 39.738391,
        "longitude": -104.926643
      },
      "distanceMeters": 3136.4,
      "durationMs": 460869,
      "drivingDurationMs": 344446,
      "idlingDurationMs": 116423,
      "fuelConsumedMl": 140,
      "fuelConsumedGallons": 0.037,
      "maxSpeedMph": 59.2,
      "averageSpeedMph": 15.2,
      "safetyEvents": [],
      "_no_driver_login": false,
      "_fuel_note": ""
    },
    {
      "id": "trip_48291015_20250404_010",
      "vehicleId": "48291015",
      "driverId": "22831014",
      "startMs": 1743788340000,
      "endMs": 1743789675999,
      "startLocation": {
        "latitude": 39.779688,
        "longitude": -104.941745
      },
      "endLocation": {
        "latitude": 39.826096,
        "longitude": -105.023005
      },
      "startAddress": "54882 Amanda Pine",
      "endAddress": "7941 Alexander Track",
      "startCoords": {
        "latitude": 39.813624,
        "longitude": -104.902739
      },
      "endCoords": {
        "latitude": 39.770415,
        "longitude": -104.927356
      },
      "distanceMeters": 8330.2,
      "durationMs": 1336000,
      "drivingDurationMs": 1094676,
      "idlingDurationMs": 241323,
      "fuelConsumedMl": 379,
      "fuelConsumedGallons": 0.1,
      "maxSpeedMph": 53.5,
      "averageSpeedMph": 13.9,
      "safetyEvents": [],
      "_no_driver_login": false,
      "_fuel_note": ""
    },
    {
      "id": "trip_48291015_20250404_011",
      "vehicleId": "48291015",
      "driverId": "22831014",
      "startMs": 1743751560000,
      "endMs": 1743754298771,
      "startLocation": {
        "latitude": 39.739274,
        "longitude": -104.958595
      },
      "endLocation": {
        "latitude": 39.722377,
        "longitude": -105.029006
      },
      "startAddress": "888 Ward Landing Apt. 800",
      "endAddress": "19747 Fields Street Apt. 978",
      "startCoords": {
        "latitude": 39.756745,
        "longitude": -105.039423
      },
      "endCoords": {
        "latitude": 39.762402,
        "longitude": -104.910872
      },
      "distanceMeters": 16904.9,
      "durationMs": 2738771,
      "drivingDurationMs": 2273934,
      "idlingDurationMs": 464838,
      "fuelConsumedMl": 765,
      "fuelConsumedGallons": 0.202,
      "maxSpeedMph": 60.0,
      "averageSpeedMph": 13.8,
      "safetyEvents": [],
      "_no_driver_login": false,
      "_fuel_note": ""
    },
    {
      "id": "trip_48291015_20250404_012",
      "vehicleId": "48291015",
      "driverId": "22831014",
      "startMs": 1743792540000,
      "endMs": 1743796138496,
      "startLocation": {
        "latitude": 39.825775,
        "longitude": -104.990197
      },
      "endLocation": {
        "latitude": 39.758722,
        "longitude": -105.052858
      },
      "startAddress": "0562 Kathryn Common",
      "endAddress": "8172 Rebecca Mission Apt. 078",
      "startCoords": {
        "latitude": 39.706956,
        "longitude": -105.039548
      },
      "endCoords": {
        "latitude": 39.808503,
        "longitude": -104.994014
      },
      "distanceMeters": 22054.3,
      "durationMs": 3598497,
      "drivingDurationMs": 2969781,
      "idlingDurationMs": 628716,
      "fuelConsumedMl": 999,
      "fuelConsumedGallons": 0.264,
      "maxSpeedMph": 28.2,
      "averageSpeedMph": 13.7,
      "safetyEvents": [],
      "_no_driver_login": false,
      "_fuel_note": ""
    },
    {
      "id": "trip_48291015_20250404_013",
      "vehicleId": "48291015",
      "driverId": "22831014",
      "startMs": 1743757920000,
      "endMs": 1743759336220,
      "startLocation": {
        "latitude": 39.776246,
        "longitude": -104.949646
      },
      "endLocation": {
        "latitude": 39.805328,
        "longitude": -105.061622
      },
      "startAddress": "429 Taylor Way",
      "endAddress": "4572 Dennis Lock",
      "startCoords": {
        "latitude": 39.767953,
        "longitude": -105.077808
      },
      "endCoords": {
        "latitude": 39.794999,
        "longitude": -104.947539
      },
      "distanceMeters": 12146.5,
      "durationMs": 1416220,
      "drivingDurationMs": 1166749,
      "idlingDurationMs": 249471,
      "fuelConsumedMl": 549,
      "fuelConsumedGallons": 0.145,
      "maxSpeedMph": 55.3,
      "averageSpeedMph": 19.2,
      "safetyEvents": [],
      "_no_driver_login": false,
      "_fuel_note": ""
    },
    {
      "id": "trip_48291015_20250404_014",
      "vehicleId": "48291015",
      "driverId": "22831014",
      "startMs": 1743777960000,
      "endMs": 1743778605184,
      "startLocation": {
        "latitude": 39.771251,
        "longitude": -104.931297
      },
      "endLocation": {
        "latitude": 39.780993,
        "longitude": -105.022796
      },
      "startAddress": "06657 Maria Path",
      "endAddress": "4979 Christian Skyway",
      "startCoords": {
        "latitude": 39.715519,
        "longitude": -104.977922
      },
      "endCoords": {
        "latitude": 39.765315,
        "longitude": -105.024274
      },
      "distanceMeters": 3907.3,
      "durationMs": 645185,
      "drivingDurationMs": 514971,
      "idlingDurationMs": 130214,
      "fuelConsumedMl": 178,
      "fuelConsumedGallons": 0.047,
      "maxSpeedMph": 54.9,
      "averageSpeedMph": 13.5,
      "safetyEvents": [],
      "_no_driver_login": false,
      "_fuel_note": ""
    },
    {
      "id": "trip_48291015_20250404_015",
      "vehicleId": "48291015",
      "driverId": "22831014",
      "startMs": 1743771000000,
      "endMs": 1743771501980,
      "startLocation": {
        "latitude": 39.737208,
        "longitude": -105.082122
      },
      "endLocation": {
        "latitude": 39.766324,
        "longitude": -105.077106
      },
      "startAddress": "039 Murphy Trafficway Apt. 043",
      "endAddress": "3650 Barnes Fort",
      "startCoords": {
        "latitude": 39.813297,
        "longitude": -104.964867
      },
      "endCoords": {
        "latitude": 39.754093,
        "longitude": -105.063836
      },
      "distanceMeters": 2886.5,
      "durationMs": 501981,
      "drivingDurationMs": 343875,
      "idlingDurationMs": 158106,
      "fuelConsumedMl": 129,
      "fuelConsumedGallons": 0.034,
      "maxSpeedMph": 69.8,
      "averageSpeedMph": 12.9,
      "safetyEvents": [
        {
          "type": "speeding",
          "startMs": 1743771120000,
          "maxSpeedMph": 69.8
        }
      ],
      "_no_driver_login": false,
      "_fuel_note": ""
    },
    {
      "id": "trip_48291015_20250405_001",
      "vehicleId": "48291015",
      "driverId": "22831014",
      "startMs": 1743835380000,
      "endMs": 1743837505453,
      "startLocation": {
        "latitude": 39.747111,
        "longitude": -105.086521
      },
      "endLocation": {
        "latitude": 39.82064,
        "longitude": -105.012218
      },
      "startAddress": "90031 Curtis Underpass",
      "endAddress": "6161 Raven Corners",
      "startCoords": {
        "latitude": 39.818759,
        "longitude": -105.069252
      },
      "endCoords": {
        "latitude": 39.708215,
        "longitude": -104.985446
      },
      "distanceMeters": 13912.7,
      "durationMs": 2125454,
      "drivingDurationMs": 1913118,
      "idlingDurationMs": 212336,
      "fuelConsumedMl": 628,
      "fuelConsumedGallons": 0.166,
      "maxSpeedMph": 65.9,
      "averageSpeedMph": 14.6,
      "safetyEvents": [
        {
          "type": "speeding",
          "startMs": 1743837000000,
          "maxSpeedMph": 65.9
        }
      ],
      "_no_driver_login": false,
      "_fuel_note": "QUIRK 5: fuelConsumedGallons is in US gallons. Multiply by 3.785 for litres. Samsara does not link fuel to specific Onfleet tasks."
    },
    {
      "id": "trip_48291015_20250405_002",
      "vehicleId": "48291015",
      "driverId": "22831014",
      "startMs": 1743878940000,
      "endMs": 1743882746459,
      "startLocation": {
        "latitude": 39.795263,
        "longitude": -105.030335
      },
      "endLocation": {
        "latitude": 39.822712,
        "longitude": -105.08677
      },
      "startAddress": "333 Stone Brooks",
      "endAddress": "014 Callahan Mills",
      "startCoords": {
        "latitude": 39.764536,
        "longitude": -105.086877
      },
      "endCoords": {
        "latitude": 39.776804,
        "longitude": -104.963127
      },
      "distanceMeters": 24304.4,
      "durationMs": 3806459,
      "drivingDurationMs": 3133134,
      "idlingDurationMs": 673325,
      "fuelConsumedMl": 1098,
      "fuelConsumedGallons": 0.29,
      "maxSpeedMph": 71.3,
      "averageSpeedMph": 14.3,
      "safetyEvents": [
        {
          "type": "speeding",
          "startMs": 1743882120000,
          "maxSpeedMph": 71.3
        }
      ],
      "_no_driver_login": false,
      "_fuel_note": ""
    },
    {
      "id": "trip_48291015_20250405_003",
      "vehicleId": "48291015",
      "driverId": "22831014",
      "startMs": 1743844020000,
      "endMs": 1743847099314,
      "startLocation": {
        "latitude": 39.756207,
        "longitude": -105.029091
      },
      "endLocation": {
        "latitude": 39.785506,
        "longitude": -105.042729
      },
      "startAddress": "2086 Hernandez Courts",
      "endAddress": "677 Patricia Isle Suite 664",
      "startCoords": {
        "latitude": 39.736711,
        "longitude": -105.015305
      },
      "endCoords": {
        "latitude": 39.694312,
        "longitude": -104.906492
      },
      "distanceMeters": 18294.1,
      "durationMs": 3079315,
      "drivingDurationMs": 2496312,
      "idlingDurationMs": 583002,
      "fuelConsumedMl": 829,
      "fuelConsumedGallons": 0.219,
      "maxSpeedMph": 65.9,
      "averageSpeedMph": 13.3,
      "safetyEvents": [
        {
          "type": "speeding",
          "startMs": 1743846000000,
          "maxSpeedMph": 65.9
        }
      ],
      "_no_driver_login": false,
      "_fuel_note": ""
    },
    {
      "id": "trip_48291015_20250405_004",
      "vehicleId": "48291015",
      "driverId": "22831014",
      "startMs": 1743874860000,
      "endMs": 1743877321935,
      "startLocation": {
        "latitude": 39.778962,
        "longitude": -104.991751
      },
      "endLocation": {
        "latitude": 39.771239,
        "longitude": -105.006521
      },
      "startAddress": "732 James Lodge",
      "endAddress": "6279 Scott Skyway Apt. 810",
      "startCoords": {
        "latitude": 39.753678,
        "longitude": -104.914282
      },
      "endCoords": {
        "latitude": 39.779137,
        "longitude": -105.029486
      },
      "distanceMeters": 16533.6,
      "durationMs": 2461936,
      "drivingDurationMs": 2175032,
      "idlingDurationMs": 286904,
      "fuelConsumedMl": 750,
      "fuelConsumedGallons": 0.198,
      "maxSpeedMph": 67.5,
      "averageSpeedMph": 15.0,
      "safetyEvents": [
        {
          "type": "speeding",
          "startMs": 1743875700000,
          "maxSpeedMph": 67.5
        }
      ],
      "_no_driver_login": false,
      "_fuel_note": ""
    },
    {
      "id": "trip_48291015_20250405_005",
      "vehicleId": "48291015",
      "driverId": "22831014",
      "startMs": 1743844920000,
      "endMs": 1743849091856,
      "startLocation": {
        "latitude": 39.686786,
        "longitude": -104.998195
      },
      "endLocation": {
        "latitude": 39.69572,
        "longitude": -104.994121
      },
      "startAddress": "71007 Thomas Ports Suite 671",
      "endAddress": "68697 Nichols Motorway",
      "startCoords": {
        "latitude": 39.68992,
        "longitude": -105.062777
      },
      "endCoords": {
        "latitude": 39.683885,
        "longitude": -104.941966
      },
      "distanceMeters": 23756.6,
      "durationMs": 4171856,
      "drivingDurationMs": 3816795,
      "idlingDurationMs": 355061,
      "fuelConsumedMl": 1075,
      "fuelConsumedGallons": 0.284,
      "maxSpeedMph": 64.5,
      "averageSpeedMph": 12.7,
      "safetyEvents": [],
      "_no_driver_login": false,
      "_fuel_note": ""
    },
    {
      "id": "trip_48291015_20250405_006",
      "vehicleId": "48291015",
      "driverId": "22831014",
      "startMs": 1743851220000,
      "endMs": 1743852812779,
      "startLocation": {
        "latitude": 39.822524,
        "longitude": -104.99341
      },
      "endLocation": {
        "latitude": 39.827229,
        "longitude": -105.028849
      },
      "startAddress": "2874 Ariana Mount",
      "endAddress": "275 Lindsey Neck",
      "startCoords": {
        "latitude": 39.735968,
        "longitude": -104.987737
      },
      "endCoords": {
        "latitude": 39.719643,
        "longitude": -105.065604
      },
      "distanceMeters": 13055.2,
      "durationMs": 1592779,
      "drivingDurationMs": 1365982,
      "idlingDurationMs": 226797,
      "fuelConsumedMl": 591,
      "fuelConsumedGallons": 0.156,
      "maxSpeedMph": 29.8,
      "averageSpeedMph": 18.3,
      "safetyEvents": [],
      "_no_driver_login": false,
      "_fuel_note": ""
    },
    {
      "id": "trip_48291015_20250405_007",
      "vehicleId": "48291015",
      "driverId": "22831014",
      "startMs": 1743850560000,
      "endMs": 1743854097473,
      "startLocation": {
        "latitude": 39.759859,
        "longitude": -105.062644
      },
      "endLocation": {
        "latitude": 39.788556,
        "longitude": -104.912369
      },
      "startAddress": "535 Ortiz Divide Suite 837",
      "endAddress": "35483 Preston Road Apt. 316",
      "startCoords": {
        "latitude": 39.76973,
        "longitude": -104.994882
      },
      "endCoords": {
        "latitude": 39.803461,
        "longitude": -105.03158
      },
      "distanceMeters": 23953.6,
      "durationMs": 3537473,
      "drivingDurationMs": 3235976,
      "idlingDurationMs": 301497,
      "fuelConsumedMl": 1083,
      "fuelConsumedGallons": 0.286,
      "maxSpeedMph": 60.3,
      "averageSpeedMph": 15.1,
      "safetyEvents": [],
      "_no_driver_login": false,
      "_fuel_note": ""
    },
    {
      "id": "trip_48291015_20250405_008",
      "vehicleId": "48291015",
      "driverId": "22831014",
      "startMs": 1743834240000,
      "endMs": 1743837698680,
      "startLocation": {
        "latitude": 39.786149,
        "longitude": -105.029477
      },
      "endLocation": {
        "latitude": 39.695577,
        "longitude": -104.916265
      },
      "startAddress": "1310 Rocha Forge Suite 122",
      "endAddress": "5420 Johnson Lake Suite 690",
      "startCoords": {
        "latitude": 39.696324,
        "longitude": -105.062989
      },
      "endCoords": {
        "latitude": 39.827188,
        "longitude": -104.973441
      },
      "distanceMeters": 22764.2,
      "durationMs": 3458681,
      "drivingDurationMs": 2810480,
      "idlingDurationMs": 648201,
      "fuelConsumedMl": 1030,
      "fuelConsumedGallons": 0.272,
      "maxSpeedMph": 49.0,
      "averageSpeedMph": 14.7,
      "safetyEvents": [],
      "_no_driver_login": false,
      "_fuel_note": ""
    },
    {
      "id": "trip_48291015_20250405_009",
      "vehicleId": "48291015",
      "driverId": null,
      "startMs": 1743832920000,
      "endMs": 1743833491053,
      "startLocation": {
        "latitude": 39.771563,
        "longitude": -104.955077
      },
      "endLocation": {
        "latitude": 39.799816,
        "longitude": -105.052509
      },
      "startAddress": "819 Robinson Oval Suite 851",
      "endAddress": "47627 James Oval",
      "startCoords": {
        "latitude": 39.820399,
        "longitude": -104.930872
      },
      "endCoords": {
        "latitude": 39.684372,
        "longitude": -105.085186
      },
      "distanceMeters": 3916.3,
      "durationMs": 571053,
      "drivingDurationMs": 421168,
      "idlingDurationMs": 149885,
      "fuelConsumedMl": 178,
      "fuelConsumedGallons": 0.047,
      "maxSpeedMph": 70.6,
      "averageSpeedMph": 15.3,
      "safetyEvents": [
        {
          "type": "speeding",
          "startMs": 1743833220000,
          "maxSpeedMph": 70.6
        }
      ],
      "_no_driver_login": true,
      "_fuel_note": ""
    },
    {
      "id": "trip_48291015_20250405_010",
      "vehicleId": "48291015",
      "driverId": null,
      "startMs": 1743866760000,
      "endMs": 1743869640631,
      "startLocation": {
        "latitude": 39.739276,
        "longitude": -105.081003
      },
      "endLocation": {
        "latitude": 39.694957,
        "longitude": -104.98878
      },
      "startAddress": "83885 Rice Orchard Suite 766",
      "endAddress": "6703 Nicholas Trafficway",
      "startCoords": {
        "latitude": 39.728045,
        "longitude": -104.913616
      },
      "endCoords": {
        "latitude": 39.737458,
        "longitude": -104.934473
      },
      "distanceMeters": 21286.0,
      "durationMs": 2880632,
      "drivingDurationMs": 2388779,
      "idlingDurationMs": 491852,
      "fuelConsumedMl": 961,
      "fuelConsumedGallons": 0.254,
      "maxSpeedMph": 51.2,
      "averageSpeedMph": 16.5,
      "safetyEvents": [],
      "_no_driver_login": true,
      "_fuel_note": ""
    },
    {
      "id": "trip_48291015_20250405_011",
      "vehicleId": "48291015",
      "driverId": null,
      "startMs": 1743846180000,
      "endMs": 1743847308320,
      "startLocation": {
        "latitude": 39.691669,
        "longitude": -104.999516
      },
      "endLocation": {
        "latitude": 39.822411,
        "longitude": -104.955587
      },
      "startAddress": "94452 Salazar Shoals",
      "endAddress": "67479 Jesse Camp Suite 503",
      "startCoords": {
        "latitude": 39.794468,
        "longitude": -105.006771
      },
      "endCoords": {
        "latitude": 39.708701,
        "longitude": -105.036569
      },
      "distanceMeters": 7657.3,
      "durationMs": 1128321,
      "drivingDurationMs": 915059,
      "idlingDurationMs": 213262,
      "fuelConsumedMl": 348,
      "fuelConsumedGallons": 0.092,
      "maxSpeedMph": 57.8,
      "averageSpeedMph": 15.2,
      "safetyEvents": [],
      "_no_driver_login": true,
      "_fuel_note": ""
    },
    {
      "id": "trip_48291015_20250405_012",
      "vehicleId": "48291015",
      "driverId": "22831014",
      "startMs": 1743875880000,
      "endMs": 1743877708580,
      "startLocation": {
        "latitude": 39.730828,
        "longitude": -105.034292
      },
      "endLocation": {
        "latitude": 39.743648,
        "longitude": -105.05022
      },
      "startAddress": "5978 Hunter Summit Suite 947",
      "endAddress": "5142 Richard Place",
      "startCoords": {
        "latitude": 39.694842,
        "longitude": -104.913716
      },
      "endCoords": {
        "latitude": 39.78924,
        "longitude": -104.992287
      },
      "distanceMeters": 13044.6,
      "durationMs": 1828581,
      "drivingDurationMs": 1491293,
      "idlingDurationMs": 337288,
      "fuelConsumedMl": 591,
      "fuelConsumedGallons": 0.156,
      "maxSpeedMph": 29.2,
      "averageSpeedMph": 16.0,
      "safetyEvents": [],
      "_no_driver_login": false,
      "_fuel_note": ""
    },
    {
      "id": "trip_48291015_20250405_013",
      "vehicleId": "48291015",
      "driverId": null,
      "startMs": 1743867420000,
      "endMs": 1743870338138,
      "startLocation": {
        "latitude": 39.801733,
        "longitude": -104.962943
      },
      "endLocation": {
        "latitude": 39.821517,
        "longitude": -104.958278
      },
      "startAddress": "33481 Amanda Mall",
      "endAddress": "578 Hernandez Flat Suite 253",
      "startCoords": {
        "latitude": 39.688309,
        "longitude": -104.980791
      },
      "endCoords": {
        "latitude": 39.821286,
        "longitude": -105.039158
      },
      "distanceMeters": 18819.0,
      "durationMs": 2918138,
      "drivingDurationMs": 2366982,
      "idlingDurationMs": 551157,
      "fuelConsumedMl": 852,
      "fuelConsumedGallons": 0.225,
      "maxSpeedMph": 30.7,
      "averageSpeedMph": 14.4,
      "safetyEvents": [],
      "_no_driver_login": true,
      "_fuel_note": ""
    },
    {
      "id": "trip_48291015_20250405_014",
      "vehicleId": "48291015",
      "driverId": "22831014",
      "startMs": 1743861960000,
      "endMs": 1743864371254,
      "startLocation": {
        "latitude": 39.773336,
        "longitude": -105.067779
      },
      "endLocation": {
        "latitude": 39.776207,
        "longitude": -105.042481
      },
      "startAddress": "480 Lisa Garden",
      "endAddress": "6768 Kaitlyn Fork Apt. 540",
      "startCoords": {
        "latitude": 39.806395,
        "longitude": -105.02275
      },
      "endCoords": {
        "latitude": 39.767149,
        "longitude": -105.016697
      },
      "distanceMeters": 22003.6,
      "durationMs": 2411254,
      "drivingDurationMs": 2133901,
      "idlingDurationMs": 277353,
      "fuelConsumedMl": 996,
      "fuelConsumedGallons": 0.263,
      "maxSpeedMph": 29.9,
      "averageSpeedMph": 20.4,
      "safetyEvents": [],
      "_no_driver_login": false,
      "_fuel_note": ""
    },
    {
      "id": "trip_48291015_20250405_015",
      "vehicleId": "48291015",
      "driverId": "22831014",
      "startMs": 1743843540000,
      "endMs": 1743845871528,
      "startLocation": {
        "latitude": 39.685743,
        "longitude": -104.913649
      },
      "endLocation": {
        "latitude": 39.703806,
        "longitude": -104.961995
      },
      "startAddress": "0779 Michael Parkways Suite 877",
      "endAddress": "747 Anderson Forges",
      "startCoords": {
        "latitude": 39.815983,
        "longitude": -104.944431
      },
      "endCoords": {
        "latitude": 39.786711,
        "longitude": -104.950298
      },
      "distanceMeters": 14732.1,
      "durationMs": 2331528,
      "drivingDurationMs": 1947657,
      "idlingDurationMs": 383872,
      "fuelConsumedMl": 666,
      "fuelConsumedGallons": 0.176,
      "maxSpeedMph": 68.0,
      "averageSpeedMph": 14.1,
      "safetyEvents": [
        {
          "type": "speeding",
          "startMs": 1743844620000,
          "maxSpeedMph": 68.0
        }
      ],
      "_no_driver_login": false,
      "_fuel_note": ""
    },
    {
      "id": "trip_48291015_20250405_016",
      "vehicleId": "48291015",
      "driverId": "22831014",
      "startMs": 1743848940000,
      "endMs": 1743850021177,
      "startLocation": {
        "latitude": 39.690211,
        "longitude": -105.022571
      },
      "endLocation": {
        "latitude": 39.698647,
        "longitude": -105.083844
      },
      "startAddress": "73756 Santos Plain Suite 823",
      "endAddress": "254 Paul Track",
      "startCoords": {
        "latitude": 39.804119,
        "longitude": -105.074561
      },
      "endCoords": {
        "latitude": 39.782285,
        "longitude": -104.929716
      },
      "distanceMeters": 8576.7,
      "durationMs": 1081178,
      "drivingDurationMs": 883838,
      "idlingDurationMs": 197339,
      "fuelConsumedMl": 386,
      "fuelConsumedGallons": 0.102,
      "maxSpeedMph": 40.5,
      "averageSpeedMph": 17.7,
      "safetyEvents": [],
      "_no_driver_login": false,
      "_fuel_note": ""
    },
    {
      "id": "trip_48291015_20250405_017",
      "vehicleId": "48291015",
      "driverId": "22831014",
      "startMs": 1743858240000,
      "endMs": 1743861013145,
      "startLocation": {
        "latitude": 39.748568,
        "longitude": -104.953385
      },
      "endLocation": {
        "latitude": 39.813234,
        "longitude": -105.00682
      },
      "startAddress": "7064 Oneal Trace",
      "endAddress": "33001 Burton Crossroad",
      "startCoords": {
        "latitude": 39.74373,
        "longitude": -104.927214
      },
      "endCoords": {
        "latitude": 39.794275,
        "longitude": -105.015575
      },
      "distanceMeters": 22708.4,
      "durationMs": 2773146,
      "drivingDurationMs": 2400715,
      "idlingDurationMs": 372431,
      "fuelConsumedMl": 1026,
      "fuelConsumedGallons": 0.271,
      "maxSpeedMph": 65.0,
      "averageSpeedMph": 18.3,
      "safetyEvents": [],
      "_no_driver_login": false,
      "_fuel_note": ""
    },
    {
      "id": "trip_48291015_20250407_001",
      "vehicleId": "48291015",
      "driverId": "22831014",
      "startMs": 1744012080000,
      "endMs": 1744014731719,
      "startLocation": {
        "latitude": 39.81725,
        "longitude": -104.931362
      },
      "endLocation": {
        "latitude": 39.718807,
        "longitude": -105.027407
      },
      "startAddress": "77136 Cole Brook Apt. 757",
      "endAddress": "1558 Ibarra Mall",
      "startCoords": {
        "latitude": 39.776265,
        "longitude": -105.05309
      },
      "endCoords": {
        "latitude": 39.71872,
        "longitude": -104.994878
      },
      "distanceMeters": 20834.4,
      "durationMs": 2651720,
      "drivingDurationMs": 2361171,
      "idlingDurationMs": 290549,
      "fuelConsumedMl": 943,
      "fuelConsumedGallons": 0.249,
      "maxSpeedMph": 40.4,
      "averageSpeedMph": 17.6,
      "safetyEvents": [],
      "_no_driver_login": false,
      "_fuel_note": "QUIRK 5: fuelConsumedGallons is in US gallons. Multiply by 3.785 for litres. Samsara does not link fuel to specific Onfleet tasks."
    },
    {
      "id": "trip_48291015_20250407_002",
      "vehicleId": "48291015",
      "driverId": "22831014",
      "startMs": 1744046880000,
      "endMs": 1744048785785,
      "startLocation": {
        "latitude": 39.816981,
        "longitude": -104.965283
      },
      "endLocation": {
        "latitude": 39.789856,
        "longitude": -104.986931
      },
      "startAddress": "32094 Fritz Walks",
      "endAddress": "10363 Jessica Highway Apt. 589",
      "startCoords": {
        "latitude": 39.7655,
        "longitude": -105.034391
      },
      "endCoords": {
        "latitude": 39.710841,
        "longitude": -104.913854
      },
      "distanceMeters": 17984.4,
      "durationMs": 1905786,
      "drivingDurationMs": 1707964,
      "idlingDurationMs": 197821,
      "fuelConsumedMl": 814,
      "fuelConsumedGallons": 0.215,
      "maxSpeedMph": 37.4,
      "averageSpeedMph": 21.1,
      "safetyEvents": [],
      "_no_driver_login": false,
      "_fuel_note": ""
    },
    {
      "id": "trip_48291015_20250407_003",
      "vehicleId": "48291015",
      "driverId": "22831014",
      "startMs": 1744016520000,
      "endMs": 1744017395643,
      "startLocation": {
        "latitude": 39.724682,
        "longitude": -104.959493
      },
      "endLocation": {
        "latitude": 39.750473,
        "longitude": -105.015655
      },
      "startAddress": "300 Bowman Garden Apt. 650",
      "endAddress": "6036 Dennis Groves",
      "startCoords": {
        "latitude": 39.790423,
        "longitude": -104.998303
      },
      "endCoords": {
        "latitude": 39.686401,
        "longitude": -104.906769
      },
      "distanceMeters": 6642.5,
      "durationMs": 875644,
      "drivingDurationMs": 696247,
      "idlingDurationMs": 179396,
      "fuelConsumedMl": 299,
      "fuelConsumedGallons": 0.079,
      "maxSpeedMph": 48.1,
      "averageSpeedMph": 17.0,
      "safetyEvents": [],
      "_no_driver_login": false,
      "_fuel_note": ""
    },
    {
      "id": "trip_48291015_20250407_004",
      "vehicleId": "48291015",
      "driverId": "22831014",
      "startMs": 1744016880000,
      "endMs": 1744019210595,
      "startLocation": {
        "latitude": 39.767614,
        "longitude": -105.055495
      },
      "endLocation": {
        "latitude": 39.756861,
        "longitude": -104.92873
      },
      "startAddress": "24987 Jackson Harbor",
      "endAddress": "778 Amanda Via",
      "startCoords": {
        "latitude": 39.753711,
        "longitude": -104.928136
      },
      "endCoords": {
        "latitude": 39.804957,
        "longitude": -105.018426
      },
      "distanceMeters": 21485.6,
      "durationMs": 2330595,
      "drivingDurationMs": 2092766,
      "idlingDurationMs": 237830,
      "fuelConsumedMl": 973,
      "fuelConsumedGallons": 0.257,
      "maxSpeedMph": 28.1,
      "averageSpeedMph": 20.6,
      "safetyEvents": [],
      "_no_driver_login": false,
      "_fuel_note": ""
    },
    {
      "id": "trip_48291015_20250407_005",
      "vehicleId": "48291015",
      "driverId": "22831014",
      "startMs": 1744012320000,
      "endMs": 1744015122046,
      "startLocation": {
        "latitude": 39.794305,
        "longitude": -105.067472
      },
      "endLocation": {
        "latitude": 39.7236,
        "longitude": -105.049636
      },
      "startAddress": "071 Kelly Alley Suite 491",
      "endAddress": "74256 Shelly Views Suite 887",
      "startCoords": {
        "latitude": 39.739821,
        "longitude": -105.061043
      },
      "endCoords": {
        "latitude": 39.77807,
        "longitude": -104.956639
      },
      "distanceMeters": 15386.4,
      "durationMs": 2802047,
      "drivingDurationMs": 2339434,
      "idlingDurationMs": 462613,
      "fuelConsumedMl": 697,
      "fuelConsumedGallons": 0.184,
      "maxSpeedMph": 57.8,
      "averageSpeedMph": 12.3,
      "safetyEvents": [],
      "_no_driver_login": false,
      "_fuel_note": ""
    },
    {
      "id": "trip_48291015_20250407_006",
      "vehicleId": "48291015",
      "driverId": "22831014",
      "startMs": 1744042500000,
      "endMs": 1744045879687,
      "startLocation": {
        "latitude": 39.738109,
        "longitude": -104.947416
      },
      "endLocation": {
        "latitude": 39.684849,
        "longitude": -104.971649
      },
      "startAddress": "12379 Johnson Falls Apt. 271",
      "endAddress": "72239 Edward Ferry Suite 553",
      "startCoords": {
        "latitude": 39.797439,
        "longitude": -104.934319
      },
      "endCoords": {
        "latitude": 39.698092,
        "longitude": -105.027657
      },
      "distanceMeters": 22560.7,
      "durationMs": 3379687,
      "drivingDurationMs": 2892444,
      "idlingDurationMs": 487243,
      "fuelConsumedMl": 1022,
      "fuelConsumedGallons": 0.27,
      "maxSpeedMph": 62.0,
      "averageSpeedMph": 14.9,
      "safetyEvents": [],
      "_no_driver_login": false,
      "_fuel_note": ""
    },
    {
      "id": "trip_48291015_20250408_001",
      "vehicleId": "48291015",
      "driverId": "22831014",
      "startMs": 1744101900000,
      "endMs": 1744104394046,
      "startLocation": {
        "latitude": 39.722176,
        "longitude": -104.991662
      },
      "endLocation": {
        "latitude": 39.809175,
        "longitude": -105.018776
      },
      "startAddress": "15147 Austin Lane Apt. 944",
      "endAddress": "246 Jennifer Summit",
      "startCoords": {
        "latitude": 39.734502,
        "longitude": -104.974379
      },
      "endCoords": {
        "latitude": 39.784234,
        "longitude": -105.050943
      },
      "distanceMeters": 15947.0,
      "durationMs": 2494047,
      "drivingDurationMs": 2154487,
      "idlingDurationMs": 339560,
      "fuelConsumedMl": 723,
      "fuelConsumedGallons": 0.191,
      "maxSpeedMph": 43.0,
      "averageSpeedMph": 14.3,
      "safetyEvents": [],
      "_no_driver_login": false,
      "_fuel_note": "QUIRK 5: fuelConsumedGallons is in US gallons. Multiply by 3.785 for litres. Samsara does not link fuel to specific Onfleet tasks."
    },
    {
      "id": "trip_48291015_20250408_002",
      "vehicleId": "48291015",
      "driverId": "22831014",
      "startMs": 1744138560000,
      "endMs": 1744141420490,
      "startLocation": {
        "latitude": 39.706221,
        "longitude": -105.034321
      },
      "endLocation": {
        "latitude": 39.743547,
        "longitude": -105.036157
      },
      "startAddress": "020 Tracey Lane",
      "endAddress": "7095 Russell Ridges Suite 867",
      "startCoords": {
        "latitude": 39.805985,
        "longitude": -105.026055
      },
      "endCoords": {
        "latitude": 39.825825,
        "longitude": -104.909632
      },
      "distanceMeters": 21642.5,
      "durationMs": 2860490,
      "drivingDurationMs": 2546149,
      "idlingDurationMs": 314341,
      "fuelConsumedMl": 980,
      "fuelConsumedGallons": 0.259,
      "maxSpeedMph": 47.9,
      "averageSpeedMph": 16.9,
      "safetyEvents": [],
      "_no_driver_login": false,
      "_fuel_note": ""
    },
    {
      "id": "trip_48291015_20250408_003",
      "vehicleId": "48291015",
      "driverId": "22831014",
      "startMs": 1744119660000,
      "endMs": 1744121426707,
      "startLocation": {
        "latitude": 39.732143,
        "longitude": -104.974521
      },
      "endLocation": {
        "latitude": 39.789441,
        "longitude": -105.021472
      },
      "startAddress": "13365 Boyle Alley",
      "endAddress": "67554 Ball Drives Suite 087",
      "startCoords": {
        "latitude": 39.716301,
        "longitude": -104.975062
      },
      "endCoords": {
        "latitude": 39.772282,
        "longitude": -105.004089
      },
      "distanceMeters": 15473.2,
      "durationMs": 1766707,
      "drivingDurationMs": 1468599,
      "idlingDurationMs": 298108,
      "fuelConsumedMl": 700,
      "fuelConsumedGallons": 0.185,
      "maxSpeedMph": 55.2,
      "averageSpeedMph": 19.6,
      "safetyEvents": [],
      "_no_driver_login": false,
      "_fuel_note": ""
    },
    {
      "id": "trip_48291015_20250408_004",
      "vehicleId": "48291015",
      "driverId": "22831014",
      "startMs": 1744128240000,
      "endMs": 1744130873468,
      "startLocation": {
        "latitude": 39.810431,
        "longitude": -104.995121
      },
      "endLocation": {
        "latitude": 39.800892,
        "longitude": -104.943464
      },
      "startAddress": "305 Lopez Mountains",
      "endAddress": "335 Frank Cove Apt. 669",
      "startCoords": {
        "latitude": 39.786331,
        "longitude": -104.941714
      },
      "endCoords": {
        "latitude": 39.805122,
        "longitude": -105.087648
      },
      "distanceMeters": 18584.8,
      "durationMs": 2633468,
      "drivingDurationMs": 2388937,
      "idlingDurationMs": 244531,
      "fuelConsumedMl": 840,
      "fuelConsumedGallons": 0.222,
      "maxSpeedMph": 47.2,
      "averageSpeedMph": 15.8,
      "safetyEvents": [],
      "_no_driver_login": false,
      "_fuel_note": ""
    },
    {
      "id": "trip_48291015_20250408_005",
      "vehicleId": "48291015",
      "driverId": "22831014",
      "startMs": 1744138200000,
      "endMs": 1744138676572,
      "startLocation": {
        "latitude": 39.816423,
        "longitude": -104.96041
      },
      "endLocation": {
        "latitude": 39.729635,
        "longitude": -105.006152
      },
      "startAddress": "344 Williamson Glen",
      "endAddress": "172 Martin Pass Apt. 297",
      "startCoords": {
        "latitude": 39.706133,
        "longitude": -104.915263
      },
      "endCoords": {
        "latitude": 39.811744,
        "longitude": -105.051786
      },
      "distanceMeters": 2648.8,
      "durationMs": 476572,
      "drivingDurationMs": 358646,
      "idlingDurationMs": 117926,
      "fuelConsumedMl": 121,
      "fuelConsumedGallons": 0.032,
      "maxSpeedMph": 37.3,
      "averageSpeedMph": 12.4,
      "safetyEvents": [],
      "_no_driver_login": false,
      "_fuel_note": ""
    },
    {
      "id": "trip_48291015_20250408_006",
      "vehicleId": "48291015",
      "driverId": "22831014",
      "startMs": 1744123380000,
      "endMs": 1744125391596,
      "startLocation": {
        "latitude": 39.698603,
        "longitude": -105.023478
      },
      "endLocation": {
        "latitude": 39.799594,
        "longitude": -104.99892
      },
      "startAddress": "8287 Jacob Extension Apt. 967",
      "endAddress": "92277 Gonzales Mission Apt. 388",
      "startCoords": {
        "latitude": 39.797086,
        "longitude": -104.996377
      },
      "endCoords": {
        "latitude": 39.800739,
        "longitude": -104.999437
      },
      "distanceMeters": 12394.1,
      "durationMs": 2011597,
      "drivingDurationMs": 1615645,
      "idlingDurationMs": 395952,
      "fuelConsumedMl": 560,
      "fuelConsumedGallons": 0.148,
      "maxSpeedMph": 65.4,
      "averageSpeedMph": 13.8,
      "safetyEvents": [
        {
          "type": "speeding",
          "startMs": 1744124580000,
          "maxSpeedMph": 65.4
        }
      ],
      "_no_driver_login": false,
      "_fuel_note": ""
    },
    {
      "id": "trip_48291015_20250408_007",
      "vehicleId": "48291015",
      "driverId": "22831014",
      "startMs": 1744134540000,
      "endMs": 1744135666284,
      "startLocation": {
        "latitude": 39.762986,
        "longitude": -104.952243
      },
      "endLocation": {
        "latitude": 39.705453,
        "longitude": -104.946982
      },
      "startAddress": "47218 Andrew Tunnel",
      "endAddress": "041 Douglas Overpass Apt. 181",
      "startCoords": {
        "latitude": 39.781862,
        "longitude": -105.035086
      },
      "endCoords": {
        "latitude": 39.741304,
        "longitude": -105.073396
      },
      "distanceMeters": 6688.1,
      "durationMs": 1126285,
      "drivingDurationMs": 921821,
      "idlingDurationMs": 204464,
      "fuelConsumedMl": 303,
      "fuelConsumedGallons": 0.08,
      "maxSpeedMph": 69.9,
      "averageSpeedMph": 13.3,
      "safetyEvents": [
        {
          "type": "speeding",
          "startMs": 1744135500000,
          "maxSpeedMph": 69.9
        }
      ],
      "_no_driver_login": false,
      "_fuel_note": ""
    },
    {
      "id": "trip_48291015_20250408_008",
      "vehicleId": "48291015",
      "driverId": "22831014",
      "startMs": 1744124820000,
      "endMs": 1744126620436,
      "startLocation": {
        "latitude": 39.686455,
        "longitude": -105.01916
      },
      "endLocation": {
        "latitude": 39.800066,
        "longitude": -105.004792
      },
      "startAddress": "2531 James Mountain",
      "endAddress": "1354 Maldonado Station Suite 652",
      "startCoords": {
        "latitude": 39.749553,
        "longitude": -104.911584
      },
      "endCoords": {
        "latitude": 39.686254,
        "longitude": -105.056547
      },
      "distanceMeters": 12819.4,
      "durationMs": 1800436,
      "drivingDurationMs": 1603218,
      "idlingDurationMs": 197218,
      "fuelConsumedMl": 579,
      "fuelConsumedGallons": 0.153,
      "maxSpeedMph": 31.6,
      "averageSpeedMph": 15.9,
      "safetyEvents": [],
      "_no_driver_login": false,
      "_fuel_note": ""
    },
    {
      "id": "trip_48291015_20250408_009",
      "vehicleId": "48291015",
      "driverId": null,
      "startMs": 1744110480000,
      "endMs": 1744111519178,
      "startLocation": {
        "latitude": 39.780136,
        "longitude": -104.974413
      },
      "endLocation": {
        "latitude": 39.734665,
        "longitude": -104.958701
      },
      "startAddress": "75840 Cole Overpass Apt. 894",
      "endAddress": "440 Gillespie Meadow Suite 245",
      "startCoords": {
        "latitude": 39.818843,
        "longitude": -104.916839
      },
      "endCoords": {
        "latitude": 39.779139,
        "longitude": -105.006579
      },
      "distanceMeters": 7088.6,
      "durationMs": 1039178,
      "drivingDurationMs": 834652,
      "idlingDurationMs": 204526,
      "fuelConsumedMl": 322,
      "fuelConsumedGallons": 0.085,
      "maxSpeedMph": 28.9,
      "averageSpeedMph": 15.3,
      "safetyEvents": [],
      "_no_driver_login": true,
      "_fuel_note": ""
    },
    {
      "id": "trip_48291015_20250408_010",
      "vehicleId": "48291015",
      "driverId": "22831014",
      "startMs": 1744105140000,
      "endMs": 1744106647648,
      "startLocation": {
        "latitude": 39.684922,
        "longitude": -105.074811
      },
      "endLocation": {
        "latitude": 39.81961,
        "longitude": -105.039773
      },
      "startAddress": "794 Davis Pines Apt. 782",
      "endAddress": "13026 Fitzgerald Haven",
      "startCoords": {
        "latitude": 39.766012,
        "longitude": -104.903866
      },
      "endCoords": {
        "latitude": 39.789955,
        "longitude": -105.050757
      },
      "distanceMeters": 10681.2,
      "durationMs": 1507649,
      "drivingDurationMs": 1219841,
      "idlingDurationMs": 287808,
      "fuelConsumedMl": 485,
      "fuelConsumedGallons": 0.128,
      "maxSpeedMph": 45.2,
      "averageSpeedMph": 15.8,
      "safetyEvents": [],
      "_no_driver_login": false,
      "_fuel_note": ""
    },
    {
      "id": "trip_48291015_20250408_011",
      "vehicleId": "48291015",
      "driverId": "22831014",
      "startMs": 1744128660000,
      "endMs": 1744130592747,
      "startLocation": {
        "latitude": 39.781876,
        "longitude": -104.911097
      },
      "endLocation": {
        "latitude": 39.793386,
        "longitude": -104.969231
      },
      "startAddress": "390 Williams Ferry",
      "endAddress": "242 Hannah Station Suite 226",
      "startCoords": {
        "latitude": 39.727545,
        "longitude": -105.072168
      },
      "endCoords": {
        "latitude": 39.819015,
        "longitude": -105.071007
      },
      "distanceMeters": 16733.6,
      "durationMs": 1932747,
      "drivingDurationMs": 1680265,
      "idlingDurationMs": 252482,
      "fuelConsumedMl": 757,
      "fuelConsumedGallons": 0.2,
      "maxSpeedMph": 55.8,
      "averageSpeedMph": 19.4,
      "safetyEvents": [],
      "_no_driver_login": false,
      "_fuel_note": ""
    },
    {
      "id": "trip_48291015_20250408_012",
      "vehicleId": "48291015",
      "driverId": "22831014",
      "startMs": 1744108440000,
      "endMs": 1744110574180,
      "startLocation": {
        "latitude": 39.686156,
        "longitude": -105.08683
      },
      "endLocation": {
        "latitude": 39.740919,
        "longitude": -104.93758
      },
      "startAddress": "275 Harrison Islands Apt. 117",
      "endAddress": "308 Holly Neck Apt. 849",
      "startCoords": {
        "latitude": 39.807588,
        "longitude": -104.974413
      },
      "endCoords": {
        "latitude": 39.791898,
        "longitude": -104.981277
      },
      "distanceMeters": 16699.7,
      "durationMs": 2134180,
      "drivingDurationMs": 1910433,
      "idlingDurationMs": 223748,
      "fuelConsumedMl": 757,
      "fuelConsumedGallons": 0.2,
      "maxSpeedMph": 42.2,
      "averageSpeedMph": 17.5,
      "safetyEvents": [],
      "_no_driver_login": false,
      "_fuel_note": ""
    },
    {
      "id": "trip_48291015_20250408_013",
      "vehicleId": "48291015",
      "driverId": "22831014",
      "startMs": 1744106100000,
      "endMs": 1744109476502,
      "startLocation": {
        "latitude": 39.684281,
        "longitude": -104.959257
      },
      "endLocation": {
        "latitude": 39.788844,
        "longitude": -104.917049
      },
      "startAddress": "7440 Keith Rapids Apt. 584",
      "endAddress": "82949 Jose Fords Apt. 970",
      "startCoords": {
        "latitude": 39.749301,
        "longitude": -104.933134
      },
      "endCoords": {
        "latitude": 39.695084,
        "longitude": -104.998362
      },
      "distanceMeters": 23948.5,
      "durationMs": 3376503,
      "drivingDurationMs": 3196013,
      "idlingDurationMs": 180490,
      "fuelConsumedMl": 1083,
      "fuelConsumedGallons": 0.286,
      "maxSpeedMph": 40.8,
      "averageSpeedMph": 15.9,
      "safetyEvents": [],
      "_no_driver_login": false,
      "_fuel_note": ""
    },
    {
      "id": "trip_48291015_20250408_014",
      "vehicleId": "48291015",
      "driverId": "22831014",
      "startMs": 1744094460000,
      "endMs": 1744095809029,
      "startLocation": {
        "latitude": 39.79812,
        "longitude": -104.946042
      },
      "endLocation": {
        "latitude": 39.72684,
        "longitude": -104.927316
      },
      "startAddress": "974 Sanchez Canyon",
      "endAddress": "20725 Howell Knolls Suite 322",
      "startCoords": {
        "latitude": 39.701127,
        "longitude": -104.997575
      },
      "endCoords": {
        "latitude": 39.782672,
        "longitude": -104.972278
      },
      "distanceMeters": 9268.5,
      "durationMs": 1349029,
      "drivingDurationMs": 1148514,
      "idlingDurationMs": 200515,
      "fuelConsumedMl": 420,
      "fuelConsumedGallons": 0.111,
      "maxSpeedMph": 50.0,
      "averageSpeedMph": 15.4,
      "safetyEvents": [],
      "_no_driver_login": false,
      "_fuel_note": ""
    },
    {
      "id": "trip_48291015_20250408_015",
      "vehicleId": "48291015",
      "driverId": "22831014",
      "startMs": 1744119900000,
      "endMs": 1744121887731,
      "startLocation": {
        "latitude": 39.692588,
        "longitude": -104.921647
      },
      "endLocation": {
        "latitude": 39.795202,
        "longitude": -105.086565
      },
      "startAddress": "9766 Webb Inlet",
      "endAddress": "115 Sparks Haven Suite 802",
      "startCoords": {
        "latitude": 39.792242,
        "longitude": -105.069173
      },
      "endCoords": {
        "latitude": 39.692007,
        "longitude": -105.038074
      },
      "distanceMeters": 11075.6,
      "durationMs": 1987732,
      "drivingDurationMs": 1789388,
      "idlingDurationMs": 198343,
      "fuelConsumedMl": 500,
      "fuelConsumedGallons": 0.132,
      "maxSpeedMph": 29.4,
      "averageSpeedMph": 12.5,
      "safetyEvents": [],
      "_no_driver_login": false,
      "_fuel_note": ""
    },
    {
      "id": "trip_48291015_20250408_016",
      "vehicleId": "48291015",
      "driverId": "22831014",
      "startMs": 1744098660000,
      "endMs": 1744101615551,
      "startLocation": {
        "latitude": 39.752168,
        "longitude": -105.051351
      },
      "endLocation": {
        "latitude": 39.803392,
        "longitude": -104.941513
      },
      "startAddress": "0185 Guerrero Court Suite 971",
      "endAddress": "854 Victoria Island",
      "startCoords": {
        "latitude": 39.822235,
        "longitude": -105.061513
      },
      "endCoords": {
        "latitude": 39.81485,
        "longitude": -105.063741
      },
      "distanceMeters": 23782.0,
      "durationMs": 2955552,
      "drivingDurationMs": 2494738,
      "idlingDurationMs": 460814,
      "fuelConsumedMl": 1075,
      "fuelConsumedGallons": 0.284,
      "maxSpeedMph": 59.1,
      "averageSpeedMph": 18.0,
      "safetyEvents": [],
      "_no_driver_login": false,
      "_fuel_note": ""
    },
    {
      "id": "trip_48291015_20250408_017",
      "vehicleId": "48291015",
      "driverId": "22831014",
      "startMs": 1744101720000,
      "endMs": 1744104016716,
      "startLocation": {
        "latitude": 39.767802,
        "longitude": -105.021293
      },
      "endLocation": {
        "latitude": 39.703392,
        "longitude": -104.958423
      },
      "startAddress": "909 Arnold Trace Suite 060",
      "endAddress": "16748 Jacob Ways",
      "startCoords": {
        "latitude": 39.721576,
        "longitude": -105.007138
      },
      "endCoords": {
        "latitude": 39.804387,
        "longitude": -105.031798
      },
      "distanceMeters": 14354.1,
      "durationMs": 2296716,
      "drivingDurationMs": 2033452,
      "idlingDurationMs": 263264,
      "fuelConsumedMl": 651,
      "fuelConsumedGallons": 0.172,
      "maxSpeedMph": 36.8,
      "averageSpeedMph": 14.0,
      "safetyEvents": [],
      "_no_driver_login": false,
      "_fuel_note": ""
    },
    {
      "id": "trip_48291015_20250408_018",
      "vehicleId": "48291015",
      "driverId": "22831014",
      "startMs": 1744107060000,
      "endMs": 1744109671323,
      "startLocation": {
        "latitude": 39.76463,
        "longitude": -105.015658
      },
      "endLocation": {
        "latitude": 39.817927,
        "longitude": -104.978177
      },
      "startAddress": "75910 Diana Hollow",
      "endAddress": "2806 Shane Stravenue Suite 742",
      "startCoords": {
        "latitude": 39.814685,
        "longitude": -105.040262
      },
      "endCoords": {
        "latitude": 39.710223,
        "longitude": -104.938519
      },
      "distanceMeters": 22735.9,
      "durationMs": 2611323,
      "drivingDurationMs": 2208842,
      "idlingDurationMs": 402481,
      "fuelConsumedMl": 1030,
      "fuelConsumedGallons": 0.272,
      "maxSpeedMph": 46.8,
      "averageSpeedMph": 19.5,
      "safetyEvents": [],
      "_no_driver_login": false,
      "_fuel_note": ""
    },
    {
      "id": "trip_48291015_20250409_001",
      "vehicleId": "48291015",
      "driverId": "22831014",
      "startMs": 1744205460000,
      "endMs": 1744206927692,
      "startLocation": {
        "latitude": 39.787223,
        "longitude": -105.014979
      },
      "endLocation": {
        "latitude": 39.745778,
        "longitude": -104.901
      },
      "startAddress": "5939 Carter Ramp",
      "endAddress": "7839 Mooney Cape",
      "startCoords": {
        "latitude": 39.823477,
        "longitude": -105.033622
      },
      "endCoords": {
        "latitude": 39.75313,
        "longitude": -105.015488
      },
      "distanceMeters": 13203.2,
      "durationMs": 1467692,
      "drivingDurationMs": 1271999,
      "idlingDurationMs": 195693,
      "fuelConsumedMl": 598,
      "fuelConsumedGallons": 0.158,
      "maxSpeedMph": 68.4,
      "averageSpeedMph": 20.1,
      "safetyEvents": [
        {
          "type": "speeding",
          "startMs": 1744206540000,
          "maxSpeedMph": 68.4
        }
      ],
      "_no_driver_login": false,
      "_fuel_note": "QUIRK 5: fuelConsumedGallons is in US gallons. Multiply by 3.785 for litres. Samsara does not link fuel to specific Onfleet tasks."
    },
    {
      "id": "trip_48291015_20250409_002",
      "vehicleId": "48291015",
      "driverId": "22831014",
      "startMs": 1744199100000,
      "endMs": 1744201158510,
      "startLocation": {
        "latitude": 39.715303,
        "longitude": -105.045592
      },
      "endLocation": {
        "latitude": 39.760689,
        "longitude": -105.078323
      },
      "startAddress": "286 Riggs Inlet Suite 925",
      "endAddress": "786 Willis Cliffs",
      "startCoords": {
        "latitude": 39.693733,
        "longitude": -105.043365
      },
      "endCoords": {
        "latitude": 39.822092,
        "longitude": -104.998815
      },
      "distanceMeters": 15959.8,
      "durationMs": 2058511,
      "drivingDurationMs": 1816821,
      "idlingDurationMs": 241690,
      "fuelConsumedMl": 723,
      "fuelConsumedGallons": 0.191,
      "maxSpeedMph": 70.7,
      "averageSpeedMph": 17.3,
      "safetyEvents": [
        {
          "type": "speeding",
          "startMs": 1744199460000,
          "maxSpeedMph": 70.7
        }
      ],
      "_no_driver_login": false,
      "_fuel_note": ""
    },
    {
      "id": "trip_48291015_20250409_003",
      "vehicleId": "48291015",
      "driverId": "22831014",
      "startMs": 1744193520000,
      "endMs": 1744194626737,
      "startLocation": {
        "latitude": 39.747587,
        "longitude": -104.997285
      },
      "endLocation": {
        "latitude": 39.77523,
        "longitude": -104.961079
      },
      "startAddress": "6401 Velez Greens",
      "endAddress": "370 Linda Circle",
      "startCoords": {
        "latitude": 39.809345,
        "longitude": -104.966733
      },
      "endCoords": {
        "latitude": 39.720955,
        "longitude": -105.084404
      },
      "distanceMeters": 9694.2,
      "durationMs": 1106737,
      "drivingDurationMs": 920542,
      "idlingDurationMs": 186195,
      "fuelConsumedMl": 439,
      "fuelConsumedGallons": 0.116,
      "maxSpeedMph": 66.5,
      "averageSpeedMph": 19.6,
      "safetyEvents": [
        {
          "type": "speeding",
          "startMs": 1744194120000,
          "maxSpeedMph": 66.5
        }
      ],
      "_no_driver_login": false,
      "_fuel_note": ""
    },
    {
      "id": "trip_48291015_20250409_004",
      "vehicleId": "48291015",
      "driverId": "22831014",
      "startMs": 1744189260000,
      "endMs": 1744191057027,
      "startLocation": {
        "latitude": 39.728798,
        "longitude": -105.075363
      },
      "endLocation": {
        "latitude": 39.796941,
        "longitude": -105.023388
      },
      "startAddress": "4012 Wolfe Crest",
      "endAddress": "02491 Barbara Motorway Suite 286",
      "startCoords": {
        "latitude": 39.82282,
        "longitude": -105.036541
      },
      "endCoords": {
        "latitude": 39.692917,
        "longitude": -104.93295
      },
      "distanceMeters": 13780.0,
      "durationMs": 1797027,
      "drivingDurationMs": 1561361,
      "idlingDurationMs": 235666,
      "fuelConsumedMl": 625,
      "fuelConsumedGallons": 0.165,
      "maxSpeedMph": 36.9,
      "averageSpeedMph": 17.2,
      "safetyEvents": [],
      "_no_driver_login": false,
      "_fuel_note": ""
    },
    {
      "id": "trip_48291015_20250409_005",
      "vehicleId": "48291015",
      "driverId": "22831014",
      "startMs": 1744179480000,
      "endMs": 1744184382359,
      "startLocation": {
        "latitude": 39.777351,
        "longitude": -105.001461
      },
      "endLocation": {
        "latitude": 39.809572,
        "longitude": -105.082059
      },
      "startAddress": "17078 Natasha Cove Suite 571",
      "endAddress": "890 Briggs Ramp",
      "startCoords": {
        "latitude": 39.720425,
        "longitude": -105.079564
      },
      "endCoords": {
        "latitude": 39.74106,
        "longitude": -104.935521
      },