{
  "vehicleId": "40426209",
  "vehicleName": "DEN-BOX-02",
  "month": "2025_04",
  "pagination": {
    "endCursor": "trip_40426209_20250430_001",
    "hasNextPage": false
  },
  "trips": [
    {
      "id": "trip_40426209_20250401_001",
      "vehicleId": "40426209",
      "driverId": "20000004",
      "startMs": 1743510420000,
      "endMs": 1743513896661,
      "startAddress": "564 Burton Canyon",
      "endAddress": "89705 Timothy Stravenue Apt. 919",
      "startCoords": {
        "latitude": 39.717036,
        "longitude": -104.971175
      },
      "endCoords": {
        "latitude": 39.826495,
        "longitude": -104.942887
      },
      "distanceMeters": 40310.4,
      "durationMs": 3476662,
      "drivingDurationMs": 2957441,
      "idlingDurationMs": 519220,
      "fuelConsumedMl": 9028,
      "fuelConsumedGallons": 2.385,
      "maxSpeedMph": 70.5,
      "averageSpeedMph": 25.9,
      "safetyEvents": [
        {
          "type": "speeding",
          "startMs": 1743512160000,
          "maxSpeedMph": 70.5
        }
      ]
    },
    {
      "id": "trip_40426209_20250402_001",
      "vehicleId": "40426209",
      "driverId": null,
      "startMs": 1743601920000,
      "endMs": 1743606106756,
      "startAddress": "217 Hunt Lane",
      "endAddress": "002 Susan Terrace Suite 279",
      "startCoords": {
        "latitude": 39.819113,
        "longitude": -105.049409
      },
      "endCoords": {
        "latitude": 39.686398,
        "longitude": -104.935341
      },
      "distanceMeters": 52292.9,
      "durationMs": 4186756,
      "drivingDurationMs": 3747601,
      "idlingDurationMs": 439156,
      "fuelConsumedMl": 11716,
      "fuelConsumedGallons": 3.095,
      "maxSpeedMph": 33.9,
      "averageSpeedMph": 27.9,
      "safetyEvents": []
    },
    {
      "id": "trip_40426209_20250403_001",
      "vehicleId": "40426209",
      "driverId": "20000014",
      "startMs": 1743668160000,
      "endMs": 1743681413409,
      "startAddress": "350 Mclean Spur Apt. 649",
      "endAddress": "91470 Gonzalez River",
      "startCoords": {
        "latitude": 39.794861,
        "longitude": -104.912608
      },
      "endCoords": {
        "latitude": 39.804498,
        "longitude": -105.055157
      },
      "distanceMeters": 157974.8,
      "durationMs": 13253409,
      "drivingDurationMs": 11258877,
      "idlingDurationMs": 1994533,
      "fuelConsumedMl": 35390,
      "fuelConsumedGallons": 9.349,
      "maxSpeedMph": 38.4,
      "averageSpeedMph": 26.7,
      "safetyEvents": []
    },
    {
      "id": "trip_40426209_20250404_001",
      "vehicleId": "40426209",
      "driverId": "20000022",
      "startMs": 1743780780000,
      "endMs": 1743794728994,
      "startAddress": "1585 Mitchell Expressway Suite 868",
      "endAddress": "0757 Melanie Ville",
      "startCoords": {
        "latitude": 39.822031,
        "longitude": -105.034705
      },
      "endCoords": {
        "latitude": 39.697037,
        "longitude": -104.944921
      },
      "distanceMeters": 155866.4,
      "durationMs": 13948994,
      "drivingDurationMs": 13302918,
      "idlingDurationMs": 646076,
      "fuelConsumedMl": 34917,
      "fuelConsumedGallons": 9.224,
      "maxSpeedMph": 68.3,
      "averageSpeedMph": 25.0,
      "safetyEvents": [
        {
          "type": "speeding",
          "startMs": 1743786840000,
          "maxSpeedMph": 68.3
        }
      ]
    },
    {
      "id": "trip_40426209_20250405_001",
      "vehicleId": "40426209",
      "driverId": "20000009",
      "startMs": 1743856740000,
      "endMs": 1743875775283,
      "startAddress": "3852 Audrey Grove Suite 286",
      "endAddress": "50146 Reyes Fields",
      "startCoords": {
        "latitude": 39.705197,
        "longitude": -104.912778
      },
      "endCoords": {
        "latitude": 39.710323,
        "longitude": -105.054821
      },
      "distanceMeters": 195398.8,
      "durationMs": 19035283,
      "drivingDurationMs": 16567950,
      "idlingDurationMs": 2467334,
      "fuelConsumedMl": 43771,
      "fuelConsumedGallons": 11.563,
      "maxSpeedMph": 29.2,
      "averageSpeedMph": 23.0,
      "safetyEvents": []
    },
    {
      "id": "trip_40426209_20250407_001",
      "vehicleId": "40426209",
      "driverId": "20000012",
      "startMs": 1744027020000,
      "endMs": 1744030104786,
      "startAddress": "8608 Brett Meadows",
      "endAddress": "517 Morgan Corner",
      "startCoords": {
        "latitude": 39.759692,
        "longitude": -104.928262
      },
      "endCoords": {
        "latitude": 39.721481,
        "longitude": -105.043053
      },
      "distanceMeters": 36669.7,
      "durationMs": 3084787,
      "drivingDurationMs": 2496955,
      "idlingDurationMs": 587832,
      "fuelConsumedMl": 8214,
      "fuelConsumedGallons": 2.17,
      "maxSpeedMph": 39.8,
      "averageSpeedMph": 26.6,
      "safetyEvents": []
    },
    {
      "id": "trip_40426209_20250408_001",
      "vehicleId": "40426209",
      "driverId": "20000013",
      "startMs": 1744117500000,
      "endMs": 1744127481705,
      "startAddress": "3473 Gardner Plains",
      "endAddress": "7673 Carolyn Plains Apt. 453",
      "startCoords": {
        "latitude": 39.722334,
        "longitude": -105.022747
      },
      "endCoords": {
        "latitude": 39.806024,
        "longitude": -105.051833
      },
      "distanceMeters": 108964.6,
      "durationMs": 9981705,
      "drivingDurationMs": 8385261,
      "idlingDurationMs": 1596445,
      "fuelConsumedMl": 24408,
      "fuelConsumedGallons": 6.448,
      "maxSpeedMph": 51.8,
      "averageSpeedMph": 24.4,
      "safetyEvents": []
    },
    {
      "id": "trip_40426209_20250409_001",
      "vehicleId": "40426209",
      "driverId": "20000005",
      "startMs": 1744214160000,
      "endMs": 1744223186239,
      "startAddress": "11676 Campbell Point",
      "endAddress": "04762 Kathryn Lock",
      "startCoords": {
        "latitude": 39.765546,
        "longitude": -104.971283
      },
      "endCoords": {
        "latitude": 39.731022,
        "longitude": -105.075933
      },
      "distanceMeters": 97792.4,
      "durationMs": 9026239,
      "drivingDurationMs": 8324052,
      "idlingDurationMs": 702188,
      "fuelConsumedMl": 21906,
      "fuelConsumedGallons": 5.787,
      "maxSpeedMph": 43.1,
      "averageSpeedMph": 24.2,
      "safetyEvents": []
    },
    {
      "id": "trip_40426209_20250410_001",
      "vehicleId": "40426209",
      "driverId": null,
      "startMs": 1744284780000,
      "endMs": 1744288896944,
      "startAddress": "542 Le Cliff Apt. 947",
      "endAddress": "189 Carey Ridges Apt. 465",
      "startCoords": {
        "latitude": 39.689236,
        "longitude": -104.952887
      },
      "endCoords": {
        "latitude": 39.771737,
        "longitude": -105.023509
      },
      "distanceMeters": 37970.6,
      "durationMs": 4116945,
      "drivingDurationMs": 3534041,
      "idlingDurationMs": 582904,
      "fuelConsumedMl": 8506,
      "fuelConsumedGallons": 2.247,
      "maxSpeedMph": 67.0,
      "averageSpeedMph": 20.6,
      "safetyEvents": [
        {
          "type": "speeding",
          "startMs": 1744287240000,
          "maxSpeedMph": 67.0
        }
      ]
    },
    {
      "id": "trip_40426209_20250411_001",
      "vehicleId": "40426209",
      "driverId": "20000015",
      "startMs": 1744356300000,
      "endMs": 1744373629750,
      "startAddress": "2728 Adam Mills Apt. 526",
      "endAddress": "0295 Cisneros Trace",
      "startCoords": {
        "latitude": 39.735053,
        "longitude": -105.043545
      },
      "endCoords": {
        "latitude": 39.745968,
        "longitude": -105.00097
      },
      "distanceMeters": 179230.1,
      "durationMs": 17329750,
      "drivingDurationMs": 16897393,
      "idlingDurationMs": 432357,
      "fuelConsumedMl": 40152,
      "fuelConsumedGallons": 10.607,
      "maxSpeedMph": 53.7,
      "averageSpeedMph": 23.1,
      "safetyEvents": []
    },
    {
      "id": "trip_40426209_20250414_001",
      "vehicleId": "40426209",
      "driverId": "20000006",
      "startMs": 1744634760000,
      "endMs": 1744640952128,
      "startAddress": "9507 Baker Skyway",
      "endAddress": "2311 Gregory Greens",
      "startCoords": {
        "latitude": 39.773181,
        "longitude": -105.052565
      },
      "endCoords": {
        "latitude": 39.708737,
        "longitude": -105.07337
      },
      "distanceMeters": 75729.0,
      "durationMs": 6192128,
      "drivingDurationMs": 4975995,
      "idlingDurationMs": 1216133,
      "fuelConsumedMl": 16966,
      "fuelConsumedGallons": 4.482,
      "maxSpeedMph": 63.0,
      "averageSpeedMph": 27.4,
      "safetyEvents": []
    },
    {
      "id": "trip_40426209_20250415_001",
      "vehicleId": "40426209",
      "driverId": "20000013",
      "startMs": 1744738620000,
      "endMs": 1744741111189,
      "startAddress": "6095 Patrick Circles Apt. 598",
      "endAddress": "91060 Christopher Parkways",
      "startCoords": {
        "latitude": 39.827453,
        "longitude": -105.022008
      },
      "endCoords": {
        "latitude": 39.804524,
        "longitude": -105.009923
      },
      "distanceMeters": 30618.3,
      "durationMs": 2491190,
      "drivingDurationMs": 2154064,
      "idlingDurationMs": 337126,
      "fuelConsumedMl": 6859,
      "fuelConsumedGallons": 1.812,
      "maxSpeedMph": 34.8,
      "averageSpeedMph": 27.5,
      "safetyEvents": []
    },
    {
      "id": "trip_40426209_20250416_001",
      "vehicleId": "40426209",
      "driverId": "20000022",
      "startMs": 1744792560000,
      "endMs": 1744801652907,
      "startAddress": "5976 Dawn Cliffs",
      "endAddress": "856 James Stravenue",
      "startCoords": {
        "latitude": 39.716477,
        "longitude": -105.045199
      },
      "endCoords": {
        "latitude": 39.801929,
        "longitude": -104.914678
      },
      "distanceMeters": 99059.9,
      "durationMs": 9092907,
      "drivingDurationMs": 8190319,
      "idlingDurationMs": 902588,
      "fuelConsumedMl": 22190,
      "fuelConsumedGallons": 5.862,
      "maxSpeedMph": 41.7,
      "averageSpeedMph": 24.4,
      "safetyEvents": []
    },
    {
      "id": "trip_40426209_20250417_001",
      "vehicleId": "40426209",
      "driverId": "20000006",
      "startMs": 1744889280000,
      "endMs": 1744901739051,
      "startAddress": "3917 Caroline Wells Suite 872",
      "endAddress": "5500 Shane Rue Suite 388",
      "startCoords": {
        "latitude": 39.779061,
        "longitude": -105.087056
      },
      "endCoords": {
        "latitude": 39.708245,
        "longitude": -105.016357
      },
      "distanceMeters": 130282.4,
      "durationMs": 12459051,
      "drivingDurationMs": 12066494,
      "idlingDurationMs": 392558,
      "fuelConsumedMl": 29186,
      "fuelConsumedGallons": 7.71,
      "maxSpeedMph": 65.3,
      "averageSpeedMph": 23.4,
      "safetyEvents": [
        {
          "type": "speeding",
          "startMs": 1744897440000,
          "maxSpeedMph": 65.3
        }
      ]
    },
    {
      "id": "trip_40426209_20250418_001",
      "vehicleId": "40426209",
      "driverId": "20000007",
      "startMs": 1744980420000,
      "endMs": 1744984032897,
      "startAddress": "468 Washington Valleys",
      "endAddress": "4749 Anderson Fall",
      "startCoords": {
        "latitude": 39.731718,
        "longitude": -104.990806
      },
      "endCoords": {
        "latitude": 39.800556,
        "longitude": -104.977731
      },
      "distanceMeters": 33188.6,
      "durationMs": 3612898,
      "drivingDurationMs": 3277244,
      "idlingDurationMs": 335653,
      "fuelConsumedMl": 7435,
      "fuelConsumedGallons": 1.964,
      "maxSpeedMph": 31.3,
      "averageSpeedMph": 20.5,
      "safetyEvents": []
    },
    {
      "id": "trip_40426209_20250421_001",
      "vehicleId": "40426209",
      "driverId": "20000004",
      "startMs": 1745236320000,
      "endMs": 1745252717407,
      "startAddress": "1334 Melissa Ports",
      "endAddress": "7792 Strong Park",
      "startCoords": {
        "latitude": 39.760651,
        "longitude": -105.017554
      },
      "endCoords": {
        "latitude": 39.690734,
        "longitude": -104.972987
      },
      "distanceMeters": 123723.9,
      "durationMs": 16397407,
      "drivingDurationMs": 15829915,
      "idlingDurationMs": 567492,
      "fuelConsumedMl": 27717,
      "fuelConsumedGallons": 7.322,
      "maxSpeedMph": 53.0,
      "averageSpeedMph": 16.9,
      "safetyEvents": []
    },
    {
      "id": "trip_40426209_20250422_001",
      "vehicleId": "40426209",
      "driverId": "20000022",
      "startMs": 1745337600000,
      "endMs": 1745355600000,
      "startAddress": "505 Obrien Turnpike",
      "endAddress": "9581 Shelia Mission Suite 886",
      "startCoords": {
        "latitude": 39.702605,
        "longitude": -105.006918
      },
      "endCoords": {
        "latitude": 39.791538,
        "longitude": -104.93109
      },
      "distanceMeters": 137301.1,
      "durationMs": 18000000,
      "drivingDurationMs": 16342002,
      "idlingDurationMs": 1657998,
      "fuelConsumedMl": 30756,
      "fuelConsumedGallons": 8.125,
      "maxSpeedMph": 70.9,
      "averageSpeedMph": 17.1,
      "safetyEvents": [
        {
          "type": "speeding",
          "startMs": 1745349300000,
          "maxSpeedMph": 70.9
        }
      ]
    },
    {
      "id": "trip_40426209_20250423_001",
      "vehicleId": "40426209",
      "driverId": "20000008",
      "startMs": 1745397900000,
      "endMs": 1745403121617,
      "startAddress": "3544 Fernandez Ridge Suite 465",
      "endAddress": "826 Harris Knolls",
      "startCoords": {
        "latitude": 39.78529,
        "longitude": -105.025176
      },
      "endCoords": {
        "latitude": 39.71503,
        "longitude": -105.012721
      },
      "distanceMeters": 54744.0,
      "durationMs": 5221618,
      "drivingDurationMs": 5004723,
      "idlingDurationMs": 216895,
      "fuelConsumedMl": 12265,
      "fuelConsumedGallons": 3.24,
      "maxSpeedMph": 35.0,
      "averageSpeedMph": 23.5,
      "safetyEvents": []
    },
    {
      "id": "trip_40426209_20250424_001",
      "vehicleId": "40426209",
      "driverId": "20000011",
      "startMs": 1745475060000,
      "endMs": 1745492684030,
      "startAddress": "313 Emily Station",
      "endAddress": "439 Ryan Alley",
      "startCoords": {
        "latitude": 39.798777,
        "longitude": -105.040147
      },
      "endCoords": {
        "latitude": 39.744039,
        "longitude": -105.06668
      },
      "distanceMeters": 159892.1,
      "durationMs": 17624031,
      "drivingDurationMs": 16272703,
      "idlingDurationMs": 1351328,
      "fuelConsumedMl": 35818,
      "fuelConsumedGallons": 9.462,
      "maxSpeedMph": 59.4,
      "averageSpeedMph": 20.3,
      "safetyEvents": []
    },
    {
      "id": "trip_40426209_20250425_001",
      "vehicleId": "40426209",
      "driverId": null,
      "startMs": 1745601900000,
      "endMs": 1745614473772,
      "startAddress": "7732 Joseph Lights",
      "endAddress": "875 Elizabeth Cape Suite 306",
      "startCoords": {
        "latitude": 39.827716,
        "longitude": -104.984492
      },
      "endCoords": {
        "latitude": 39.74056,
        "longitude": -105.055751
      },
      "distanceMeters": 109409.6,
      "durationMs": 12573773,
      "drivingDurationMs": 10428408,
      "idlingDurationMs": 2145365,
      "fuelConsumedMl": 24511,
      "fuelConsumedGallons": 6.475,
      "maxSpeedMph": 45.7,
      "averageSpeedMph": 19.5,
      "safetyEvents": []
    },
    {
      "id": "trip_40426209_20250428_001",
      "vehicleId": "40426209",
      "driverId": "20000009",
      "startMs": 1745829180000,
      "endMs": 1745832162261,
      "startAddress": "40796 Bianca Dam Suite 013",
      "endAddress": "8569 Holly Hill Suite 890",
      "startCoords": {
        "latitude": 39.68581,
        "longitude": -104.965684
      },
      "endCoords": {
        "latitude": 39.775359,
        "longitude": -104.928081
      },
      "distanceMeters": 38451.9,
      "durationMs": 2982262,
      "drivingDurationMs": 2673963,
      "idlingDurationMs": 308298,
      "fuelConsumedMl": 8616,
      "fuelConsumedGallons": 2.276,
      "maxSpeedMph": 63.7,
      "averageSpeedMph": 28.8,
      "safetyEvents": []
    },
    {
      "id": "trip_40426209_20250429_001",
      "vehicleId": "40426209",
      "driverId": "20000002",
      "startMs": 1745950980000,
      "endMs": 1745960400000,
      "startAddress": "6274 Taylor Point Apt. 943",
      "endAddress": "04385 Brian Mission Suite 530",
      "startCoords": {
        "latitude": 39.714458,
        "longitude": -104.964373
      },
      "endCoords": {
        "latitude": 39.782795,
        "longitude": -104.907785
      },
      "distanceMeters": 64647.9,
      "durationMs": 9420000,
      "drivingDurationMs": 7536000,
      "idlingDurationMs": 1884000,
      "fuelConsumedMl": 14483,
      "fuelConsumedGallons": 3.826,
      "maxSpeedMph": 65.6,
      "averageSpeedMph": 15.4,
      "safetyEvents": [
        {
          "type": "speeding",
          "startMs": 1745958000000,
          "maxSpeedMph": 65.6
        }
      ]
    },
    {
      "id": "trip_40426209_20250430_001",
      "vehicleId": "40426209",
      "driverId": "20000002",
      "startMs": 1746013440000,
      "endMs": 1746018418875,
      "startAddress": "652 Hill Route Apt. 410",
      "endAddress": "88784 Miller Flat",
      "startCoords": {
        "latitude": 39.754194,
        "longitude": -105.01761
      },
      "endCoords": {
        "latitude": 39.823049,
        "longitude": -104.945094
      },
      "distanceMeters": 47349.8,
      "durationMs": 4978876,
      "drivingDurationMs": 4338751,
      "idlingDurationMs": 640125,
      "fuelConsumedMl": 10607,
      "fuelConsumedGallons": 2.802,
      "maxSpeedMph": 33.2,
      "averageSpeedMph": 21.3,
      "safetyEvents": []
    }
  ]
}