{
  "vehicleId": "48291025",
  "vehicleName": "SAL-CAR-04",
  "month": "2025_01",
  "pagination": {
    "endCursor": "trip_48291025_20250131_004",
    "hasNextPage": false
  },
  "trips": [
    {
      "id": "trip_48291025_20250101_001",
      "vehicleId": "48291025",
      "driverId": "22831024",
      "startMs": 1735712880000,
      "endMs": 1735719250122,
      "startLocation": {
        "latitude": 40.788816,
        "longitude": -111.797723
      },
      "endLocation": {
        "latitude": 40.762195,
        "longitude": -111.950294
      },
      "startAddress": "4121 Ryan Point Suite 101",
      "endAddress": "199 Shields Bridge Suite 661",
      "startCoords": {
        "latitude": 40.676032,
        "longitude": -111.922989
      },
      "endCoords": {
        "latitude": 40.702982,
        "longitude": -111.837363
      },
      "distanceMeters": 30095.4,
      "durationMs": 6370123,
      "drivingDurationMs": 5384853,
      "idlingDurationMs": 985270,
      "fuelConsumedMl": 3827,
      "fuelConsumedGallons": 1.011,
      "maxSpeedMph": 46.1,
      "averageSpeedMph": 10.6,
      "safetyEvents": [],
      "_no_driver_login": false,
      "_fuel_note": "QUIRK 5: fuelConsumedGallons is in US gallons. Multiply by 3.785 for litres. Samsara does not link fuel to specific Onfleet tasks."
    },
    {
      "id": "trip_48291025_20250101_002",
      "vehicleId": "48291025",
      "driverId": "22831024",
      "startMs": 1735741440000,
      "endMs": 1735747971032,
      "startLocation": {
        "latitude": 40.767406,
        "longitude": -111.826314
      },
      "endLocation": {
        "latitude": 40.748857,
        "longitude": -111.831512
      },
      "startAddress": "826 Dominic Hollow",
      "endAddress": "2126 Fisher Orchard Apt. 543",
      "startCoords": {
        "latitude": 40.744067,
        "longitude": -111.925827
      },
      "endCoords": {
        "latitude": 40.691662,
        "longitude": -111.856966
      },
      "distanceMeters": 30100.2,
      "durationMs": 6531033,
      "drivingDurationMs": 5305416,
      "idlingDurationMs": 1225617,
      "fuelConsumedMl": 3827,
      "fuelConsumedGallons": 1.011,
      "maxSpeedMph": 43.1,
      "averageSpeedMph": 10.3,
      "safetyEvents": [],
      "_no_driver_login": false,
      "_fuel_note": ""
    },
    {
      "id": "trip_48291025_20250101_003",
      "vehicleId": "48291025",
      "driverId": "22831024",
      "startMs": 1735723140000,
      "endMs": 1735733297785,
      "startLocation": {
        "latitude": 40.736919,
        "longitude": -111.786115
      },
      "endLocation": {
        "latitude": 40.760152,
        "longitude": -111.907846
      },
      "startAddress": "937 Derek Avenue Suite 596",
      "endAddress": "5692 Flores Square Apt. 752",
      "startCoords": {
        "latitude": 40.738791,
        "longitude": -111.85977
      },
      "endCoords": {
        "latitude": 40.785247,
        "longitude": -111.887753
      },
      "distanceMeters": 66693.9,
      "durationMs": 10157785,
      "drivingDurationMs": 8615362,
      "idlingDurationMs": 1542423,
      "fuelConsumedMl": 8479,
      "fuelConsumedGallons": 2.24,
      "maxSpeedMph": 49.5,
      "averageSpeedMph": 14.7,
      "safetyEvents": [],
      "_no_driver_login": false,
      "_fuel_note": ""
    },
    {
      "id": "trip_48291025_20250102_001",
      "vehicleId": "48291025",
      "driverId": "22831024",
      "startMs": 1735806900000,
      "endMs": 1735812242558,
      "startLocation": {
        "latitude": 40.717237,
        "longitude": -111.88313
      },
      "endLocation": {
        "latitude": 40.764553,
        "longitude": -111.893297
      },
      "startAddress": "542 Joshua Circle Suite 650",
      "endAddress": "2717 Chelsey Fall Suite 128",
      "startCoords": {
        "latitude": 40.713871,
        "longitude": -111.877175
      },
      "endCoords": {
        "latitude": 40.738493,
        "longitude": -111.777684
      },
      "distanceMeters": 26027.9,
      "durationMs": 5342559,
      "drivingDurationMs": 4303773,
      "idlingDurationMs": 1038786,
      "fuelConsumedMl": 3308,
      "fuelConsumedGallons": 0.874,
      "maxSpeedMph": 43.1,
      "averageSpeedMph": 10.9,
      "safetyEvents": [],
      "_no_driver_login": false,
      "_fuel_note": "QUIRK 5: fuelConsumedGallons is in US gallons. Multiply by 3.785 for litres. Samsara does not link fuel to specific Onfleet tasks."
    },
    {
      "id": "trip_48291025_20250102_002",
      "vehicleId": "48291025",
      "driverId": "22831024",
      "startMs": 1735834440000,
      "endMs": 1735845270102,
      "startLocation": {
        "latitude": 40.684389,
        "longitude": -111.811422
      },
      "endLocation": {
        "latitude": 40.762584,
        "longitude": -111.872985
      },
      "startAddress": "91741 Charles Ports Suite 707",
      "endAddress": "006 Hernandez Isle",
      "startCoords": {
        "latitude": 40.657532,
        "longitude": -111.882673
      },
      "endCoords": {
        "latitude": 40.675511,
        "longitude": -111.793873
      },
      "distanceMeters": 70135.3,
      "durationMs": 10830103,
      "drivingDurationMs": 8988045,
      "idlingDurationMs": 1842058,
      "fuelConsumedMl": 8918,
      "fuelConsumedGallons": 2.356,
      "maxSpeedMph": 52.4,
      "averageSpeedMph": 14.5,
      "safetyEvents": [],
      "_no_driver_login": false,
      "_fuel_note": ""
    },
    {
      "id": "trip_48291025_20250102_003",
      "vehicleId": "48291025",
      "driverId": "22831024",
      "startMs": 1735835580000,
      "endMs": 1735844266707,
      "startLocation": {
        "latitude": 40.663005,
        "longitude": -111.943387
      },
      "endLocation": {
        "latitude": 40.679673,
        "longitude": -111.921459
      },
      "startAddress": "087 Graham Vista Apt. 830",
      "endAddress": "719 Cook Hollow Suite 015",
      "startCoords": {
        "latitude": 40.692782,
        "longitude": -111.804094
      },
      "endCoords": {
        "latitude": 40.670009,
        "longitude": -111.821859
      },
      "distanceMeters": 47718.6,
      "durationMs": 8686707,
      "drivingDurationMs": 7662159,
      "idlingDurationMs": 1024549,
      "fuelConsumedMl": 6068,
      "fuelConsumedGallons": 1.603,
      "maxSpeedMph": 39.0,
      "averageSpeedMph": 12.3,
      "safetyEvents": [],
      "_no_driver_login": false,
      "_fuel_note": ""
    },
    {
      "id": "trip_48291025_20250102_004",
      "vehicleId": "48291025",
      "driverId": "22831024",
      "startMs": 1735813380000,
      "endMs": 1735819088583,
      "startLocation": {
        "latitude": 40.706736,
        "longitude": -111.834096
      },
      "endLocation": {
        "latitude": 40.743418,
        "longitude": -111.853433
      },
      "startAddress": "74328 Tammy Shore Apt. 461",
      "endAddress": "1732 James Stravenue Apt. 761",
      "startCoords": {
        "latitude": 40.749802,
        "longitude": -111.860665
      },
      "endCoords": {
        "latitude": 40.797299,
        "longitude": -111.908444
      },
      "distanceMeters": 33824.5,
      "durationMs": 5708583,
      "drivingDurationMs": 4718809,
      "idlingDurationMs": 989775,
      "fuelConsumedMl": 4300,
      "fuelConsumedGallons": 1.136,
      "maxSpeedMph": 43.1,
      "averageSpeedMph": 13.3,
      "safetyEvents": [],
      "_no_driver_login": false,
      "_fuel_note": ""
    },
    {
      "id": "trip_48291025_20250103_001",
      "vehicleId": "48291025",
      "driverId": "22831024",
      "startMs": 1735923480000,
      "endMs": 1735936452542,
      "startLocation": {
        "latitude": 40.688005,
        "longitude": -111.777525
      },
      "endLocation": {
        "latitude": 40.795558,
        "longitude": -111.955091
      },
      "startAddress": "2312 Hill Flats",
      "endAddress": "8477 Hunt Locks",
      "startCoords": {
        "latitude": 40.727168,
        "longitude": -111.829491
      },
      "endCoords": {
        "latitude": 40.743483,
        "longitude": -111.960675
      },
      "distanceMeters": 61735.8,
      "durationMs": 12972542,
      "drivingDurationMs": 10746444,
      "idlingDurationMs": 2226098,
      "fuelConsumedMl": 7851,
      "fuelConsumedGallons": 2.074,
      "maxSpeedMph": 55.5,
      "averageSpeedMph": 10.6,
      "safetyEvents": [],
      "_no_driver_login": false,
      "_fuel_note": "QUIRK 5: fuelConsumedGallons is in US gallons. Multiply by 3.785 for litres. Samsara does not link fuel to specific Onfleet tasks."
    },
    {
      "id": "trip_48291025_20250103_002",
      "vehicleId": "48291025",
      "driverId": "22831024",
      "startMs": 1735921500000,
      "endMs": 1735924158194,
      "startLocation": {
        "latitude": 40.762624,
        "longitude": -111.83549
      },
      "endLocation": {
        "latitude": 40.743043,
        "longitude": -111.928977
      },
      "startAddress": "2346 Brandy Trafficway",
      "endAddress": "37676 Cabrera Road Apt. 966",
      "startCoords": {
        "latitude": 40.740908,
        "longitude": -111.821599
      },
      "endCoords": {
        "latitude": 40.674496,
        "longitude": -111.786288
      },
      "distanceMeters": 13875.7,
      "durationMs": 2658195,
      "drivingDurationMs": 2282727,
      "idlingDurationMs": 375468,
      "fuelConsumedMl": 1764,
      "fuelConsumedGallons": 0.466,
      "maxSpeedMph": 35.5,
      "averageSpeedMph": 11.7,
      "safetyEvents": [],
      "_no_driver_login": false,
      "_fuel_note": ""
    },
    {
      "id": "trip_48291025_20250103_003",
      "vehicleId": "48291025",
      "driverId": "22831024",
      "startMs": 1735898160000,
      "endMs": 1735904410006,
      "startLocation": {
        "latitude": 40.756018,
        "longitude": -111.861699
      },
      "endLocation": {
        "latitude": 40.692585,
        "longitude": -111.856584
      },
      "startAddress": "551 Jackson Bypass",
      "endAddress": "649 Sanders Crescent Apt. 562",
      "startCoords": {
        "latitude": 40.721559,
        "longitude": -111.785474
      },
      "endCoords": {
        "latitude": 40.748519,
        "longitude": -111.784498
      },
      "distanceMeters": 46846.4,
      "durationMs": 6250007,
      "drivingDurationMs": 5825149,
      "idlingDurationMs": 424858,
      "fuelConsumedMl": 5954,
      "fuelConsumedGallons": 1.573,
      "maxSpeedMph": 57.8,
      "averageSpeedMph": 16.8,
      "safetyEvents": [],
      "_no_driver_login": false,
      "_fuel_note": ""
    },
    {
      "id": "trip_48291025_20250103_004",
      "vehicleId": "48291025",
      "driverId": "22831024",
      "startMs": 1735887240000,
      "endMs": 1735902210346,
      "startLocation": {
        "latitude": 40.723384,
        "longitude": -111.893976
      },
      "endLocation": {
        "latitude": 40.765536,
        "longitude": -111.795655
      },
      "startAddress": "13552 Martinez Island Apt. 537",
      "endAddress": "81649 Alison Cove Suite 919",
      "startCoords": {
        "latitude": 40.688495,
        "longitude": -111.909701
      },
      "endCoords": {
        "latitude": 40.716677,
        "longitude": -111.877526
      },
      "distanceMeters": 80100.7,
      "durationMs": 14970346,
      "drivingDurationMs": 11987304,
      "idlingDurationMs": 2983042,
      "fuelConsumedMl": 10183,
      "fuelConsumedGallons": 2.69,
      "maxSpeedMph": 40.1,
      "averageSpeedMph": 12.0,
      "safetyEvents": [],
      "_no_driver_login": false,
      "_fuel_note": ""
    },
    {
      "id": "trip_48291025_20250104_001",
      "vehicleId": "48291025",
      "driverId": "22831024",
      "startMs": 1735985100000,
      "endMs": 1735988927822,
      "startLocation": {
        "latitude": 40.776323,
        "longitude": -111.943939
      },
      "endLocation": {
        "latitude": 40.73203,
        "longitude": -111.831357
      },
      "startAddress": "24264 Micheal Brooks Suite 420",
      "endAddress": "8362 Clark Lodge Suite 677",
      "startCoords": {
        "latitude": 40.72875,
        "longitude": -111.833046
      },
      "endCoords": {
        "latitude": 40.707668,
        "longitude": -111.895346
      },
      "distanceMeters": 28786.7,
      "durationMs": 3827822,
      "drivingDurationMs": 3345170,
      "idlingDurationMs": 482652,
      "fuelConsumedMl": 3660,
      "fuelConsumedGallons": 0.967,
      "maxSpeedMph": 36.1,
      "averageSpeedMph": 16.8,
      "safetyEvents": [],
      "_no_driver_login": false,
      "_fuel_note": "QUIRK 5: fuelConsumedGallons is in US gallons. Multiply by 3.785 for litres. Samsara does not link fuel to specific Onfleet tasks."
    },
    {
      "id": "trip_48291025_20250104_002",
      "vehicleId": "48291025",
      "driverId": "22831024",
      "startMs": 1735997160000,
      "endMs": 1736011983764,
      "startLocation": {
        "latitude": 40.668874,
        "longitude": -111.935554
      },
      "endLocation": {
        "latitude": 40.786845,
        "longitude": -111.813946
      },
      "startAddress": "7555 Anderson Pines Apt. 333",
      "endAddress": "957 Brooks Inlet",
      "startCoords": {
        "latitude": 40.739778,
        "longitude": -111.891785
      },
      "endCoords": {
        "latitude": 40.745626,
        "longitude": -111.792622
      },
      "distanceMeters": 81915.8,
      "durationMs": 14823765,
      "drivingDurationMs": 12057282,
      "idlingDurationMs": 2766483,
      "fuelConsumedMl": 10414,
      "fuelConsumedGallons": 2.751,
      "maxSpeedMph": 29.2,
      "averageSpeedMph": 12.4,
      "safetyEvents": [],
      "_no_driver_login": false,
      "_fuel_note": ""
    },
    {
      "id": "trip_48291025_20250104_003",
      "vehicleId": "48291025",
      "driverId": "22831024",
      "startMs": 1735984980000,
      "endMs": 1735996121257,
      "startLocation": {
        "latitude": 40.782241,
        "longitude": -111.875388
      },
      "endLocation": {
        "latitude": 40.663962,
        "longitude": -111.951723
      },
      "startAddress": "2718 Evans Village",
      "endAddress": "33582 Giles Meadows Apt. 703",
      "startCoords": {
        "latitude": 40.775752,
        "longitude": -111.839687
      },
      "endCoords": {
        "latitude": 40.704198,
        "longitude": -111.943684
      },
      "distanceMeters": 65426.8,
      "durationMs": 11141257,
      "drivingDurationMs": 10024012,
      "idlingDurationMs": 1117245,
      "fuelConsumedMl": 8320,
      "fuelConsumedGallons": 2.198,
      "maxSpeedMph": 28.3,
      "averageSpeedMph": 13.1,
      "safetyEvents": [],
      "_no_driver_login": false,
      "_fuel_note": ""
    },
    {
      "id": "trip_48291025_20250105_001",
      "vehicleId": "48291025",
      "driverId": "22831024",
      "startMs": 1736093520000,
      "endMs": 1736099602183,
      "startLocation": {
        "latitude": 40.778037,
        "longitude": -111.814613
      },
      "endLocation": {
        "latitude": 40.731677,
        "longitude": -111.91903
      },
      "startAddress": "6025 Amanda Spur",
      "endAddress": "12312 Rodriguez Forks Apt. 488",
      "startCoords": {
        "latitude": 40.685321,
        "longitude": -111.836983
      },
      "endCoords": {
        "latitude": 40.713568,
        "longitude": -111.943412
      },
      "distanceMeters": 33520.1,
      "durationMs": 6082184,
      "drivingDurationMs": 4939416,
      "idlingDurationMs": 1142768,
      "fuelConsumedMl": 4262,
      "fuelConsumedGallons": 1.126,
      "maxSpeedMph": 67.9,
      "averageSpeedMph": 12.3,
      "safetyEvents": [
        {
          "type": "speeding",
          "startMs": 1736096160000,
          "maxSpeedMph": 67.9
        }
      ],
      "_no_driver_login": false,
      "_fuel_note": "QUIRK 5: fuelConsumedGallons is in US gallons. Multiply by 3.785 for litres. Samsara does not link fuel to specific Onfleet tasks."
    },
    {
      "id": "trip_48291025_20250106_001",
      "vehicleId": "48291025",
      "driverId": "22831024",
      "startMs": 1736166240000,
      "endMs": 1736171985582,
      "startLocation": {
        "latitude": 40.662043,
        "longitude": -111.948788
      },
      "endLocation": {
        "latitude": 40.671618,
        "longitude": -111.86127
      },
      "startAddress": "020 Barry Fords",
      "endAddress": "2322 Jimenez Vista",
      "startCoords": {
        "latitude": 40.674495,
        "longitude": -111.943968
      },
      "endCoords": {
        "latitude": 40.76323,
        "longitude": -111.882344
      },
      "distanceMeters": 30051.4,
      "durationMs": 5745583,
      "drivingDurationMs": 5421121,
      "idlingDurationMs": 324461,
      "fuelConsumedMl": 3819,
      "fuelConsumedGallons": 1.009,
      "maxSpeedMph": 61.4,
      "averageSpeedMph": 11.7,
      "safetyEvents": [],
      "_no_driver_login": false,
      "_fuel_note": "QUIRK 5: fuelConsumedGallons is in US gallons. Multiply by 3.785 for litres. Samsara does not link fuel to specific Onfleet tasks."
    },
    {
      "id": "trip_48291025_20250106_002",
      "vehicleId": "48291025",
      "driverId": "22831024",
      "startMs": 1736146620000,
      "endMs": 1736158137888,
      "startLocation": {
        "latitude": 40.697092,
        "longitude": -111.916713
      },
      "endLocation": {
        "latitude": 40.687903,
        "longitude": -111.848387
      },
      "startAddress": "135 Blake Trail",
      "endAddress": "165 Richard Locks",
      "startCoords": {
        "latitude": 40.764485,
        "longitude": -111.787363
      },
      "endCoords": {
        "latitude": 40.70709,
        "longitude": -111.917526
      },
      "distanceMeters": 57823.8,
      "durationMs": 11517888,
      "drivingDurationMs": 11050112,
      "idlingDurationMs": 467776,
      "fuelConsumedMl": 7351,
      "fuelConsumedGallons": 1.942,
      "maxSpeedMph": 71.0,
      "averageSpeedMph": 11.2,
      "safetyEvents": [
        {
          "type": "speeding",
          "startMs": 1736147040000,
          "maxSpeedMph": 71.0
        }
      ],
      "_no_driver_login": false,
      "_fuel_note": ""
    },
    {
      "id": "trip_48291025_20250106_003",
      "vehicleId": "48291025",
      "driverId": "22831024",
      "startMs": 1736174220000,
      "endMs": 1736180480053,
      "startLocation": {
        "latitude": 40.744963,
        "longitude": -111.782352
      },
      "endLocation": {
        "latitude": 40.669271,
        "longitude": -111.822638
      },
      "startAddress": "05937 Stevens Locks",
      "endAddress": "832 Gabriela Run",
      "startCoords": {
        "latitude": 40.797198,
        "longitude": -111.911245
      },
      "endCoords": {
        "latitude": 40.726219,
        "longitude": -111.944007
      },
      "distanceMeters": 30337.4,
      "durationMs": 6260053,
      "drivingDurationMs": 5181404,
      "idlingDurationMs": 1078650,
      "fuelConsumedMl": 3857,
      "fuelConsumedGallons": 1.019,
      "maxSpeedMph": 64.3,
      "averageSpeedMph": 10.8,
      "safetyEvents": [],
      "_no_driver_login": false,
      "_fuel_note": ""
    },
    {
      "id": "trip_48291025_20250106_004",
      "vehicleId": "48291025",
      "driverId": "22831024",
      "startMs": 1736165640000,
      "endMs": 1736169701681,
      "startLocation": {
        "latitude": 40.656585,
        "longitude": -111.835681
      },
      "endLocation": {
        "latitude": 40.718858,
        "longitude": -111.799967
      },
      "startAddress": "161 Evans Way",
      "endAddress": "98310 Wright Streets",
      "startCoords": {
        "latitude": 40.778591,
        "longitude": -111.878034
      },
      "endCoords": {
        "latitude": 40.689595,
        "longitude": -111.802529
      },
      "distanceMeters": 24362.0,
      "durationMs": 4061682,
      "drivingDurationMs": 3305246,
      "idlingDurationMs": 756436,
      "fuelConsumedMl": 3096,
      "fuelConsumedGallons": 0.818,
      "maxSpeedMph": 68.4,
      "averageSpeedMph": 13.4,
      "safetyEvents": [
        {
          "type": "speeding",
          "startMs": 1736168880000,
          "maxSpeedMph": 68.4
        }
      ],
      "_no_driver_login": false,
      "_fuel_note": ""
    },
    {
      "id": "trip_48291025_20250106_005",
      "vehicleId": "48291025",
      "driverId": "22831024",
      "startMs": 1736184480000,
      "endMs": 1736190214702,
      "startLocation": {
        "latitude": 40.734148,
        "longitude": -111.91087
      },
      "endLocation": {
        "latitude": 40.783235,
        "longitude": -111.869496
      },
      "startAddress": "96622 Laurie Flats Apt. 670",
      "endAddress": "6856 Stevens Terrace",
      "startCoords": {
        "latitude": 40.769942,
        "longitude": -111.863395
      },
      "endCoords": {
        "latitude": 40.702554,
        "longitude": -111.868082
      },
      "distanceMeters": 40402.2,
      "durationMs": 5734702,
      "drivingDurationMs": 5130746,
      "idlingDurationMs": 603956,
      "fuelConsumedMl": 5137,
      "fuelConsumedGallons": 1.357,
      "maxSpeedMph": 55.1,
      "averageSpeedMph": 15.8,
      "safetyEvents": [],
      "_no_driver_login": false,
      "_fuel_note": ""
    },
    {
      "id": "trip_48291025_20250107_001",
      "vehicleId": "48291025",
      "driverId": "22831024",
      "startMs": 1736233680000,
      "endMs": 1736253453277,
      "startLocation": {
        "latitude": 40.767469,
        "longitude": -111.960842
      },
      "endLocation": {
        "latitude": 40.665629,
        "longitude": -111.814008
      },
      "startAddress": "202 Gina Brooks Apt. 401",
      "endAddress": "332 Carter Forest Suite 719",
      "startCoords": {
        "latitude": 40.792052,
        "longitude": -111.841268
      },
      "endCoords": {
        "latitude": 40.764677,
        "longitude": -111.950911
      },
      "distanceMeters": 84494.9,
      "durationMs": 19773277,
      "drivingDurationMs": 15997065,
      "idlingDurationMs": 3776212,
      "fuelConsumedMl": 10743,
      "fuelConsumedGallons": 2.838,
      "maxSpeedMph": 51.9,
      "averageSpeedMph": 9.6,
      "safetyEvents": [],
      "_no_driver_login": false,
      "_fuel_note": "QUIRK 5: fuelConsumedGallons is in US gallons. Multiply by 3.785 for litres. Samsara does not link fuel to specific Onfleet tasks."
    },
    {
      "id": "trip_48291025_20250107_002",
      "vehicleId": "48291025",
      "driverId": "22831024",
      "startMs": 1736235360000,
      "endMs": 1736242760221,
      "startLocation": {
        "latitude": 40.797541,
        "longitude": -111.838359
      },
      "endLocation": {
        "latitude": 40.701531,
        "longitude": -111.881565
      },
      "startAddress": "075 Atkins Isle",
      "endAddress": "526 Robin Mills Suite 699",
      "startCoords": {
        "latitude": 40.76388,
        "longitude": -111.953807
      },
      "endCoords": {
        "latitude": 40.708413,
        "longitude": -111.783758
      },
      "distanceMeters": 34744.1,
      "durationMs": 7400222,
      "drivingDurationMs": 6943285,
      "idlingDurationMs": 456937,
      "fuelConsumedMl": 4418,
      "fuelConsumedGallons": 1.167,
      "maxSpeedMph": 48.4,
      "averageSpeedMph": 10.5,
      "safetyEvents": [],
      "_no_driver_login": false,
      "_fuel_note": ""
    },
    {
      "id": "trip_48291025_20250107_003",
      "vehicleId": "48291025",
      "driverId": "22831024",
      "startMs": 1736274480000,
      "endMs": 1736275971482,
      "startLocation": {
        "latitude": 40.718137,
        "longitude": -111.902929
      },
      "endLocation": {
        "latitude": 40.658248,
        "longitude": -111.78188
      },
      "startAddress": "83100 Kramer Gardens",
      "endAddress": "226 Robin Park",
      "startCoords": {
        "latitude": 40.69309,
        "longitude": -111.830129
      },
      "endCoords": {
        "latitude": 40.798539,
        "longitude": -111.945712
      },
      "distanceMeters": 9259.2,
      "durationMs": 1491482,
      "drivingDurationMs": 1283369,
      "idlingDurationMs": 208113,
      "fuelConsumedMl": 1177,
      "fuelConsumedGallons": 0.311,
      "maxSpeedMph": 29.4,
      "averageSpeedMph": 13.9,
      "safetyEvents": [],
      "_no_driver_login": false,
      "_fuel_note": ""
    },
    {
      "id": "trip_48291025_20250108_001",
      "vehicleId": "48291025",
      "driverId": "22831024",
      "startMs": 1736338500000,
      "endMs": 1736340435431,
      "startLocation": {
        "latitude": 40.696103,
        "longitude": -111.920772
      },
      "endLocation": {
        "latitude": 40.718768,
        "longitude": -111.794428
      },
      "startAddress": "96964 Clark Rapid",
      "endAddress": "6504 Martinez Plaza",
      "startCoords": {
        "latitude": 40.760346,
        "longitude": -111.916028
      },
      "endCoords": {
        "latitude": 40.720369,
        "longitude": -111.78704
      },
      "distanceMeters": 8250.4,
      "durationMs": 1935431,
      "drivingDurationMs": 1621016,
      "idlingDurationMs": 314415,
      "fuelConsumedMl": 1049,
      "fuelConsumedGallons": 0.277,
      "maxSpeedMph": 65.0,
      "averageSpeedMph": 9.5,
      "safetyEvents": [],
      "_no_driver_login": false,
      "_fuel_note": "QUIRK 5: fuelConsumedGallons is in US gallons. Multiply by 3.785 for litres. Samsara does not link fuel to specific Onfleet tasks."
    },
    {
      "id": "trip_48291025_20250108_002",
      "vehicleId": "48291025",
      "driverId": "22831024",
      "startMs": 1736348160000,
      "endMs": 1736350768237,
      "startLocation": {
        "latitude": 40.703656,
        "longitude": -111.935378
      },
      "endLocation": {
        "latitude": 40.73877,
        "longitude": -111.810515
      },
      "startAddress": "09954 Andrea Motorway",
      "endAddress": "4966 Jordan Radial",
      "startCoords": {
        "latitude": 40.677761,
        "longitude": -111.958597
      },
      "endCoords": {
        "latitude": 40.747792,
        "longitude": -111.810503
      },
      "distanceMeters": 11813.0,
      "durationMs": 2608238,
      "drivingDurationMs": 2204092,
      "idlingDurationMs": 404146,
      "fuelConsumedMl": 1503,
      "fuelConsumedGallons": 0.397,
      "maxSpeedMph": 56.4,
      "averageSpeedMph": 10.1,
      "safetyEvents": [],
      "_no_driver_login": false,
      "_fuel_note": ""
    },
    {
      "id": "trip_48291025_20250108_003",
      "vehicleId": "48291025",
      "driverId": "22831024",
      "startMs": 1736352000000,
      "endMs": 1736354195969,
      "startLocation": {
        "latitude": 40.720485,
        "longitude": -111.891418
      },
      "endLocation": {
        "latitude": 40.738975,
        "longitude": -111.849598
      },
      "startAddress": "0617 Monica Way Suite 901",
      "endAddress": "711 Tabitha Forge Suite 715",
      "startCoords": {
        "latitude": 40.696976,
        "longitude": -111.794381
      },
      "endCoords": {
        "latitude": 40.695528,
        "longitude": -111.885891
      },
      "distanceMeters": 10473.1,
      "durationMs": 2195969,
      "drivingDurationMs": 1808446,
      "idlingDurationMs": 387523,
      "fuelConsumedMl": 1332,
      "fuelConsumedGallons": 0.352,
      "maxSpeedMph": 40.2,
      "averageSpeedMph": 10.7,
      "safetyEvents": [],
      "_no_driver_login": false,
      "_fuel_note": ""
    },
    {
      "id": "trip_48291025_20250108_004",
      "vehicleId": "48291025",
      "driverId": "22831024",
      "startMs": 1736341740000,
      "endMs": 1736355013527,
      "startLocation": {
        "latitude": 40.658439,
        "longitude": -111.9358
      },
      "endLocation": {
        "latitude": 40.767118,
        "longitude": -111.790677
      },
      "startAddress": "5665 Denise Club Suite 016",
      "endAddress": "449 James Square Apt. 596",
      "startCoords": {
        "latitude": 40.755403,
        "longitude": -111.933367
      },
      "endCoords": {
        "latitude": 40.675987,
        "longitude": -111.920137
      },
      "distanceMeters": 62289.1,
      "durationMs": 13273528,
      "drivingDurationMs": 11596544,
      "idlingDurationMs": 1676984,
      "fuelConsumedMl": 7919,
      "fuelConsumedGallons": 2.092,
      "maxSpeedMph": 39.7,
      "averageSpeedMph": 10.5,
      "safetyEvents": [],
      "_no_driver_login": false,
      "_fuel_note": ""
    },
    {
      "id": "trip_48291025_20250109_001",
      "vehicleId": "48291025",
      "driverId": "22831024",
      "startMs": 1736438040000,
      "endMs": 1736439887969,
      "startLocation": {
        "latitude": 40.691629,
        "longitude": -111.841626
      },
      "endLocation": {
        "latitude": 40.66486,
        "longitude": -111.789571
      },
      "startAddress": "22857 Larry Estates Suite 025",
      "endAddress": "4689 Tina Underpass Suite 704",
      "startCoords": {
        "latitude": 40.716162,
        "longitude": -111.94221
      },
      "endCoords": {
        "latitude": 40.72427,
        "longitude": -111.775172
      },
      "distanceMeters": 10306.9,
      "durationMs": 1847970,
      "drivingDurationMs": 1494291,
      "idlingDurationMs": 353678,
      "fuelConsumedMl": 1310,
      "fuelConsumedGallons": 0.346,
      "maxSpeedMph": 70.3,
      "averageSpeedMph": 12.5,
      "safetyEvents": [
        {
          "type": "speeding",
          "startMs": 1736438580000,
          "maxSpeedMph": 70.3
        }
      ],
      "_no_driver_login": false,
      "_fuel_note": "QUIRK 5: fuelConsumedGallons is in US gallons. Multiply by 3.785 for litres. Samsara does not link fuel to specific Onfleet tasks."
    },
    {
      "id": "trip_48291025_20250109_002",
      "vehicleId": "48291025",
      "driverId": "22831024",
      "startMs": 1736414700000,
      "endMs": 1736424680175,
      "startLocation": {
        "latitude": 40.792917,
        "longitude": -111.788125
      },
      "endLocation": {
        "latitude": 40.712893,
        "longitude": -111.826549
      },
      "startAddress": "67881 Kramer Manor",
      "endAddress": "7386 James Branch Suite 484",
      "startCoords": {
        "latitude": 40.752261,
        "longitude": -111.898382
      },
      "endCoords": {
        "latitude": 40.737021,
        "longitude": -111.83049
      },
      "distanceMeters": 72919.7,
      "durationMs": 9980175,
      "drivingDurationMs": 9452504,
      "idlingDurationMs": 527671,
      "fuelConsumedMl": 9270,
      "fuelConsumedGallons": 2.449,
      "maxSpeedMph": 66.6,
      "averageSpeedMph": 16.3,
      "safetyEvents": [
        {
          "type": "speeding",
          "startMs": 1736421060000,
          "maxSpeedMph": 66.6
        }
      ],
      "_no_driver_login": false,
      "_fuel_note": ""
    },
    {
      "id": "trip_48291025_20250109_003",
      "vehicleId": "48291025",
      "driverId": "22831024",
      "startMs": 1736412480000,
      "endMs": 1736420505013,
      "startLocation": {
        "latitude": 40.697877,
        "longitude": -111.796854
      },
      "endLocation": {
        "latitude": 40.758049,
        "longitude": -111.775686
      },
      "startAddress": "3322 Tammie Estates Suite 895",
      "endAddress": "770 Donna Manors Apt. 394",
      "startCoords": {
        "latitude": 40.727314,
        "longitude": -111.850509
      },
      "endCoords": {
        "latitude": 40.699056,
        "longitude": -111.898252
      },
      "distanceMeters": 55703.2,
      "durationMs": 8025014,
      "drivingDurationMs": 6981761,
      "idlingDurationMs": 1043253,
      "fuelConsumedMl": 7083,
      "fuelConsumedGallons": 1.871,
      "maxSpeedMph": 42.9,
      "averageSpeedMph": 15.5,
      "safetyEvents": [],
      "_no_driver_login": false,
      "_fuel_note": ""
    },
    {
      "id": "trip_48291025_20250109_004",
      "vehicleId": "48291025",
      "driverId": "22831024",
      "startMs": 1736406600000,
      "endMs": 1736414562568,
      "startLocation": {
        "latitude": 40.746261,
        "longitude": -111.786729
      },
      "endLocation": {
        "latitude": 40.702828,
        "longitude": -111.922017
      },
      "startAddress": "942 Hill Oval Suite 089",
      "endAddress": "01203 Barbara Burgs Apt. 387",
      "startCoords": {
        "latitude": 40.751169,
        "longitude": -111.884686
      },
      "endCoords": {
        "latitude": 40.703483,
        "longitude": -111.821014
      },
      "distanceMeters": 56276.3,
      "durationMs": 7962569,
      "drivingDurationMs": 6733458,
      "idlingDurationMs": 1229111,
      "fuelConsumedMl": 7154,
      "fuelConsumedGallons": 1.89,
      "maxSpeedMph": 46.4,
      "averageSpeedMph": 15.8,
      "safetyEvents": [],
      "_no_driver_login": false,
      "_fuel_note": ""
    },
    {
      "id": "trip_48291025_20250110_001",
      "vehicleId": "48291025",
      "driverId": "22831024",
      "startMs": 1736506500000,
      "endMs": 1736508533246,
      "startLocation": {
        "latitude": 40.79493,
        "longitude": -111.913155
      },
      "endLocation": {
        "latitude": 40.661213,
        "longitude": -111.792497
      },
      "startAddress": "954 Sherry Forks",
      "endAddress": "7020 Stuart Club Suite 378",
      "startCoords": {
        "latitude": 40.703584,
        "longitude": -111.803712
      },
      "endCoords": {
        "latitude": 40.718314,
        "longitude": -111.936693
      },
      "distanceMeters": 11674.5,
      "durationMs": 2033246,
      "drivingDurationMs": 1678616,
      "idlingDurationMs": 354630,
      "fuelConsumedMl": 1484,
      "fuelConsumedGallons": 0.392,
      "maxSpeedMph": 50.2,
      "averageSpeedMph": 12.8,
      "safetyEvents": [],
      "_no_driver_login": false,
      "_fuel_note": "QUIRK 5: fuelConsumedGallons is in US gallons. Multiply by 3.785 for litres. Samsara does not link fuel to specific Onfleet tasks."
    },
    {
      "id": "trip_48291025_20250110_002",
      "vehicleId": "48291025",
      "driverId": "22831024",
      "startMs": 1736519700000,
      "endMs": 1736526958138,
      "startLocation": {
        "latitude": 40.717471,
        "longitude": -111.77707
      },
      "endLocation": {
        "latitude": 40.796906,
        "longitude": -111.844664
      },
      "startAddress": "05555 Emily Grove Suite 078",
      "endAddress": "7888 Dawn Stream Apt. 100",
      "startCoords": {
        "latitude": 40.690385,
        "longitude": -111.923241
      },
      "endCoords": {
        "latitude": 40.751119,
        "longitude": -111.952142
      },
      "distanceMeters": 44371.0,
      "durationMs": 7258139,
      "drivingDurationMs": 6358584,
      "idlingDurationMs": 899554,
      "fuelConsumedMl": 5640,
      "fuelConsumedGallons": 1.49,
      "maxSpeedMph": 60.0,
      "averageSpeedMph": 13.7,
      "safetyEvents": [],
      "_no_driver_login": false,
      "_fuel_note": ""
    },
    {
      "id": "trip_48291025_20250111_001",
      "vehicleId": "48291025",
      "driverId": "22831024",
      "startMs": 1736615220000,
      "endMs": 1736621893325,
      "startLocation": {
        "latitude": 40.785629,
        "longitude": -111.892932
      },
      "endLocation": {
        "latitude": 40.661809,
        "longitude": -111.874048
      },
      "startAddress": "6762 Melanie Mill",
      "endAddress": "54316 Autumn Island",
      "startCoords": {
        "latitude": 40.671041,
        "longitude": -111.783372
      },
      "endCoords": {
        "latitude": 40.724062,
        "longitude": -111.908327
      },
      "distanceMeters": 42702.5,
      "durationMs": 6673326,
      "drivingDurationMs": 5551796,
      "idlingDurationMs": 1121529,
      "fuelConsumedMl": 5428,
      "fuelConsumedGallons": 1.434,
      "maxSpeedMph": 58.1,
      "averageSpeedMph": 14.3,
      "safetyEvents": [],
      "_no_driver_login": false,
      "_fuel_note": "QUIRK 5: fuelConsumedGallons is in US gallons. Multiply by 3.785 for litres. Samsara does not link fuel to specific Onfleet tasks."
    },
    {
      "id": "trip_48291025_20250112_001",
      "vehicleId": "48291025",
      "driverId": "22831024",
      "startMs": 1736677140000,
      "endMs": 1736685724851,
      "startLocation": {
        "latitude": 40.770225,
        "longitude": -111.874758
      },
      "endLocation": {
        "latitude": 40.75252,
        "longitude": -111.880121
      },
      "startAddress": "322 Lambert Extensions",
      "endAddress": "0149 Andrea Vista Suite 754",
      "startCoords": {
        "latitude": 40.660469,
        "longitude": -111.923192
      },
      "endCoords": {
        "latitude": 40.677097,
        "longitude": -111.806929
      },
      "distanceMeters": 63232.5,
      "durationMs": 8584851,
      "drivingDurationMs": 8224996,
      "idlingDurationMs": 359856,
      "fuelConsumedMl": 8040,
      "fuelConsumedGallons": 2.124,
      "maxSpeedMph": 49.5,
      "averageSpeedMph": 16.5,
      "safetyEvents": [],
      "_no_driver_login": false,
      "_fuel_note": "QUIRK 5: fuelConsumedGallons is in US gallons. Multiply by 3.785 for litres. Samsara does not link fuel to specific Onfleet tasks."
    },
    {
      "id": "trip_48291025_20250112_002",
      "vehicleId": "48291025",
      "driverId": "22831024",
      "startMs": 1736674860000,
      "endMs": 1736685393131,
      "startLocation": {
        "latitude": 40.694048,
        "longitude": -111.781019
      },
      "endLocation": {
        "latitude": 40.731973,
        "longitude": -111.857341
      },
      "startAddress": "188 Cobb Lake",
      "endAddress": "8007 Jill Groves Suite 366",
      "startCoords": {
        "latitude": 40.747754,
        "longitude": -111.854316
      },
      "endCoords": {
        "latitude": 40.687976,
        "longitude": -111.876029
      },
      "distanceMeters": 82577.8,
      "durationMs": 10533131,
      "drivingDurationMs": 9420686,
      "idlingDurationMs": 1112445,
      "fuelConsumedMl": 10501,
      "fuelConsumedGallons": 2.774,
      "maxSpeedMph": 51.3,
      "averageSpeedMph": 17.5,
      "safetyEvents": [],
      "_no_driver_login": false,
      "_fuel_note": ""
    },
    {
      "id": "trip_48291025_20250112_003",
      "vehicleId": "48291025",
      "driverId": "22831024",
      "startMs": 1736695740000,
      "endMs": 1736707383565,
      "startLocation": {
        "latitude": 40.756075,
        "longitude": -111.957715
      },
      "endLocation": {
        "latitude": 40.679909,
        "longitude": -111.850232
      },
      "startAddress": "5550 Decker Junction",
      "endAddress": "750 Nancy Parks",
      "startCoords": {
        "latitude": 40.710057,
        "longitude": -111.85253
      },
      "endCoords": {
        "latitude": 40.753309,
        "longitude": -111.780568
      },
      "distanceMeters": 78096.4,
      "durationMs": 11643565,
      "drivingDurationMs": 10232038,
      "idlingDurationMs": 1411527,
      "fuelConsumedMl": 9929,
      "fuelConsumedGallons": 2.623,
      "maxSpeedMph": 37.6,
      "averageSpeedMph": 15.0,
      "safetyEvents": [],
      "_no_driver_login": false,
      "_fuel_note": ""
    },
    {
      "id": "trip_48291025_20250113_001",
      "vehicleId": "48291025",
      "driverId": "22831024",
      "startMs": 1736757720000,
      "endMs": 1736762406975,
      "startLocation": {
        "latitude": 40.691605,
        "longitude": -111.906469
      },
      "endLocation": {
        "latitude": 40.69594,
        "longitude": -111.889919
      },
      "startAddress": "42785 Norton Coves Apt. 363",
      "endAddress": "6956 Leslie Bypass",
      "startCoords": {
        "latitude": 40.665073,
        "longitude": -111.782878
      },
      "endCoords": {
        "latitude": 40.746106,
        "longitude": -111.89792
      },
      "distanceMeters": 24996.7,
      "durationMs": 4686976,
      "drivingDurationMs": 4093554,
      "idlingDurationMs": 593422,
      "fuelConsumedMl": 3180,
      "fuelConsumedGallons": 0.84,
      "maxSpeedMph": 65.8,
      "averageSpeedMph": 11.9,
      "safetyEvents": [
        {
          "type": "speeding",
          "startMs": 1736759820000,
          "maxSpeedMph": 65.8
        }
      ],
      "_no_driver_login": false,
      "_fuel_note": "QUIRK 5: fuelConsumedGallons is in US gallons. Multiply by 3.785 for litres. Samsara does not link fuel to specific Onfleet tasks."
    },
    {
      "id": "trip_48291025_20250113_002",
      "vehicleId": "48291025",
      "driverId": "22831024",
      "startMs": 1736775780000,
      "endMs": 1736777192223,
      "startLocation": {
        "latitude": 40.738388,
        "longitude": -111.801409
      },
      "endLocation": {
        "latitude": 40.667226,
        "longitude": -111.878912
      },
      "startAddress": "412 Luis Plaza Apt. 888",
      "endAddress": "81107 Justin Summit Apt. 360",
      "startCoords": {
        "latitude": 40.799582,
        "longitude": -111.894729
      },
      "endCoords": {
        "latitude": 40.712515,
        "longitude": -111.898526
      },
      "distanceMeters": 8967.0,
      "durationMs": 1412224,
      "drivingDurationMs": 1183853,
      "idlingDurationMs": 228371,
      "fuelConsumedMl": 1139,
      "fuelConsumedGallons": 0.301,
      "maxSpeedMph": 63.0,
      "averageSpeedMph": 14.2,
      "safetyEvents": [],
      "_no_driver_login": false,
      "_fuel_note": ""
    },
    {
      "id": "trip_48291025_20250113_003",
      "vehicleId": "48291025",
      "driverId": "22831024",
      "startMs": 1736752560000,
      "endMs": 1736760977230,
      "startLocation": {
        "latitude": 40.698083,
        "longitude": -111.941934
      },
      "endLocation": {
        "latitude": 40.704842,
        "longitude": -111.949335
      },
      "startAddress": "8085 Green Trail",
      "endAddress": "72132 Trevino Station Suite 763",
      "startCoords": {
        "latitude": 40.730304,
        "longitude": -111.791581
      },
      "endCoords": {
        "latitude": 40.704767,
        "longitude": -111.914377
      },
      "distanceMeters": 55592.5,
      "durationMs": 8417231,
      "drivingDurationMs": 7063370,
      "idlingDurationMs": 1353861,
      "fuelConsumedMl": 7067,
      "fuelConsumedGallons": 1.867,
      "maxSpeedMph": 28.0,
      "averageSpeedMph": 14.8,
      "safetyEvents": [],
      "_no_driver_login": false,
      "_fuel_note": ""
    },
    {
      "id": "trip_48291025_20250114_001",
      "vehicleId": "48291025",
      "driverId": "22831024",
      "startMs": 1736841480000,
      "endMs": 1736853542106,
      "startLocation": {
        "latitude": 40.729132,
        "longitude": -111.90174
      },
      "endLocation": {
        "latitude": 40.712703,
        "longitude": -111.789279
      },
      "startAddress": "48541 Evelyn Shores",
      "endAddress": "109 Gregory Expressway Suite 539",
      "startCoords": {
        "latitude": 40.75834,
        "longitude": -111.843278
      },
      "endCoords": {
        "latitude": 40.761132,
        "longitude": -111.908736
      },
      "distanceMeters": 51392.6,
      "durationMs": 12062106,
      "drivingDurationMs": 9852480,
      "idlingDurationMs": 2209626,
      "fuelConsumedMl": 6534,
      "fuelConsumedGallons": 1.726,
      "maxSpeedMph": 29.5,
      "averageSpeedMph": 9.5,
      "safetyEvents": [],
      "_no_driver_login": false,
      "_fuel_note": "QUIRK 5: fuelConsumedGallons is in US gallons. Multiply by 3.785 for litres. Samsara does not link fuel to specific Onfleet tasks."
    },
    {
      "id": "trip_48291025_20250114_002",
      "vehicleId": "48291025",
      "driverId": "22831024",
      "startMs": 1736858880000,
      "endMs": 1736866134251,
      "startLocation": {
        "latitude": 40.67121,
        "longitude": -111.941818
      },
      "endLocation": {
        "latitude": 40.732687,
        "longitude": -111.783888
      },
      "startAddress": "55614 Garcia Drives Suite 010",
      "endAddress": "215 Brianna Coves",
      "startCoords": {
        "latitude": 40.710609,
        "longitude": -111.949277
      },
      "endCoords": {
        "latitude": 40.687701,
        "longitude": -111.94146
      },
      "distanceMeters": 50796.4,
      "durationMs": 7254252,
      "drivingDurationMs": 6202261,
      "idlingDurationMs": 1051991,
      "fuelConsumedMl": 6458,
      "fuelConsumedGallons": 1.706,
      "maxSpeedMph": 29.4,
      "averageSpeedMph": 15.7,
      "safetyEvents": [],
      "_no_driver_login": false,
      "_fuel_note": ""
    },
    {
      "id": "trip_48291025_20250115_001",
      "vehicleId": "48291025",
      "driverId": "22831024",
      "startMs": 1736936220000,
      "endMs": 1736946707960,
      "startLocation": {
        "latitude": 40.684574,
        "longitude": -111.841933
      },
      "endLocation": {
        "latitude": 40.798053,
        "longitude": -111.879633
      },
      "startAddress": "28742 Butler Lodge",
      "endAddress": "8058 Anthony Stravenue Suite 895",
      "startCoords": {
        "latitude": 40.762856,
        "longitude": -111.918477
      },
      "endCoords": {
        "latitude": 40.673901,
        "longitude": -111.919979
      },
      "distanceMeters": 62149.5,
      "durationMs": 10487961,
      "drivingDurationMs": 8732102,
      "idlingDurationMs": 1755858,
      "fuelConsumedMl": 7900,
      "fuelConsumedGallons": 2.087,
      "maxSpeedMph": 63.4,
      "averageSpeedMph": 13.3,
      "safetyEvents": [],
      "_no_driver_login": false,
      "_fuel_note": "QUIRK 5: fuelConsumedGallons is in US gallons. Multiply by 3.785 for litres. Samsara does not link fuel to specific Onfleet tasks."
    },
    {
      "id": "trip_48291025_20250115_002",
      "vehicleId": "48291025",
      "driverId": "22831024",
      "startMs": 1736933280000,
      "endMs": 1736935179214,
      "startLocation": {
        "latitude": 40.701268,
        "longitude": -111.95615
      },
      "endLocation": {
        "latitude": 40.779562,
        "longitude": -111.795932
      },
      "startAddress": "157 Grimes Center",
      "endAddress": "4385 Fernandez Points",
      "startCoords": {
        "latitude": 40.658327,
        "longitude": -111.901618
      },
      "endCoords": {
        "latitude": 40.689661,
        "longitude": -111.894991
      },
      "distanceMeters": 9896.0,
      "durationMs": 1899214,
      "drivingDurationMs": 1656782,
      "idlingDurationMs": 242432,
      "fuelConsumedMl": 1257,
      "fuelConsumedGallons": 0.332,
      "maxSpeedMph": 35.4,
      "averageSpeedMph": 11.7,
      "safetyEvents": [],
      "_no_driver_login": false,
      "_fuel_note": ""
    },
    {
      "id": "trip_48291025_20250115_003",
      "vehicleId": "48291025",
      "driverId": "22831024",
      "startMs": 1736958720000,
      "endMs": 1736965604723,
      "startLocation": {
        "latitude": 40.674048,
        "longitude": -111.865797
      },
      "endLocation": {
        "latitude": 40.75238,
        "longitude": -111.809335
      },
      "startAddress": "7949 Lauren Pines",
      "endAddress": "1446 Davis Ranch",
      "startCoords": {
        "latitude": 40.737519,
        "longitude": -111.821588
      },
      "endCoords": {
        "latitude": 40.730719,
        "longitude": -111.901404
      },
      "distanceMeters": 46502.8,
      "durationMs": 6884723,
      "drivingDurationMs": 5588380,
      "idlingDurationMs": 1296343,
      "fuelConsumedMl": 5913,
      "fuelConsumedGallons": 1.562,
      "maxSpeedMph": 52.3,
      "averageSpeedMph": 15.1,
      "safetyEvents": [],
      "_no_driver_login": false,
      "_fuel_note": ""
    },
    {
      "id": "trip_48291025_20250115_004",
      "vehicleId": "48291025",
      "driverId": "22831024",
      "startMs": 1736967540000,
      "endMs": 1736969661791,
      "startLocation": {
        "latitude": 40.76622,
        "longitude": -111.781024
      },
      "endLocation": {
        "latitude": 40.730426,
        "longitude": -111.823416
      },
      "startAddress": "1710 Mikayla Lodge Suite 626",
      "endAddress": "8854 Estrada Freeway Suite 377",
      "startCoords": {
        "latitude": 40.687722,
        "longitude": -111.948813
      },
      "endCoords": {
        "latitude": 40.70962,
        "longitude": -111.817049
      },
      "distanceMeters": 15902.5,
      "durationMs": 2121791,
      "drivingDurationMs": 1861772,
      "idlingDurationMs": 260019,
      "fuelConsumedMl": 2021,
      "fuelConsumedGallons": 0.534,
      "maxSpeedMph": 49.2,
      "averageSpeedMph": 16.8,
      "safetyEvents": [],
      "_no_driver_login": false,
      "_fuel_note": ""
    },
    {
      "id": "trip_48291025_20250115_005",
      "vehicleId": "48291025",
      "driverId": "22831024",
      "startMs": 1736925600000,
      "endMs": 1736935591406,
      "startLocation": {
        "latitude": 40.658454,
        "longitude": -111.884659
      },
      "endLocation": {
        "latitude": 40.754299,
        "longitude": -111.869139
      },
      "startAddress": "5995 Gary Forks Suite 423",
      "endAddress": "2266 Dixon Inlet",
      "startCoords": {
        "latitude": 40.749048,
        "longitude": -111.837312
      },
      "endCoords": {
        "latitude": 40.714015,
        "longitude": -111.817914
      },
      "distanceMeters": 75740.2,
      "durationMs": 9991407,
      "drivingDurationMs": 9307212,
      "idlingDurationMs": 684194,
      "fuelConsumedMl": 9630,
      "fuelConsumedGallons": 2.544,
      "maxSpeedMph": 60.7,
      "averageSpeedMph": 17.0,
      "safetyEvents": [],
      "_no_driver_login": false,
      "_fuel_note": ""
    },
    {
      "id": "trip_48291025_20250115_006",
      "vehicleId": "48291025",
      "driverId": "22831024",
      "startMs": 1736931900000,
      "endMs": 1736933705495,
      "startLocation": {
        "latitude": 40.67117,
        "longitude": -111.780738
      },
      "endLocation": {
        "latitude": 40.70404,
        "longitude": -111.822053
      },
      "startAddress": "614 Tanner Plaza",
      "endAddress": "3580 Walton Flats",
      "startCoords": {
        "latitude": 40.659813,
        "longitude": -111.915918
      },
      "endCoords": {
        "latitude": 40.685758,
        "longitude": -111.940542
      },
      "distanceMeters": 12989.5,
      "durationMs": 1805495,
      "drivingDurationMs": 1610121,
      "idlingDurationMs": 195374,
      "fuelConsumedMl": 1650,
      "fuelConsumedGallons": 0.436,
      "maxSpeedMph": 47.0,
      "averageSpeedMph": 16.1,
      "safetyEvents": [],
      "_no_driver_login": false,
      "_fuel_note": ""
    },
    {
      "id": "trip_48291025_20250116_001",
      "vehicleId": "48291025",
      "driverId": "22831024",
      "startMs": 1737034500000,
      "endMs": 1737035658601,
      "startLocation": {
        "latitude": 40.696049,
        "longitude": -111.776865
      },
      "endLocation": {
        "latitude": 40.778472,
        "longitude": -111.85635
      },
      "startAddress": "9016 Craig Inlet",
      "endAddress": "3309 Ruiz Row Apt. 415",
      "startCoords": {
        "latitude": 40.799599,
        "longitude": -111.913957
      },
      "endCoords": {
        "latitude": 40.719194,
        "longitude": -111.77531
      },
      "distanceMeters": 7348.7,
      "durationMs": 1158601,
      "drivingDurationMs": 961715,
      "idlingDurationMs": 196886,
      "fuelConsumedMl": 935,
      "fuelConsumedGallons": 0.247,
      "maxSpeedMph": 49.6,
      "averageSpeedMph": 14.2,
      "safetyEvents": [],
      "_no_driver_login": false,
      "_fuel_note": "QUIRK 5: fuelConsumedGallons is in US gallons. Multiply by 3.785 for litres. Samsara does not link fuel to specific Onfleet tasks."
    },
    {
      "id": "trip_48291025_20250116_002",
      "vehicleId": "48291025",
      "driverId": "22831024",
      "startMs": 1737014520000,
      "endMs": 1737030667784,
      "startLocation": {
        "latitude": 40.728746,
        "longitude": -111.886216
      },
      "endLocation": {
        "latitude": 40.686984,
        "longitude": -111.877561
      },
      "startAddress": "427 Henry Ville",
      "endAddress": "1653 Ramirez Lodge Suite 785",
      "startCoords": {
        "latitude": 40.749323,
        "longitude": -111.857329
      },
      "endCoords": {
        "latitude": 40.757409,
        "longitude": -111.871731
      },
      "distanceMeters": 83977.4,
      "durationMs": 16147784,
      "drivingDurationMs": 14519435,
      "idlingDurationMs": 1628349,
      "fuelConsumedMl": 10679,
      "fuelConsumedGallons": 2.821,
      "maxSpeedMph": 40.5,
      "averageSpeedMph": 11.6,
      "safetyEvents": [],
      "_no_driver_login": false,
      "_fuel_note": ""
    },
    {
      "id": "trip_48291025_20250116_003",
      "vehicleId": "48291025",
      "driverId": "22831024",
      "startMs": 1737021060000,
      "endMs": 1737030663434,
      "startLocation": {
        "latitude": 40.796557,
        "longitude": -111.926585
      },
      "endLocation": {
        "latitude": 40.782399,
        "longitude": -111.832778
      },
      "startAddress": "71643 Jones Squares Apt. 168",
      "endAddress": "524 Rebecca Crest Suite 874",
      "startCoords": {
        "latitude": 40.74847,
        "longitude": -111.829143
      },
      "endCoords": {
        "latitude": 40.714887,
        "longitude": -111.85491
      },
      "distanceMeters": 69090.7,
      "durationMs": 9603435,
      "drivingDurationMs": 8527186,
      "idlingDurationMs": 1076249,
      "fuelConsumedMl": 8786,
      "fuelConsumedGallons": 2.321,
      "maxSpeedMph": 45.9,
      "averageSpeedMph": 16.1,
      "safetyEvents": [],
      "_no_driver_login": false,
      "_fuel_note": ""
    },
    {
      "id": "trip_48291025_20250116_004",
      "vehicleId": "48291025",
      "driverId": "22831024",
      "startMs": 1737039780000,
      "endMs": 1737045152719,
      "startLocation": {
        "latitude": 40.692309,
        "longitude": -111.920737
      },
      "endLocation": {
        "latitude": 40.784086,
        "longitude": -111.885845
      },
      "startAddress": "256 Joshua Streets Apt. 251",
      "endAddress": "10288 Heather Tunnel",
      "startCoords": {
        "latitude": 40.758235,
        "longitude": -111.834873
      },
      "endCoords": {
        "latitude": 40.724687,
        "longitude": -111.804973
      },
      "distanceMeters": 39131.5,
      "durationMs": 5372719,
      "drivingDurationMs": 4888640,
      "idlingDurationMs": 484079,
      "fuelConsumedMl": 4974,
      "fuelConsumedGallons": 1.314,
      "maxSpeedMph": 58.7,
      "averageSpeedMph": 16.3,
      "safetyEvents": [],
      "_no_driver_login": false,
      "_fuel_note": ""
    },
    {
      "id": "trip_48291025_20250116_005",
      "vehicleId": "48291025",
      "driverId": "22831024",
      "startMs": 1737026760000,
      "endMs": 1737035769491,
      "startLocation": {
        "latitude": 40.721409,
        "longitude": -111.827528
      },
      "endLocation": {
        "latitude": 40.7843,
        "longitude": -111.89384
      },
      "startAddress": "141 Christopher Streets Apt. 017",
      "endAddress": "4815 Carroll Court Suite 238",
      "startCoords": {
        "latitude": 40.676034,
        "longitude": -111.84731
      },
      "endCoords": {
        "latitude": 40.795161,
        "longitude": -111.86694
      },
      "distanceMeters": 67484.5,
      "durationMs": 9009492,
      "drivingDurationMs": 7916920,
      "idlingDurationMs": 1092572,
      "fuelConsumedMl": 8582,
      "fuelConsumedGallons": 2.267,
      "maxSpeedMph": 43.6,
      "averageSpeedMph": 16.8,
      "safetyEvents": [],
      "_no_driver_login": false,
      "_fuel_note": ""
    },
    {
      "id": "trip_48291025_20250117_001",
      "vehicleId": "48291025",
      "driverId": "22831024",
      "startMs": 1737094440000,
      "endMs": 1737105946482,
      "startLocation": {
        "latitude": 40.691703,
        "longitude": -111.877511
      },
      "endLocation": {
        "latitude": 40.745522,
        "longitude": -111.900044
      },
      "startAddress": "42427 Patton Cliffs Apt. 876",
      "endAddress": "82612 Davenport Prairie",
      "startCoords": {
        "latitude": 40.713686,
        "longitude": -111.905848
      },
      "endCoords": {
        "latitude": 40.791494,
        "longitude": -111.927909
      },
      "distanceMeters": 67326.5,
      "durationMs": 11506482,
      "drivingDurationMs": 9258728,
      "idlingDurationMs": 2247754,
      "fuelConsumedMl": 8559,
      "fuelConsumedGallons": 2.261,
      "maxSpeedMph": 61.3,
      "averageSpeedMph": 13.1,
      "safetyEvents": [],
      "_no_driver_login": false,
      "_fuel_note": "QUIRK 5: fuelConsumedGallons is in US gallons. Multiply by 3.785 for litres. Samsara does not link fuel to specific Onfleet tasks."
    },
    {
      "id": "trip_48291025_20250117_002",
      "vehicleId": "48291025",
      "driverId": "22831024",
      "startMs": 1737096840000,
      "endMs": 1737105242883,
      "startLocation": {
        "latitude": 40.713457,
        "longitude": -111.867085
      },
      "endLocation": {
        "latitude": 40.758283,
        "longitude": -111.924204
      },
      "startAddress": "9994 Brandi Square Apt. 681",
      "endAddress": "5610 Durham Points",
      "startCoords": {
        "latitude": 40.751489,
        "longitude": -111.817606
      },
      "endCoords": {
        "latitude": 40.779248,
        "longitude": -111.959915
      },
      "distanceMeters": 51270.5,
      "durationMs": 8402884,
      "drivingDurationMs": 7648361,
      "idlingDurationMs": 754523,
      "fuelConsumedMl": 6518,
      "fuelConsumedGallons": 1.722,
      "maxSpeedMph": 67.0,
      "averageSpeedMph": 13.6,
      "safetyEvents": [
        {
          "type": "speeding",
          "startMs": 1737104100000,
          "maxSpeedMph": 67.0
        }
      ],
      "_no_driver_login": false,
      "_fuel_note": ""
    },
    {
      "id": "trip_48291025_20250117_003",
      "vehicleId": "48291025",
      "driverId": "22831024",
      "startMs": 1737118140000,
      "endMs": 1737128073286,
      "startLocation": {
        "latitude": 40.729849,
        "longitude": -111.899681
      },
      "endLocation": {
        "latitude": 40.7603,
        "longitude": -111.798978
      },
      "startAddress": "3258 Gordon Grove Apt. 062",
      "endAddress": "1656 Cristina Throughway Suite 512",
      "startCoords": {
        "latitude": 40.731006,
        "longitude": -111.950201
      },
      "endCoords": {
        "latitude": 40.7824,
        "longitude": -111.817206
      },
      "distanceMeters": 60298.7,
      "durationMs": 9933287,
      "drivingDurationMs": 8193523,
      "idlingDurationMs": 1739764,
      "fuelConsumedMl": 7665,
      "fuelConsumedGallons": 2.025,
      "maxSpeedMph": 30.7,
      "averageSpeedMph": 13.6,
      "safetyEvents": [],
      "_no_driver_login": false,
      "_fuel_note": ""
    },
    {
      "id": "trip_48291025_20250117_004",
      "vehicleId": "48291025",
      "driverId": "22831024",
      "startMs": 1737123240000,
      "endMs": 1737126913771,
      "startLocation": {
        "latitude": 40.740164,
        "longitude": -111.832292
      },
      "endLocation": {
        "latitude": 40.72332,
        "longitude": -111.827089
      },
      "startAddress": "4152 Jessica Parkway",
      "endAddress": "7701 Bautista Lane Apt. 023",
      "startCoords": {
        "latitude": 40.73528,
        "longitude": -111.903527
      },
      "endCoords": {
        "latitude": 40.781944,
        "longitude": -111.928749
      },
      "distanceMeters": 26713.5,
      "durationMs": 3673771,
      "drivingDurationMs": 3042002,
      "idlingDurationMs": 631769,
      "fuelConsumedMl": 3396,
      "fuelConsumedGallons": 0.897,
      "maxSpeedMph": 37.9,
      "averageSpeedMph": 16.3,
      "safetyEvents": [],
      "_no_driver_login": false,
      "_fuel_note": ""
    },
    {
      "id": "trip_48291025_20250118_001",
      "vehicleId": "48291025",
      "driverId": "22831024",
      "startMs": 1737220860000,
      "endMs": 1737222070322,
      "startLocation": {
        "latitude": 40.710467,
        "longitude": -111.789016
      },
      "endLocation": {
        "latitude": 40.797219,
        "longitude": -111.796011
      },
      "startAddress": "11025 Kimberly Shoals Suite 933",
      "endAddress": "515 Connie Ports Suite 007",
      "startCoords": {
        "latitude": 40.739727,
        "longitude": -111.956924
      },
      "endCoords": {
        "latitude": 40.675239,
        "longitude": -111.855962
      },
      "distanceMeters": 8506.2,
      "durationMs": 1210322,
      "drivingDurationMs": 1022394,
      "idlingDurationMs": 187928,
      "fuelConsumedMl": 1083,
      "fuelConsumedGallons": 0.286,
      "maxSpeedMph": 39.9,
      "averageSpeedMph": 15.7,
      "safetyEvents": [],
      "_no_driver_login": false,
      "_fuel_note": "QUIRK 5: fuelConsumedGallons is in US gallons. Multiply by 3.785 for litres. Samsara does not link fuel to specific Onfleet tasks."
    },
    {
      "id": "trip_48291025_20250118_002",
      "vehicleId": "48291025",
      "driverId": "22831024",
      "startMs": 1737209880000,
      "endMs": 1737217165029,
      "startLocation": {
        "latitude": 40.760124,
        "longitude": -111.909687
      },
      "endLocation": {
        "latitude": 40.741721,
        "longitude": -111.935514
      },
      "startAddress": "7239 Barton Via Apt. 188",
      "endAddress": "07605 Mcclain Plain",
      "startCoords": {
        "latitude": 40.698613,
        "longitude": -111.803403
      },
      "endCoords": {
        "latitude": 40.751078,
        "longitude": -111.818291
      },
      "distanceMeters": 45698.7,
      "durationMs": 7285030,
      "drivingDurationMs": 6280086,
      "idlingDurationMs": 1004944,
      "fuelConsumedMl": 5811,
      "fuelConsumedGallons": 1.535,
      "maxSpeedMph": 43.7,
      "averageSpeedMph": 14.0,
      "safetyEvents": [],
      "_no_driver_login": false,
      "_fuel_note": ""
    },
    {
      "id": "trip_48291025_20250119_001",
      "vehicleId": "48291025",
      "driverId": "22831024",
      "startMs": 1737283560000,
      "endMs": 1737286702210,
      "startLocation": {
        "latitude": 40.729946,
        "longitude": -111.926033
      },
      "endLocation": {
        "latitude": 40.782888,
        "longitude": -111.856893
      },
      "startAddress": "63159 Alexandra Ranch Suite 278",
      "endAddress": "18919 Angelica Spur Suite 402",
      "startCoords": {
        "latitude": 40.77648,
        "longitude": -111.853522
      },
      "endCoords": {
        "latitude": 40.740603,
        "longitude": -111.798977
      },
      "distanceMeters": 23134.4,
      "durationMs": 3142210,
      "drivingDurationMs": 2784437,
      "idlingDurationMs": 357773,
      "fuelConsumedMl": 2941,
      "fuelConsumedGallons": 0.777,
      "maxSpeedMph": 36.7,
      "averageSpeedMph": 16.5,
      "safetyEvents": [],
      "_no_driver_login": false,
      "_fuel_note": "QUIRK 5: fuelConsumedGallons is in US gallons. Multiply by 3.785 for litres. Samsara does not link fuel to specific Onfleet tasks."
    },
    {
      "id": "trip_48291025_20250120_001",
      "vehicleId": "48291025",
      "driverId": "22831024",
      "startMs": 1737366300000,
      "endMs": 1737379955855,
      "startLocation": {
        "latitude": 40.675298,
        "longitude": -111.951335
      },
      "endLocation": {
        "latitude": 40.799626,
        "longitude": -111.844213
      },
      "startAddress": "240 Miles Villages Apt. 550",
      "endAddress": "7644 Garrett Way Apt. 148",
      "startCoords": {
        "latitude": 40.660981,
        "longitude": -111.862879
      },
      "endCoords": {
        "latitude": 40.706067,
        "longitude": -111.819315
      },
      "distanceMeters": 72197.0,
      "durationMs": 13655855,
      "drivingDurationMs": 10987233,
      "idlingDurationMs": 2668622,
      "fuelConsumedMl": 9180,
      "fuelConsumedGallons": 2.425,
      "maxSpeedMph": 42.0,
      "averageSpeedMph": 11.8,
      "safetyEvents": [],
      "_no_driver_login": false,
      "_fuel_note": "QUIRK 5: fuelConsumedGallons is in US gallons. Multiply by 3.785 for litres. Samsara does not link fuel to specific Onfleet tasks."
    },
    {
      "id": "trip_48291025_20250120_002",
      "vehicleId": "48291025",
      "driverId": "22831024",
      "startMs": 1737387840000,
      "endMs": 1737395536980,
      "startLocation": {
        "latitude": 40.666751,
        "longitude": -111.881747
      },
      "endLocation": {
        "latitude": 40.777617,
        "longitude": -111.81737
      },
      "startAddress": "642 Baldwin Circle",
      "endAddress": "65451 Jennifer Vista Suite 002",
      "startCoords": {
        "latitude": 40.754134,
        "longitude": -111.95425
      },
      "endCoords": {
        "latitude": 40.786946,
        "longitude": -111.825158
      },
      "distanceMeters": 32474.5,
      "durationMs": 7696981,
      "drivingDurationMs": 6379261,
      "idlingDurationMs": 1317720,
      "fuelConsumedMl": 4130,
      "fuelConsumedGallons": 1.091,
      "maxSpeedMph": 61.7,
      "averageSpeedMph": 9.4,
      "safetyEvents": [],
      "_no_driver_login": false,
      "_fuel_note": ""
    },
    {
      "id": "trip_48291025_20250121_001",
      "vehicleId": "48291025",
      "driverId": "22831024",
      "startMs": 1737441720000,
      "endMs": 1737451500139,
      "startLocation": {
        "latitude": 40.695233,
        "longitude": -111.92821
      },
      "endLocation": {
        "latitude": 40.674403,
        "longitude": -111.919868
      },
      "startAddress": "295 Grace Point Suite 678",
      "endAddress": "96756 Jenkins Land",
      "startCoords": {
        "latitude": 40.70341,
        "longitude": -111.886433
      },
      "endCoords": {
        "latitude": 40.758337,
        "longitude": -111.936638
      },
      "distanceMeters": 71300.9,
      "durationMs": 9780140,
      "drivingDurationMs": 9017691,
      "idlingDurationMs": 762449,
      "fuelConsumedMl": 9066,
      "fuelConsumedGallons": 2.395,
      "maxSpeedMph": 41.2,
      "averageSpeedMph": 16.3,
      "safetyEvents": [],
      "_no_driver_login": false,
      "_fuel_note": "QUIRK 5: fuelConsumedGallons is in US gallons. Multiply by 3.785 for litres. Samsara does not link fuel to specific Onfleet tasks."
    },
    {
      "id": "trip_48291025_20250121_002",
      "vehicleId": "48291025",
      "driverId": "22831024",
      "startMs": 1737472440000,
      "endMs": 1737482563361,
      "startLocation": {
        "latitude": 40.791413,
        "longitude": -111.865818
      },
      "endLocation": {
        "latitude": 40.71467,
        "longitude": -111.883801
      },
      "startAddress": "863 Hawkins View Suite 597",
      "endAddress": "89724 Alyssa Mills",
      "startCoords": {
        "latitude": 40.691105,
        "longitude": -111.86031
      },
      "endCoords": {
        "latitude": 40.662786,
        "longitude": -111.86058
      },
      "distanceMeters": 83043.9,
      "durationMs": 10123361,
      "drivingDurationMs": 9758063,
      "idlingDurationMs": 365298,
      "fuelConsumedMl": 10558,
      "fuelConsumedGallons": 2.789,
      "maxSpeedMph": 49.5,
      "averageSpeedMph": 18.4,
      "safetyEvents": [],
      "_no_driver_login": false,
      "_fuel_note": ""
    },
    {
      "id": "trip_48291025_20250121_003",
      "vehicleId": "48291025",
      "driverId": "22831024",
      "startMs": 1737460920000,
      "endMs": 1737467758622,
      "startLocation": {
        "latitude": 40.756741,
        "longitude": -111.87036
      },
      "endLocation": {
        "latitude": 40.743513,
        "longitude": -111.946886
      },
      "startAddress": "3378 Green Mills",
      "endAddress": "673 Mary Summit",
      "startCoords": {
        "latitude": 40.679263,
        "longitude": -111.787096
      },
      "endCoords": {
        "latitude": 40.665559,
        "longitude": -111.779725
      },
      "distanceMeters": 42965.9,
      "durationMs": 6838623,
      "drivingDurationMs": 5675059,
      "idlingDurationMs": 1163564,
      "fuelConsumedMl": 5462,
      "fuelConsumedGallons": 1.443,
      "maxSpeedMph": 39.6,
      "averageSpeedMph": 14.1,
      "safetyEvents": [],
      "_no_driver_login": false,
      "_fuel_note": ""
    },
    {
      "id": "trip_48291025_20250121_004",
      "vehicleId": "48291025",
      "driverId": "22831024",
      "startMs": 1737470580000,
      "endMs": 1737482601907,
      "startLocation": {
        "latitude": 40.692301,
        "longitude": -111.833609
      },
      "endLocation": {
        "latitude": 40.796447,
        "longitude": -111.942443
      },
      "startAddress": "61593 Parker Orchard",
      "endAddress": "02820 Parker Radial Suite 962",
      "startCoords": {
        "latitude": 40.682009,
        "longitude": -111.898818
      },
      "endCoords": {
        "latitude": 40.732174,
        "longitude": -111.828095
      },
      "distanceMeters": 70914.0,
      "durationMs": 12021907,
      "drivingDurationMs": 11309817,
      "idlingDurationMs": 712090,
      "fuelConsumedMl": 9017,
      "fuelConsumedGallons": 2.382,
      "maxSpeedMph": 56.4,
      "averageSpeedMph": 13.2,
      "safetyEvents": [],
      "_no_driver_login": false,
      "_fuel_note": ""
    },
    {
      "id": "trip_48291025_20250122_001",
      "vehicleId": "48291025",
      "driverId": null,
      "startMs": 1737567000000,
      "endMs": 1737572879812,
      "startLocation": {
        "latitude": 40.716716,
        "longitude": -111.852604
      },
      "endLocation": {
        "latitude": 40.800111,
        "longitude": -111.788959
      },
      "startAddress": "5003 Chelsey Place",
      "endAddress": "8825 Glenn Ferry Apt. 865",
      "startCoords": {
        "latitude": 40.783687,
        "longitude": -111.933602
      },
      "endCoords": {
        "latitude": 40.690636,
        "longitude": -111.890433
      },
      "distanceMeters": 45093.7,
      "durationMs": 5879813,
      "drivingDurationMs": 5353047,
      "idlingDurationMs": 526766,
      "fuelConsumedMl": 5735,
      "fuelConsumedGallons": 1.515,
      "maxSpeedMph": 61.7,
      "averageSpeedMph": 17.2,
      "safetyEvents": [],
      "_no_driver_login": true,
      "_fuel_note": "QUIRK 5: fuelConsumedGallons is in US gallons. Multiply by 3.785 for litres. Samsara does not link fuel to specific Onfleet tasks."
    },
    {
      "id": "trip_48291025_20250122_002",
      "vehicleId": "48291025",
      "driverId": "22831024",
      "startMs": 1737550860000,
      "endMs": 1737556331197,
      "startLocation": {
        "latitude": 40.733974,
        "longitude": -111.899702
      },
      "endLocation": {
        "latitude": 40.711929,
        "longitude": -111.936117
      },
      "startAddress": "77486 Hector Terrace",
      "endAddress": "78116 Gabrielle Mill Apt. 732",
      "startCoords": {
        "latitude": 40.685197,
        "longitude": -111.906559
      },
      "endCoords": {
        "latitude": 40.688684,
        "longitude": -111.839708
      },
      "distanceMeters": 37002.1,
      "durationMs": 5471197,
      "drivingDurationMs": 4632350,
      "idlingDurationMs": 838847,
      "fuelConsumedMl": 4705,
      "fuelConsumedGallons": 1.243,
      "maxSpeedMph": 31.2,
      "averageSpeedMph": 15.1,
      "safetyEvents": [],
      "_no_driver_login": false,
      "_fuel_note": ""
    },
    {
      "id": "trip_48291025_20250123_001",
      "vehicleId": "48291025",
      "driverId": "22831024",
      "startMs": 1737630540000,
      "endMs": 1737636772440,
      "startLocation": {
        "latitude": 40.718154,
        "longitude": -111.916783
      },
      "endLocation": {
        "latitude": 40.756845,
        "longitude": -111.821478
      },
      "startAddress": "466 Santiago Forge Apt. 663",
      "endAddress": "829 Gordon Row",
      "startCoords": {
        "latitude": 40.724534,
        "longitude": -111.795989
      },
      "endCoords": {
        "latitude": 40.800007,
        "longitude": -111.816742
      },
      "distanceMeters": 37462.3,
      "durationMs": 6232441,
      "drivingDurationMs": 5446061,
      "idlingDurationMs": 786380,
      "fuelConsumedMl": 4762,
      "fuelConsumedGallons": 1.258,
      "maxSpeedMph": 48.7,
      "averageSpeedMph": 13.4,
      "safetyEvents": [],
      "_no_driver_login": false,
      "_fuel_note": "QUIRK 5: fuelConsumedGallons is in US gallons. Multiply by 3.785 for litres. Samsara does not link fuel to specific Onfleet tasks."
    },
    {
      "id": "trip_48291025_20250123_002",
      "vehicleId": "48291025",
      "driverId": "22831024",
      "startMs": 1737628440000,
      "endMs": 1737638355432,
      "startLocation": {
        "latitude": 40.752115,
        "longitude": -111.857747
      },
      "endLocation": {
        "latitude": 40.757167,
        "longitude": -111.829381
      },
      "startAddress": "8245 Hunter Island Apt. 662",
      "endAddress": "57548 Rivera Hills Apt. 541",
      "startCoords": {
        "latitude": 40.686224,
        "longitude": -111.857664
      },
      "endCoords": {
        "latitude": 40.669109,
        "longitude": -111.958605
      },
      "distanceMeters": 57180.9,
      "durationMs": 9915432,
      "drivingDurationMs": 9185956,
      "idlingDurationMs": 729477,
      "fuelConsumedMl": 7272,
      "fuelConsumedGallons": 1.921,
      "maxSpeedMph": 31.4,
      "averageSpeedMph": 12.9,
      "safetyEvents": [],
      "_no_driver_login": false,
      "_fuel_note": ""
    },
    {
      "id": "trip_48291025_20250123_003",
      "vehicleId": "48291025",
      "driverId": "22831024",
      "startMs": 1737613140000,
      "endMs": 1737621465583,
      "startLocation": {
        "latitude": 40.748647,
        "longitude": -111.888426
      },
      "endLocation": {
        "latitude": 40.672715,
        "longitude": -111.899315
      },
      "startAddress": "331 Thompson Skyway Suite 723",
      "endAddress": "27055 Ramirez Extension",
      "startCoords": {
        "latitude": 40.793449,
        "longitude": -111.840888
      },
      "endCoords": {
        "latitude": 40.742963,
        "longitude": -111.834802
      },
      "distanceMeters": 59420.3,
      "durationMs": 8325584,
      "drivingDurationMs": 6801684,
      "idlingDurationMs": 1523900,
      "fuelConsumedMl": 7556,
      "fuelConsumedGallons": 1.996,
      "maxSpeedMph": 66.7,
      "averageSpeedMph": 16.0,
      "safetyEvents": [
        {
          "type": "speeding",
          "startMs": 1737613320000,
          "maxSpeedMph": 66.7
        }
      ],
      "_no_driver_login": false,
      "_fuel_note": ""
    },
    {
      "id": "trip_48291025_20250123_004",
      "vehicleId": "48291025",
      "driverId": "22831024",
      "startMs": 1737632100000,
      "endMs": 1737646718537,
      "startLocation": {
        "latitude": 40.696795,
        "longitude": -111.909171
      },
      "endLocation": {
        "latitude": 40.717898,
        "longitude": -111.944634
      },
      "startAddress": "1243 Virginia Viaduct Suite 892",
      "endAddress": "790 Banks Lights",
      "startCoords": {
        "latitude": 40.777113,
        "longitude": -111.955444
      },
      "endCoords": {
        "latitude": 40.795786,
        "longitude": -111.790461
      },
      "distanceMeters": 68046.1,
      "durationMs": 14618538,
      "drivingDurationMs": 12809424,
      "idlingDurationMs": 1809114,
      "fuelConsumedMl": 8653,
      "fuelConsumedGallons": 2.286,
      "maxSpeedMph": 58.5,
      "averageSpeedMph": 10.4,
      "safetyEvents": [],
      "_no_driver_login": false,
      "_fuel_note": ""
    },
    {
      "id": "trip_48291025_20250123_005",
      "vehicleId": "48291025",
      "driverId": "22831024",
      "startMs": 1737651840000,
      "endMs": 1737659685579,
      "startLocation": {
        "latitude": 40.744397,
        "longitude": -111.827306
      },
      "endLocation": {
        "latitude": 40.738856,
        "longitude": -111.860001
      },
      "startAddress": "36763 Garrett Pike Suite 285",
      "endAddress": "580 Heather Court",
      "startCoords": {
        "latitude": 40.702864,
        "longitude": -111.774261
      },
      "endCoords": {
        "latitude": 40.798959,
        "longitude": -111.816404
      },
      "distanceMeters": 50814.9,
      "durationMs": 7845580,
      "drivingDurationMs": 6439915,
      "idlingDurationMs": 1405665,
      "fuelConsumedMl": 6462,
      "fuelConsumedGallons": 1.707,
      "maxSpeedMph": 62.9,
      "averageSpeedMph": 14.5,
      "safetyEvents": [],
      "_no_driver_login": false,
      "_fuel_note": ""
    },
    {
      "id": "trip_48291025_20250123_006",
      "vehicleId": "48291025",
      "driverId": "22831024",
      "startMs": 1737627720000,
      "endMs": 1737629113964,
      "startLocation": {
        "latitude": 40.664333,
        "longitude": -111.91925
      },
      "endLocation": {
        "latitude": 40.722995,
        "longitude": -111.820412
      },
      "startAddress": "13279 Hunt Land",
      "endAddress": "2117 Russo Plaza Apt. 028",
      "startCoords": {
        "latitude": 40.68536,
        "longitude": -111.84039
      },
      "endCoords": {
        "latitude": 40.681613,
        "longitude": -111.949669
      },
      "distanceMeters": 6386.5,
      "durationMs": 1393964,
      "drivingDurationMs": 1205263,
      "idlingDurationMs": 188701,
      "fuelConsumedMl": 814,
      "fuelConsumedGallons": 0.215,
      "maxSpeedMph": 49.1,
      "averageSpeedMph": 10.2,
      "safetyEvents": [],
      "_no_driver_login": false,
      "_fuel_note": ""
    },
    {
      "id": "trip_48291025_20250124_001",
      "vehicleId": "48291025",
      "driverId": "22831024",
      "startMs": 1737742860000,
      "endMs": 1737752400000,
      "startLocation": {
        "latitude": 40.741883,
        "longitude": -111.856332
      },
      "endLocation": {
        "latitude": 40.718475,
        "longitude": -111.95848
      },
      "startAddress": "6590 Berg Vista Apt. 497",
      "endAddress": "4451 Daniel Spring Suite 984",
      "startCoords": {
        "latitude": 40.732098,
        "longitude": -111.961347
      },
      "endCoords": {
        "latitude": 40.72176,
        "longitude": -111.924538
      },
      "distanceMeters": 44481.1,
      "durationMs": 9540000,
      "drivingDurationMs": 7982102,
      "idlingDurationMs": 1557898,
      "fuelConsumedMl": 5655,
      "fuelConsumedGallons": 1.494,
      "maxSpeedMph": 62.2,
      "averageSpeedMph": 10.4,
      "safetyEvents": [],
      "_no_driver_login": false,
      "_fuel_note": "QUIRK 5: fuelConsumedGallons is in US gallons. Multiply by 3.785 for litres. Samsara does not link fuel to specific Onfleet tasks."
    },
    {
      "id": "trip_48291025_20250124_002",
      "vehicleId": "48291025",
      "driverId": "22831024",
      "startMs": 1737707160000,
      "endMs": 1737709084368,
      "startLocation": {
        "latitude": 40.779923,
        "longitude": -111.837764
      },
      "endLocation": {
        "latitude": 40.787684,
        "longitude": -111.946795
      },
      "startAddress": "5456 Jason Village Apt. 791",
      "endAddress": "018 Scott Stravenue Suite 716",
      "startCoords": {
        "latitude": 40.75619,
        "longitude": -111.911685
      },
      "endCoords": {
        "latitude": 40.722364,
        "longitude": -111.939863
      },
      "distanceMeters": 8205.4,
      "durationMs": 1924368,
      "drivingDurationMs": 1624871,
      "idlingDurationMs": 299498,
      "fuelConsumedMl": 1045,
      "fuelConsumedGallons": 0.276,
      "maxSpeedMph": 62.0,
      "averageSpeedMph": 9.5,
      "safetyEvents": [],
      "_no_driver_login": false,
      "_fuel_note": ""
    },
    {
      "id": "trip_48291025_20250124_003",
      "vehicleId": "48291025",
      "driverId": "22831024",
      "startMs": 1737699780000,
      "endMs": 1737703488953,
      "startLocation": {
        "latitude": 40.679332,
        "longitude": -111.829607
      },
      "endLocation": {
        "latitude": 40.700961,
        "longitude": -111.796636
      },
      "startAddress": "0297 Vincent Dam",
      "endAddress": "94554 Ray Mountains",
      "startCoords": {
        "latitude": 40.695392,
        "longitude": -111.867358
      },
      "endCoords": {
        "latitude": 40.776207,
        "longitude": -111.934756
      },
      "distanceMeters": 22013.3,
      "durationMs": 3708954,
      "drivingDurationMs": 3138719,
      "idlingDurationMs": 570235,
      "fuelConsumedMl": 2797,
      "fuelConsumedGallons": 0.739,
      "maxSpeedMph": 54.4,
      "averageSpeedMph": 13.3,
      "safetyEvents": [],
      "_no_driver_login": false,
      "_fuel_note": ""
    },
    {
      "id": "trip_48291025_20250124_004",
      "vehicleId": "48291025",
      "driverId": "22831024",
      "startMs": 1737739560000,
      "endMs": 1737742704259,
      "startLocation": {
        "latitude": 40.727052,
        "longitude": -111.821576
      },
      "endLocation": {
        "latitude": 40.777333,
        "longitude": -111.844598
      },
      "startAddress": "1424 Meyer River",
      "endAddress": "75723 Angela Lock Apt. 269",
      "startCoords": {
        "latitude": 40.792775,
        "longitude": -111.827915
      },
      "endCoords": {
        "latitude": 40.680837,
        "longitude": -111.938223
      },
      "distanceMeters": 14963.9,
      "durationMs": 3144260,
      "drivingDurationMs": 2917321,
      "idlingDurationMs": 226939,
      "fuelConsumedMl": 1904,
      "fuelConsumedGallons": 0.503,
      "maxSpeedMph": 57.2,
      "averageSpeedMph": 10.6,
      "safetyEvents": [],
      "_no_driver_login": false,
      "_fuel_note": ""
    },
    {
      "id": "trip_48291025_20250124_005",
      "vehicleId": "48291025",
      "driverId": null,
      "startMs": 1737741120000,
      "endMs": 1737752400000,
      "startLocation": {
        "latitude": 40.715944,
        "longitude": -111.95315
      },
      "endLocation": {
        "latitude": 40.76361,
        "longitude": -111.869754
      },
      "startAddress": "6551 Reese Mountains Apt. 342",
      "endAddress": "238 Matthew Junctions",
      "startCoords": {
        "latitude": 40.730325,
        "longitude": -111.855971
      },
      "endCoords": {
        "latitude": 40.753612,
        "longitude": -111.909028
      },
      "distanceMeters": 46496.2,
      "durationMs": 11280000,
      "drivingDurationMs": 9024000,
      "idlingDurationMs": 2256000,
      "fuelConsumedMl": 5913,
      "fuelConsumedGallons": 1.562,
      "maxSpeedMph": 61.3,
      "averageSpeedMph": 9.2,
      "safetyEvents": [],
      "_no_driver_login": true,
      "_fuel_note": ""
    },
    {
      "id": "trip_48291025_20250125_001",
      "vehicleId": "48291025",
      "driverId": "22831024",
      "startMs": 1737828960000,
      "endMs": 1737832337073,
      "startLocation": {
        "latitude": 40.675392,
        "longitude": -111.856854
      },
      "endLocation": {
        "latitude": 40.664115,
        "longitude": -111.920956
      },
      "startAddress": "23459 Todd Trail",
      "endAddress": "621 Salinas Mountains Suite 557",
      "startCoords": {
        "latitude": 40.729247,
        "longitude": -111.820052
      },
      "endCoords": {
        "latitude": 40.781335,
        "longitude": -111.857985
      },
      "distanceMeters": 20275.7,
      "durationMs": 3377074,
      "drivingDurationMs": 2725206,
      "idlingDurationMs": 651868,
      "fuelConsumedMl": 2578,
      "fuelConsumedGallons": 0.681,
      "maxSpeedMph": 50.0,
      "averageSpeedMph": 13.4,
      "safetyEvents": [],
      "_no_driver_login": false,
      "_fuel_note": "QUIRK 5: fuelConsumedGallons is in US gallons. Multiply by 3.785 for litres. Samsara does not link fuel to specific Onfleet tasks."
    },
    {
      "id": "trip_48291025_20250125_002",
      "vehicleId": "48291025",
      "driverId": "22831024",
      "startMs": 1737815340000,
      "endMs": 1737828458937,
      "startLocation": {
        "latitude": 40.684743,
        "longitude": -111.94057
      },
      "endLocation": {
        "latitude": 40.750089,
        "longitude": -111.920763
      },
      "startAddress": "58789 Shawn Forest Apt. 296",
      "endAddress": "82184 Delgado Place Apt. 645",
      "startCoords": {
        "latitude": 40.689734,
        "longitude": -111.925855
      },
      "endCoords": {
        "latitude": 40.670811,
        "longitude": -111.789498
      },
      "distanceMeters": 67645.7,
      "durationMs": 13118937,
      "drivingDurationMs": 11314486,
      "idlingDurationMs": 1804451,
      "fuelConsumedMl": 8600,
      "fuelConsumedGallons": 2.272,
      "maxSpeedMph": 70.3,
      "averageSpeedMph": 11.5,
      "safetyEvents": [
        {
          "type": "speeding",
          "startMs": 1737816240000,
          "maxSpeedMph": 70.3
        }
      ],
      "_no_driver_login": false,
      "_fuel_note": ""
    },
    {
      "id": "trip_48291025_20250125_003",
      "vehicleId": "48291025",
      "driverId": "22831024",
      "startMs": 1737818760000,
      "endMs": 1737834095032,
      "startLocation": {
        "latitude": 40.795567,
        "longitude": -111.821179
      },
      "endLocation": {
        "latitude": 40.737789,
        "longitude": -111.821337
      },
      "startAddress": "18871 Carlson Pines Apt. 351",
      "endAddress": "095 Bullock Isle Apt. 558",
      "startCoords": {
        "latitude": 40.759918,
        "longitude": -111.916027
      },
      "endCoords": {
        "latitude": 40.782052,
        "longitude": -111.824261
      },
      "distanceMeters": 82110.7,
      "durationMs": 15335033,
      "drivingDurationMs": 14317421,
      "idlingDurationMs": 1017612,
      "fuelConsumedMl": 10440,
      "fuelConsumedGallons": 2.758,
      "maxSpeedMph": 40.0,
      "averageSpeedMph": 12.0,
      "safetyEvents": [],
      "_no_driver_login": false,
      "_fuel_note": ""
    },
    {
      "id": "trip_48291025_20250126_001",
      "vehicleId": "48291025",
      "driverId": "22831024",
      "startMs": 1737885480000,
      "endMs": 1737892906548,
      "startLocation": {
        "latitude": 40.735702,
        "longitude": -111.815316
      },
      "endLocation": {
        "latitude": 40.68599,
        "longitude": -111.861664
      },
      "startAddress": "678 Sarah Prairie",
      "endAddress": "23142 Cory Shore Apt. 534",
      "startCoords": {
        "latitude": 40.728505,
        "longitude": -111.940975
      },
      "endCoords": {
        "latitude": 40.741323,
        "longitude": -111.889879
      },
      "distanceMeters": 44942.1,
      "durationMs": 7426549,
      "drivingDurationMs": 6190825,
      "idlingDurationMs": 1235724,
      "fuelConsumedMl": 5712,
      "fuelConsumedGallons": 1.509,
      "maxSpeedMph": 37.8,
      "averageSpeedMph": 13.5,
      "safetyEvents": [],
      "_no_driver_login": false,
      "_fuel_note": "QUIRK 5: fuelConsumedGallons is in US gallons. Multiply by 3.785 for litres. Samsara does not link fuel to specific Onfleet tasks."
    },
    {
      "id": "trip_48291025_20250126_002",
      "vehicleId": "48291025",
      "driverId": "22831024",
      "startMs": 1737899340000,
      "endMs": 1737904795387,
      "startLocation": {
        "latitude": 40.743169,
        "longitude": -111.808231
      },
      "endLocation": {
        "latitude": 40.700805,
        "longitude": -111.811671
      },
      "startAddress": "4440 Mercado Throughway",
      "endAddress": "12596 Calhoun Unions",
      "startCoords": {
        "latitude": 40.714725,
        "longitude": -111.955988
      },
      "endCoords": {
        "latitude": 40.675762,
        "longitude": -111.873769
      },
      "distanceMeters": 32562.0,
      "durationMs": 5455387,
      "drivingDurationMs": 4531836,
      "idlingDurationMs": 923551,
      "fuelConsumedMl": 4141,
      "fuelConsumedGallons": 1.094,
      "maxSpeedMph": 57.4,
      "averageSpeedMph": 13.4,
      "safetyEvents": [],
      "_no_driver_login": false,
      "_fuel_note": ""
    },
    {
      "id": "trip_48291025_20250127_001",
      "vehicleId": "48291025",
      "driverId": "22831024",
      "startMs": 1737987240000,
      "endMs": 1738004744008,
      "startLocation": {
        "latitude": 40.735038,
        "longitude": -111.949414
      },
      "endLocation": {
        "latitude": 40.729194,
        "longitude": -111.843748
      },
      "startAddress": "05953 Sharon Squares",
      "endAddress": "580 Barnett Lane",
      "startCoords": {
        "latitude": 40.743849,
        "longitude": -111.949195
      },
      "endCoords": {
        "latitude": 40.78874,
        "longitude": -111.77389
      },
      "distanceMeters": 84864.9,
      "durationMs": 17504009,
      "drivingDurationMs": 15129985,
      "idlingDurationMs": 2374024,
      "fuelConsumedMl": 10788,
      "fuelConsumedGallons": 2.85,
      "maxSpeedMph": 53.4,
      "averageSpeedMph": 10.8,
      "safetyEvents": [],
      "_no_driver_login": false,
      "_fuel_note": "QUIRK 5: fuelConsumedGallons is in US gallons. Multiply by 3.785 for litres. Samsara does not link fuel to specific Onfleet tasks."
    },
    {
      "id": "trip_48291025_20250127_002",
      "vehicleId": "48291025",
      "driverId": "22831024",
      "startMs": 1737984600000,
      "endMs": 1737998491533,
      "startLocation": {
        "latitude": 40.722874,
        "longitude": -111.781056
      },
      "endLocation": {
        "latitude": 40.672798,
        "longitude": -111.850823
      },
      "startAddress": "69668 Jill Terrace Suite 746",
      "endAddress": "9769 John Run",
      "startCoords": {
        "latitude": 40.714417,
        "longitude": -111.86437
      },
      "endCoords": {
        "latitude": 40.793722,
        "longitude": -111.85642
      },
      "distanceMeters": 60814.0,
      "durationMs": 13891533,
      "drivingDurationMs": 11449310,
      "idlingDurationMs": 2442223,
      "fuelConsumedMl": 7734,
      "fuelConsumedGallons": 2.043,
      "maxSpeedMph": 51.1,
      "averageSpeedMph": 9.8,
      "safetyEvents": [],
      "_no_driver_login": false,
      "_fuel_note": ""
    },
    {
      "id": "trip_48291025_20250127_003",
      "vehicleId": "48291025",
      "driverId": "22831024",
      "startMs": 1737980820000,
      "endMs": 1737984025316,
      "startLocation": {
        "latitude": 40.799343,
        "longitude": -111.913413
      },
      "endLocation": {
        "latitude": 40.671748,
        "longitude": -111.804248
      },
      "startAddress": "403 Thomas Dam Apt. 204",
      "endAddress": "8443 Rodriguez Burgs",
      "startCoords": {
        "latitude": 40.708013,
        "longitude": -111.908189
      },
      "endCoords": {
        "latitude": 40.792706,
        "longitude": -111.803086
      },
      "distanceMeters": 14830.6,
      "durationMs": 3205316,
      "drivingDurationMs": 2791970,
      "idlingDurationMs": 413346,
      "fuelConsumedMl": 1885,
      "fuelConsumedGallons": 0.498,
      "maxSpeedMph": 59.4,
      "averageSpeedMph": 10.4,
      "safetyEvents": [],
      "_no_driver_login": false,
      "_fuel_note": ""
    },
    {
      "id": "trip_48291025_20250127_004",
      "vehicleId": "48291025",
      "driverId": "22831024",
      "startMs": 1737986220000,
      "endMs": 1737996753744,
      "startLocation": {
        "latitude": 40.732946,
        "longitude": -111.921423
      },
      "endLocation": {
        "latitude": 40.78951,
        "longitude": -111.813606
      },
      "startAddress": "53912 Mary Green",
      "endAddress": "806 Kristen Lock",
      "startCoords": {
        "latitude": 40.672913,
        "longitude": -111.780665
      },
      "endCoords": {
        "latitude": 40.769068,
        "longitude": -111.781208
      },
      "distanceMeters": 76535.6,
      "durationMs": 10533744,
      "drivingDurationMs": 8630803,
      "idlingDurationMs": 1902941,
      "fuelConsumedMl": 9732,
      "fuelConsumedGallons": 2.571,
      "maxSpeedMph": 51.2,
      "averageSpeedMph": 16.3,
      "safetyEvents": [],
      "_no_driver_login": false,
      "_fuel_note": ""
    },
    {
      "id": "trip_48291025_20250127_005",
      "vehicleId": "48291025",
      "driverId": "22831024",
      "startMs": 1737992580000,
      "endMs": 1737998394357,
      "startLocation": {
        "latitude": 40.702937,
        "longitude": -111.888506
      },
      "endLocation": {
        "latitude": 40.661159,
        "longitude": -111.87784
      },
      "startAddress": "58690 Hobbs Corner",
      "endAddress": "93113 Garcia Springs",
      "startCoords": {
        "latitude": 40.756733,
        "longitude": -111.781956
      },
      "endCoords": {
        "latitude": 40.778742,
        "longitude": -111.787309
      },
      "distanceMeters": 34285.5,
      "durationMs": 5814357,
      "drivingDurationMs": 4931540,
      "idlingDurationMs": 882817,
      "fuelConsumedMl": 4361,
      "fuelConsumedGallons": 1.152,
      "maxSpeedMph": 41.9,
      "averageSpeedMph": 13.2,
      "safetyEvents": [],
      "_no_driver_login": false,
      "_fuel_note": ""
    },
    {
      "id": "trip_48291025_20250127_006",
      "vehicleId": "48291025",
      "driverId": "22831024",
      "startMs": 1737961920000,
      "endMs": 1737964711753,
      "startLocation": {
        "latitude": 40.664111,
        "longitude": -111.824895
      },
      "endLocation": {
        "latitude": 40.707418,
        "longitude": -111.914706
      },
      "startAddress": "8308 Newton Neck",
      "endAddress": "26770 Guzman Circles",
      "startCoords": {
        "latitude": 40.696463,
        "longitude": -111.922289
      },
      "endCoords": {
        "latitude": 40.747456,
        "longitude": -111.853785
      },
      "distanceMeters": 13609.5,
      "durationMs": 2791754,
      "drivingDurationMs": 2257208,
      "idlingDurationMs": 534546,
      "fuelConsumedMl": 1730,
      "fuelConsumedGallons": 0.457,
      "maxSpeedMph": 44.4,
      "averageSpeedMph": 10.9,
      "safetyEvents": [],
      "_no_driver_login": false,
      "_fuel_note": ""
    },
    {
      "id": "trip_48291025_20250128_001",
      "vehicleId": "48291025",
      "driverId": "22831024",
      "startMs": 1738066140000,
      "endMs": 1738068386881,
      "startLocation": {
        "latitude": 40.730678,
        "longitude": -111.830422
      },
      "endLocation": {
        "latitude": 40.796489,
        "longitude": -111.911343
      },
      "startAddress": "6324 Stephanie Brook",
      "endAddress": "7841 Taylor Knolls",
      "startCoords": {
        "latitude": 40.749234,
        "longitude": -111.881765
      },
      "endCoords": {
        "latitude": 40.764686,
        "longitude": -111.854245
      },
      "distanceMeters": 14362.4,
      "durationMs": 2246882,
      "drivingDurationMs": 1859809,
      "idlingDurationMs": 387073,
      "fuelConsumedMl": 1825,
      "fuelConsumedGallons": 0.482,
      "maxSpeedMph": 50.6,
      "averageSpeedMph": 14.3,
      "safetyEvents": [],
      "_no_driver_login": false,
      "_fuel_note": "QUIRK 5: fuelConsumedGallons is in US gallons. Multiply by 3.785 for litres. Samsara does not link fuel to specific Onfleet tasks."
    },
    {
      "id": "trip_48291025_20250128_002",
      "vehicleId": "48291025",
      "driverId": "22831024",
      "startMs": 1738056360000,
      "endMs": 1738074254797,
      "startLocation": {
        "latitude": 40.752979,
        "longitude": -111.842198
      },
      "endLocation": {
        "latitude": 40.733221,
        "longitude": -111.817727
      },
      "startAddress": "803 David Glens",
      "endAddress": "701 Sanders Ford",
      "startCoords": {
        "latitude": 40.782803,
        "longitude": -111.913407
      },
      "endCoords": {
        "latitude": 40.673002,
        "longitude": -111.893119
      },
      "distanceMeters": 82088.3,
      "durationMs": 17894797,
      "drivingDurationMs": 15256345,
      "idlingDurationMs": 2638452,
      "fuelConsumedMl": 10436,
      "fuelConsumedGallons": 2.757,
      "maxSpeedMph": 44.5,
      "averageSpeedMph": 10.3,
      "safetyEvents": [],
      "_no_driver_login": false,
      "_fuel_note": ""
    },
    {
      "id": "trip_48291025_20250128_003",
      "vehicleId": "48291025",
      "driverId": null,
      "startMs": 1738080060000,
      "endMs": 1738091564145,
      "startLocation": {
        "latitude": 40.75336,
        "longitude": -111.800062
      },
      "endLocation": {
        "latitude": 40.72606,
        "longitude": -111.926326
      },
      "startAddress": "0278 Lynch Stravenue",
      "endAddress": "293 Timothy Trail",
      "startCoords": {
        "latitude": 40.688887,
        "longitude": -111.899128
      },
      "endCoords": {
        "latitude": 40.792515,
        "longitude": -111.94259
      },
      "distanceMeters": 78454.7,
      "durationMs": 11504146,
      "drivingDurationMs": 10504000,
      "idlingDurationMs": 1000145,
      "fuelConsumedMl": 9975,
      "fuelConsumedGallons": 2.635,
      "maxSpeedMph": 48.0,
      "averageSpeedMph": 15.3,
      "safetyEvents": [],
      "_no_driver_login": true,
      "_fuel_note": ""
    },
    {
      "id": "trip_48291025_20250128_004",
      "vehicleId": "48291025",
      "driverId": "22831024",
      "startMs": 1738053180000,
      "endMs": 1738060858535,
      "startLocation": {
        "latitude": 40.68642,
        "longitude": -111.898181
      },
      "endLocation": {
        "latitude": 40.72062,
        "longitude": -111.944993
      },
      "startAddress": "5935 Smith Villages Suite 294",
      "endAddress": "047 Clark Branch",
      "startCoords": {
        "latitude": 40.660255,
        "longitude": -111.881614
      },
      "endCoords": {
        "latitude": 40.751356,
        "longitude": -111.84522
      },
      "distanceMeters": 55059.9,
      "durationMs": 7678535,
      "drivingDurationMs": 7132021,
      "idlingDurationMs": 546515,
      "fuelConsumedMl": 6999,
      "fuelConsumedGallons": 1.849,
      "maxSpeedMph": 61.5,
      "averageSpeedMph": 16.0,
      "safetyEvents": [],
      "_no_driver_login": false,
      "_fuel_note": ""
    },
    {
      "id": "trip_48291025_20250128_005",
      "vehicleId": "48291025",
      "driverId": "22831024",
      "startMs": 1738086360000,
      "endMs": 1738092288485,
      "startLocation": {
        "latitude": 40.764509,
        "longitude": -111.797931
      },
      "endLocation": {
        "latitude": 40.69029,
        "longitude": -111.959433
      },
      "startAddress": "20514 Rocha Skyway",
      "endAddress": "77885 Jones Crest Apt. 739",
      "startCoords": {
        "latitude": 40.699459,
        "longitude": -111.9566
      },
      "endCoords": {
        "latitude": 40.758182,
        "longitude": -111.894724
      },
      "distanceMeters": 34605.8,
      "durationMs": 5928486,
      "drivingDurationMs": 4786785,
      "idlingDurationMs": 1141700,
      "fuelConsumedMl": 4399,
      "fuelConsumedGallons": 1.162,
      "maxSpeedMph": 43.3,
      "averageSpeedMph": 13.1,
      "safetyEvents": [],
      "_no_driver_login": false,
      "_fuel_note": ""
    },
    {
      "id": "trip_48291025_20250129_001",
      "vehicleId": "48291025",
      "driverId": "22831024",
      "startMs": 1738169220000,
      "endMs": 1738177419025,
      "startLocation": {
        "latitude": 40.724818,
        "longitude": -111.789556
      },
      "endLocation": {
        "latitude": 40.661257,
        "longitude": -111.958744
      },