{
  "vehicleId": "48291019",
  "vehicleName": "DEN-MOT-06",
  "month": "2025_01",
  "pagination": {
    "endCursor": "trip_48291019_20250131_014",
    "hasNextPage": false
  },
  "trips": [
    {
      "id": "trip_48291019_20250101_001",
      "vehicleId": "48291019",
      "driverId": "22831018",
      "startMs": 1735716000000,
      "endMs": 1735718719962,
      "startLocation": {
        "latitude": 39.734401,
        "longitude": -105.079745
      },
      "endLocation": {
        "latitude": 39.809139,
        "longitude": -105.021354
      },
      "startAddress": "8783 Erin Ranch Apt. 878",
      "endAddress": "91088 Ashley Drive Apt. 587",
      "startCoords": {
        "latitude": 39.827605,
        "longitude": -105.036037
      },
      "endCoords": {
        "latitude": 39.824993,
        "longitude": -104.909289
      },
      "distanceMeters": 17201.1,
      "durationMs": 2719963,
      "drivingDurationMs": 2301675,
      "idlingDurationMs": 418288,
      "fuelConsumedMl": 780,
      "fuelConsumedGallons": 0.206,
      "maxSpeedMph": 46.7,
      "averageSpeedMph": 14.1,
      "safetyEvents": [],
      "_no_driver_login": false,
      "_fuel_note": "QUIRK 5: fuelConsumedGallons is in US gallons. Multiply by 3.785 for litres. Samsara does not link fuel to specific Onfleet tasks."
    },
    {
      "id": "trip_48291019_20250101_002",
      "vehicleId": "48291019",
      "driverId": "22831018",
      "startMs": 1735717320000,
      "endMs": 1735719944510,
      "startLocation": {
        "latitude": 39.704309,
        "longitude": -104.973351
      },
      "endLocation": {
        "latitude": 39.796349,
        "longitude": -105.081167
      },
      "startAddress": "397 Rachel Mission",
      "endAddress": "2867 Angelica Spring",
      "startCoords": {
        "latitude": 39.693419,
        "longitude": -104.941174
      },
      "endCoords": {
        "latitude": 39.736532,
        "longitude": -105.015651
      },
      "distanceMeters": 16662.8,
      "durationMs": 2624511,
      "drivingDurationMs": 2156764,
      "idlingDurationMs": 467747,
      "fuelConsumedMl": 753,
      "fuelConsumedGallons": 0.199,
      "maxSpeedMph": 57.9,
      "averageSpeedMph": 14.2,
      "safetyEvents": [],
      "_no_driver_login": false,
      "_fuel_note": ""
    },
    {
      "id": "trip_48291019_20250101_003",
      "vehicleId": "48291019",
      "driverId": "22831018",
      "startMs": 1735743720000,
      "endMs": 1735745886345,
      "startLocation": {
        "latitude": 39.766455,
        "longitude": -104.988055
      },
      "endLocation": {
        "latitude": 39.741102,
        "longitude": -104.965447
      },
      "startAddress": "064 Julie Prairie Apt. 065",
      "endAddress": "017 Justin Falls",
      "startCoords": {
        "latitude": 39.719708,
        "longitude": -105.066363
      },
      "endCoords": {
        "latitude": 39.789771,
        "longitude": -104.99378
      },
      "distanceMeters": 15917.2,
      "durationMs": 2166346,
      "drivingDurationMs": 1743553,
      "idlingDurationMs": 422793,
      "fuelConsumedMl": 719,
      "fuelConsumedGallons": 0.19,
      "maxSpeedMph": 44.4,
      "averageSpeedMph": 16.4,
      "safetyEvents": [],
      "_no_driver_login": false,
      "_fuel_note": ""
    },
    {
      "id": "trip_48291019_20250101_004",
      "vehicleId": "48291019",
      "driverId": "22831018",
      "startMs": 1735736280000,
      "endMs": 1735738597368,
      "startLocation": {
        "latitude": 39.724892,
        "longitude": -104.915204
      },
      "endLocation": {
        "latitude": 39.754532,
        "longitude": -105.064633
      },
      "startAddress": "656 Kane Lane",
      "endAddress": "82512 Rice Stream Apt. 004",
      "startCoords": {
        "latitude": 39.806658,
        "longitude": -105.002627
      },
      "endCoords": {
        "latitude": 39.813267,
        "longitude": -105.003932
      },
      "distanceMeters": 14918.5,
      "durationMs": 2317369,
      "drivingDurationMs": 2050772,
      "idlingDurationMs": 266597,
      "fuelConsumedMl": 674,
      "fuelConsumedGallons": 0.178,
      "maxSpeedMph": 47.6,
      "averageSpeedMph": 14.4,
      "safetyEvents": [],
      "_no_driver_login": false,
      "_fuel_note": ""
    },
    {
      "id": "trip_48291019_20250101_005",
      "vehicleId": "48291019",
      "driverId": "22831018",
      "startMs": 1735717860000,
      "endMs": 1735719917557,
      "startLocation": {
        "latitude": 39.761879,
        "longitude": -104.919938
      },
      "endLocation": {
        "latitude": 39.806447,
        "longitude": -104.95373
      },
      "startAddress": "868 Morrow Gateway Suite 524",
      "endAddress": "106 John Cliff",
      "startCoords": {
        "latitude": 39.817396,
        "longitude": -104.96768
      },
      "endCoords": {
        "latitude": 39.798135,
        "longitude": -104.991952
      },
      "distanceMeters": 17684.4,
      "durationMs": 2057557,
      "drivingDurationMs": 1791914,
      "idlingDurationMs": 265643,
      "fuelConsumedMl": 799,
      "fuelConsumedGallons": 0.211,
      "maxSpeedMph": 43.3,
      "averageSpeedMph": 19.2,
      "safetyEvents": [],
      "_no_driver_login": false,
      "_fuel_note": ""
    },
    {
      "id": "trip_48291019_20250101_006",
      "vehicleId": "48291019",
      "driverId": "22831018",
      "startMs": 1735715520000,
      "endMs": 1735718782040,
      "startLocation": {
        "latitude": 39.751102,
        "longitude": -104.90268
      },
      "endLocation": {
        "latitude": 39.702434,
        "longitude": -104.921271
      },
      "startAddress": "079 John Cape",
      "endAddress": "3830 William Highway Apt. 959",
      "startCoords": {
        "latitude": 39.693205,
        "longitude": -105.01277
      },
      "endCoords": {
        "latitude": 39.78707,
        "longitude": -104.997616
      },
      "distanceMeters": 20217.5,
      "durationMs": 3262041,
      "drivingDurationMs": 2822385,
      "idlingDurationMs": 439656,
      "fuelConsumedMl": 916,
      "fuelConsumedGallons": 0.242,
      "maxSpeedMph": 43.9,
      "averageSpeedMph": 13.9,
      "safetyEvents": [],
      "_no_driver_login": false,
      "_fuel_note": ""
    },
    {
      "id": "trip_48291019_20250101_007",
      "vehicleId": "48291019",
      "driverId": "22831018",
      "startMs": 1735735740000,
      "endMs": 1735737256127,
      "startLocation": {
        "latitude": 39.750875,
        "longitude": -104.990332
      },
      "endLocation": {
        "latitude": 39.702227,
        "longitude": -104.93166
      },
      "startAddress": "42836 Hill Point Apt. 687",
      "endAddress": "6856 Hernandez Lane",
      "startCoords": {
        "latitude": 39.763195,
        "longitude": -104.977076
      },
      "endCoords": {
        "latitude": 39.794399,
        "longitude": -105.063429
      },
      "distanceMeters": 11417.0,
      "durationMs": 1516128,
      "drivingDurationMs": 1317410,
      "idlingDurationMs": 198718,
      "fuelConsumedMl": 515,
      "fuelConsumedGallons": 0.136,
      "maxSpeedMph": 41.9,
      "averageSpeedMph": 16.8,
      "safetyEvents": [],
      "_no_driver_login": false,
      "_fuel_note": ""
    },
    {
      "id": "trip_48291019_20250102_001",
      "vehicleId": "48291019",
      "driverId": "22831018",
      "startMs": 1735827360000,
      "endMs": 1735828633168,
      "startLocation": {
        "latitude": 39.753906,
        "longitude": -104.996968
      },
      "endLocation": {
        "latitude": 39.770821,
        "longitude": -104.993254
      },
      "startAddress": "73574 Alicia Extensions Apt. 503",
      "endAddress": "8078 James Orchard",
      "startCoords": {
        "latitude": 39.703759,
        "longitude": -105.056545
      },
      "endCoords": {
        "latitude": 39.69484,
        "longitude": -104.966593
      },
      "distanceMeters": 10655.6,
      "durationMs": 1273168,
      "drivingDurationMs": 1050503,
      "idlingDurationMs": 222666,
      "fuelConsumedMl": 481,
      "fuelConsumedGallons": 0.127,
      "maxSpeedMph": 43.5,
      "averageSpeedMph": 18.7,
      "safetyEvents": [],
      "_no_driver_login": false,
      "_fuel_note": "QUIRK 5: fuelConsumedGallons is in US gallons. Multiply by 3.785 for litres. Samsara does not link fuel to specific Onfleet tasks."
    },
    {
      "id": "trip_48291019_20250102_002",
      "vehicleId": "48291019",
      "driverId": "22831018",
      "startMs": 1735808940000,
      "endMs": 1735809952986,
      "startLocation": {
        "latitude": 39.800654,
        "longitude": -104.95214
      },
      "endLocation": {
        "latitude": 39.753136,
        "longitude": -104.997588
      },
      "startAddress": "2182 Jenny Mount Suite 810",
      "endAddress": "91570 Abigail Shoals Suite 094",
      "startCoords": {
        "latitude": 39.7141,
        "longitude": -105.057365
      },
      "endCoords": {
        "latitude": 39.803853,
        "longitude": -105.083493
      },
      "distanceMeters": 6298.8,
      "durationMs": 1012986,
      "drivingDurationMs": 815806,
      "idlingDurationMs": 197180,
      "fuelConsumedMl": 284,
      "fuelConsumedGallons": 0.075,
      "maxSpeedMph": 33.2,
      "averageSpeedMph": 13.9,
      "safetyEvents": [],
      "_no_driver_login": false,
      "_fuel_note": ""
    },
    {
      "id": "trip_48291019_20250102_003",
      "vehicleId": "48291019",
      "driverId": "22831018",
      "startMs": 1735798080000,
      "endMs": 1735800721793,
      "startLocation": {
        "latitude": 39.691787,
        "longitude": -105.039104
      },
      "endLocation": {
        "latitude": 39.709679,
        "longitude": -104.907343
      },
      "startAddress": "3344 Mejia Skyway",
      "endAddress": "2241 Susan Points",
      "startCoords": {
        "latitude": 39.770122,
        "longitude": -104.981627
      },
      "endCoords": {
        "latitude": 39.686412,
        "longitude": -104.952273
      },
      "distanceMeters": 15190.2,
      "durationMs": 2641793,
      "drivingDurationMs": 2224938,
      "idlingDurationMs": 416855,
      "fuelConsumedMl": 689,
      "fuelConsumedGallons": 0.182,
      "maxSpeedMph": 29.7,
      "averageSpeedMph": 12.9,
      "safetyEvents": [],
      "_no_driver_login": false,
      "_fuel_note": ""
    },
    {
      "id": "trip_48291019_20250102_004",
      "vehicleId": "48291019",
      "driverId": "22831018",
      "startMs": 1735836720000,
      "endMs": 1735838278768,
      "startLocation": {
        "latitude": 39.708314,
        "longitude": -104.931414
      },
      "endLocation": {
        "latitude": 39.770335,
        "longitude": -104.938143
      },
      "startAddress": "85854 Sherry Unions",
      "endAddress": "321 Austin Junction Suite 020",
      "startCoords": {
        "latitude": 39.801991,
        "longitude": -105.053481
      },
      "endCoords": {
        "latitude": 39.778812,
        "longitude": -105.037926
      },
      "distanceMeters": 8519.5,
      "durationMs": 1558768,
      "drivingDurationMs": 1312257,
      "idlingDurationMs": 246511,
      "fuelConsumedMl": 386,
      "fuelConsumedGallons": 0.102,
      "maxSpeedMph": 71.7,
      "averageSpeedMph": 12.2,
      "safetyEvents": [
        {
          "type": "speeding",
          "startMs": 1735838100000,
          "maxSpeedMph": 71.7
        }
      ],
      "_no_driver_login": false,
      "_fuel_note": ""
    },
    {
      "id": "trip_48291019_20250102_005",
      "vehicleId": "48291019",
      "driverId": "22831018",
      "startMs": 1735819140000,
      "endMs": 1735820783209,
      "startLocation": {
        "latitude": 39.712895,
        "longitude": -104.925912
      },
      "endLocation": {
        "latitude": 39.756428,
        "longitude": -105.008697
      },
      "startAddress": "016 Christopher Lock Apt. 997",
      "endAddress": "5381 Bradley Course Suite 174",
      "startCoords": {
        "latitude": 39.705286,
        "longitude": -105.069591
      },
      "endCoords": {
        "latitude": 39.752322,
        "longitude": -104.972
      },
      "distanceMeters": 12429.8,
      "durationMs": 1643209,
      "drivingDurationMs": 1422830,
      "idlingDurationMs": 220380,
      "fuelConsumedMl": 564,
      "fuelConsumedGallons": 0.149,
      "maxSpeedMph": 45.0,
      "averageSpeedMph": 16.9,
      "safetyEvents": [],
      "_no_driver_login": false,
      "_fuel_note": ""
    },
    {
      "id": "trip_48291019_20250102_006",
      "vehicleId": "48291019",
      "driverId": "22831018",
      "startMs": 1735800960000,
      "endMs": 1735803588550,
      "startLocation": {
        "latitude": 39.770715,
        "longitude": -104.931949
      },
      "endLocation": {
        "latitude": 39.813021,
        "longitude": -104.94186
      },
      "startAddress": "3329 Durham Lock Apt. 557",
      "endAddress": "17157 Singleton Haven Suite 992",
      "startCoords": {
        "latitude": 39.777311,
        "longitude": -104.98945
      },
      "endCoords": {
        "latitude": 39.737116,
        "longitude": -105.079541
      },
      "distanceMeters": 20029.0,
      "durationMs": 2628550,
      "drivingDurationMs": 2399216,
      "idlingDurationMs": 229334,
      "fuelConsumedMl": 905,
      "fuelConsumedGallons": 0.239,
      "maxSpeedMph": 49.2,
      "averageSpeedMph": 17.0,
      "safetyEvents": [],
      "_no_driver_login": false,
      "_fuel_note": ""
    },
    {
      "id": "trip_48291019_20250102_007",
      "vehicleId": "48291019",
      "driverId": "22831018",
      "startMs": 1735828020000,
      "endMs": 1735828958460,
      "startLocation": {
        "latitude": 39.790596,
        "longitude": -104.944369
      },
      "endLocation": {
        "latitude": 39.784154,
        "longitude": -105.069324
      },
      "startAddress": "1581 Patel Locks",
      "endAddress": "93827 Jones Fords Suite 695",
      "startCoords": {
        "latitude": 39.703026,
        "longitude": -104.997903
      },
      "endCoords": {
        "latitude": 39.717243,
        "longitude": -104.926014
      },
      "distanceMeters": 7278.2,
      "durationMs": 938460,
      "drivingDurationMs": 752120,
      "idlingDurationMs": 186340,
      "fuelConsumedMl": 329,
      "fuelConsumedGallons": 0.087,
      "maxSpeedMph": 44.8,
      "averageSpeedMph": 17.3,
      "safetyEvents": [],
      "_no_driver_login": false,
      "_fuel_note": ""
    },
    {
      "id": "trip_48291019_20250103_001",
      "vehicleId": "48291019",
      "driverId": "22831018",
      "startMs": 1735925100000,
      "endMs": 1735927165727,
      "startLocation": {
        "latitude": 39.784264,
        "longitude": -104.920626
      },
      "endLocation": {
        "latitude": 39.796386,
        "longitude": -105.011575
      },
      "startAddress": "42811 Carla Throughway",
      "endAddress": "83034 Tiffany Port Apt. 970",
      "startCoords": {
        "latitude": 39.712167,
        "longitude": -105.030959
      },
      "endCoords": {
        "latitude": 39.689057,
        "longitude": -105.024754
      },
      "distanceMeters": 12262.3,
      "durationMs": 2065728,
      "drivingDurationMs": 1746073,
      "idlingDurationMs": 319655,
      "fuelConsumedMl": 556,
      "fuelConsumedGallons": 0.147,
      "maxSpeedMph": 62.7,
      "averageSpeedMph": 13.3,
      "safetyEvents": [],
      "_no_driver_login": false,
      "_fuel_note": "QUIRK 5: fuelConsumedGallons is in US gallons. Multiply by 3.785 for litres. Samsara does not link fuel to specific Onfleet tasks."
    },
    {
      "id": "trip_48291019_20250103_002",
      "vehicleId": "48291019",
      "driverId": "22831018",
      "startMs": 1735926360000,
      "endMs": 1735929919782,
      "startLocation": {
        "latitude": 39.763265,
        "longitude": -104.989584
      },
      "endLocation": {
        "latitude": 39.792852,
        "longitude": -105.057595
      },
      "startAddress": "1405 Benjamin Parkway",
      "endAddress": "6521 Russell Streets",
      "startCoords": {
        "latitude": 39.687748,
        "longitude": -104.93777
      },
      "endCoords": {
        "latitude": 39.769134,
        "longitude": -105.042289
      },
      "distanceMeters": 19021.2,
      "durationMs": 3559783,
      "drivingDurationMs": 2851269,
      "idlingDurationMs": 708514,
      "fuelConsumedMl": 859,
      "fuelConsumedGallons": 0.227,
      "maxSpeedMph": 40.5,
      "averageSpeedMph": 12.0,
      "safetyEvents": [],
      "_no_driver_login": false,
      "_fuel_note": ""
    },
    {
      "id": "trip_48291019_20250103_003",
      "vehicleId": "48291019",
      "driverId": "22831018",
      "startMs": 1735928340000,
      "endMs": 1735930331619,
      "startLocation": {
        "latitude": 39.774105,
        "longitude": -105.020993
      },
      "endLocation": {
        "latitude": 39.690608,
        "longitude": -104.965184
      },
      "startAddress": "209 Woods Ways",
      "endAddress": "2271 Stephanie Fort",
      "startCoords": {
        "latitude": 39.70171,
        "longitude": -105.031631
      },
      "endCoords": {
        "latitude": 39.789942,
        "longitude": -105.002419
      },
      "distanceMeters": 18709.7,
      "durationMs": 1991619,
      "drivingDurationMs": 1782289,
      "idlingDurationMs": 209330,
      "fuelConsumedMl": 848,
      "fuelConsumedGallons": 0.224,
      "maxSpeedMph": 30.6,
      "averageSpeedMph": 21.0,
      "safetyEvents": [],
      "_no_driver_login": false,
      "_fuel_note": ""
    },
    {
      "id": "trip_48291019_20250103_004",
      "vehicleId": "48291019",
      "driverId": "22831018",
      "startMs": 1735897860000,
      "endMs": 1735900507305,
      "startLocation": {
        "latitude": 39.805457,
        "longitude": -105.043701
      },
      "endLocation": {
        "latitude": 39.726856,
        "longitude": -104.962179
      },
      "startAddress": "228 West Curve",
      "endAddress": "5960 Allen Ridge Apt. 297",
      "startCoords": {
        "latitude": 39.801217,
        "longitude": -104.979903
      },
      "endCoords": {
        "latitude": 39.703904,
        "longitude": -105.016628
      },
      "distanceMeters": 19152.4,
      "durationMs": 2647306,
      "drivingDurationMs": 2202449,
      "idlingDurationMs": 444857,
      "fuelConsumedMl": 867,
      "fuelConsumedGallons": 0.229,
      "maxSpeedMph": 69.3,
      "averageSpeedMph": 16.2,
      "safetyEvents": [
        {
          "type": "speeding",
          "startMs": 1735898880000,
          "maxSpeedMph": 69.3
        }
      ],
      "_no_driver_login": false,
      "_fuel_note": ""
    },
    {
      "id": "trip_48291019_20250103_005",
      "vehicleId": "48291019",
      "driverId": "22831018",
      "startMs": 1735888800000,
      "endMs": 1735891219630,
      "startLocation": {
        "latitude": 39.745089,
        "longitude": -105.010155
      },
      "endLocation": {
        "latitude": 39.697025,
        "longitude": -105.007739
      },
      "startAddress": "24817 Shawn Extension",
      "endAddress": "14955 Charles Station Suite 474",
      "startCoords": {
        "latitude": 39.702476,
        "longitude": -105.047288
      },
      "endCoords": {
        "latitude": 39.694982,
        "longitude": -104.960316
      },
      "distanceMeters": 13878.4,
      "durationMs": 2419631,
      "drivingDurationMs": 1992043,
      "idlingDurationMs": 427587,
      "fuelConsumedMl": 628,
      "fuelConsumedGallons": 0.166,
      "maxSpeedMph": 48.0,
      "averageSpeedMph": 12.8,
      "safetyEvents": [],
      "_no_driver_login": false,
      "_fuel_note": ""
    },
    {
      "id": "trip_48291019_20250103_006",
      "vehicleId": "48291019",
      "driverId": "22831018",
      "startMs": 1735907820000,
      "endMs": 1735909733337,
      "startLocation": {
        "latitude": 39.827369,
        "longitude": -104.95802
      },
      "endLocation": {
        "latitude": 39.820351,
        "longitude": -104.949983
      },
      "startAddress": "219 Williams Walks Suite 669",
      "endAddress": "5895 Miller Loop",
      "startCoords": {
        "latitude": 39.743825,
        "longitude": -105.057065
      },
      "endCoords": {
        "latitude": 39.756634,
        "longitude": -104.996468
      },
      "distanceMeters": 14856.3,
      "durationMs": 1913337,
      "drivingDurationMs": 1551966,
      "idlingDurationMs": 361372,
      "fuelConsumedMl": 674,
      "fuelConsumedGallons": 0.178,
      "maxSpeedMph": 53.7,
      "averageSpeedMph": 17.4,
      "safetyEvents": [],
      "_no_driver_login": false,
      "_fuel_note": ""
    },
    {
      "id": "trip_48291019_20250103_007",
      "vehicleId": "48291019",
      "driverId": "22831018",
      "startMs": 1735909680000,
      "endMs": 1735913038683,
      "startLocation": {
        "latitude": 39.688428,
        "longitude": -105.058195
      },
      "endLocation": {
        "latitude": 39.764308,
        "longitude": -104.914222
      },
      "startAddress": "0903 Eric Cove Suite 629",
      "endAddress": "36715 Mcdonald Place Suite 112",
      "startCoords": {
        "latitude": 39.700847,
        "longitude": -104.927281
      },
      "endCoords": {
        "latitude": 39.699632,
        "longitude": -105.018149
      },
      "distanceMeters": 24264.7,
      "durationMs": 3358683,
      "drivingDurationMs": 2891434,
      "idlingDurationMs": 467249,
      "fuelConsumedMl": 1098,
      "fuelConsumedGallons": 0.29,
      "maxSpeedMph": 58.6,
      "averageSpeedMph": 16.2,
      "safetyEvents": [],
      "_no_driver_login": false,
      "_fuel_note": ""
    },
    {
      "id": "trip_48291019_20250103_008",
      "vehicleId": "48291019",
      "driverId": "22831018",
      "startMs": 1735898520000,
      "endMs": 1735900920061,
      "startLocation": {
        "latitude": 39.687761,
        "longitude": -105.060825
      },
      "endLocation": {
        "latitude": 39.796707,
        "longitude": -105.008328
      },
      "startAddress": "6365 Logan Rapids",
      "endAddress": "71470 Stacy Drive Apt. 590",
      "startCoords": {
        "latitude": 39.818765,
        "longitude": -105.030275
      },
      "endCoords": {
        "latitude": 39.72459,
        "longitude": -105.053256
      },
      "distanceMeters": 14023.9,
      "durationMs": 2400062,
      "drivingDurationMs": 2113810,
      "idlingDurationMs": 286252,
      "fuelConsumedMl": 636,
      "fuelConsumedGallons": 0.168,
      "maxSpeedMph": 44.5,
      "averageSpeedMph": 13.1,
      "safetyEvents": [],
      "_no_driver_login": false,
      "_fuel_note": ""
    },
    {
      "id": "trip_48291019_20250104_001",
      "vehicleId": "48291019",
      "driverId": "22831018",
      "startMs": 1735986300000,
      "endMs": 1735986893941,
      "startLocation": {
        "latitude": 39.787809,
        "longitude": -105.006123
      },
      "endLocation": {
        "latitude": 39.748039,
        "longitude": -104.975467
      },
      "startAddress": "9966 Michael Turnpike",
      "endAddress": "9806 Caldwell Burg Apt. 920",
      "startCoords": {
        "latitude": 39.722888,
        "longitude": -105.027718
      },
      "endCoords": {
        "latitude": 39.699232,
        "longitude": -105.015615
      },
      "distanceMeters": 4366.6,
      "durationMs": 593941,
      "drivingDurationMs": 453141,
      "idlingDurationMs": 140800,
      "fuelConsumedMl": 197,
      "fuelConsumedGallons": 0.052,
      "maxSpeedMph": 35.3,
      "averageSpeedMph": 16.4,
      "safetyEvents": [],
      "_no_driver_login": false,
      "_fuel_note": "QUIRK 5: fuelConsumedGallons is in US gallons. Multiply by 3.785 for litres. Samsara does not link fuel to specific Onfleet tasks."
    },
    {
      "id": "trip_48291019_20250104_002",
      "vehicleId": "48291019",
      "driverId": "22831018",
      "startMs": 1735983360000,
      "endMs": 1735984599179,
      "startLocation": {
        "latitude": 39.821832,
        "longitude": -105.040082
      },
      "endLocation": {
        "latitude": 39.742799,
        "longitude": -104.974046
      },
      "startAddress": "46074 Cardenas Key Suite 347",
      "endAddress": "7423 Yang Terrace",
      "startCoords": {
        "latitude": 39.810179,
        "longitude": -104.908823
      },
      "endCoords": {
        "latitude": 39.760196,
        "longitude": -105.012742
      },
      "distanceMeters": 10117.1,
      "durationMs": 1239179,
      "drivingDurationMs": 1001515,
      "idlingDurationMs": 237664,
      "fuelConsumedMl": 458,
      "fuelConsumedGallons": 0.121,
      "maxSpeedMph": 47.8,
      "averageSpeedMph": 18.3,
      "safetyEvents": [],
      "_no_driver_login": false,
      "_fuel_note": ""
    },
    {
      "id": "trip_48291019_20250104_003",
      "vehicleId": "48291019",
      "driverId": "22831018",
      "startMs": 1735974660000,
      "endMs": 1735977495701,
      "startLocation": {
        "latitude": 39.737301,
        "longitude": -105.060416
      },
      "endLocation": {
        "latitude": 39.729054,
        "longitude": -105.085904
      },
      "startAddress": "71559 Leslie Inlet Apt. 165",
      "endAddress": "263 Chase Oval Suite 575",
      "startCoords": {
        "latitude": 39.782941,
        "longitude": -104.95279
      },
      "endCoords": {
        "latitude": 39.714542,
        "longitude": -104.9809
      },
      "distanceMeters": 20607.9,
      "durationMs": 2835702,
      "drivingDurationMs": 2569729,
      "idlingDurationMs": 265973,
      "fuelConsumedMl": 931,
      "fuelConsumedGallons": 0.246,
      "maxSpeedMph": 38.8,
      "averageSpeedMph": 16.3,
      "safetyEvents": [],
      "_no_driver_login": false,
      "_fuel_note": ""
    },
    {
      "id": "trip_48291019_20250104_004",
      "vehicleId": "48291019",
      "driverId": "22831018",
      "startMs": 1735991820000,
      "endMs": 1735993177915,
      "startLocation": {
        "latitude": 39.764587,
        "longitude": -104.952891
      },
      "endLocation": {
        "latitude": 39.820127,
        "longitude": -104.935731
      },
      "startAddress": "50139 Stout Squares",
      "endAddress": "826 James Course Suite 425",
      "startCoords": {
        "latitude": 39.780498,
        "longitude": -104.97968
      },
      "endCoords": {
        "latitude": 39.776884,
        "longitude": -104.959316
      },
      "distanceMeters": 7350.9,
      "durationMs": 1357915,
      "drivingDurationMs": 1147597,
      "idlingDurationMs": 210318,
      "fuelConsumedMl": 333,
      "fuelConsumedGallons": 0.088,
      "maxSpeedMph": 37.3,
      "averageSpeedMph": 12.1,
      "safetyEvents": [],
      "_no_driver_login": false,
      "_fuel_note": ""
    },
    {
      "id": "trip_48291019_20250104_005",
      "vehicleId": "48291019",
      "driverId": null,
      "startMs": 1735993200000,
      "endMs": 1735996369605,
      "startLocation": {
        "latitude": 39.723283,
        "longitude": -105.065269
      },
      "endLocation": {
        "latitude": 39.748994,
        "longitude": -104.974507
      },
      "startAddress": "2614 Mario Fork Suite 038",
      "endAddress": "407 Martha Forges",
      "startCoords": {
        "latitude": 39.768942,
        "longitude": -105.043215
      },
      "endCoords": {
        "latitude": 39.686794,
        "longitude": -105.08436
      },
      "distanceMeters": 20708.1,
      "durationMs": 3169606,
      "drivingDurationMs": 2961774,
      "idlingDurationMs": 207831,
      "fuelConsumedMl": 935,
      "fuelConsumedGallons": 0.247,
      "maxSpeedMph": 49.7,
      "averageSpeedMph": 14.6,
      "safetyEvents": [],
      "_no_driver_login": true,
      "_fuel_note": ""
    },
    {
      "id": "trip_48291019_20250104_006",
      "vehicleId": "48291019",
      "driverId": "22831018",
      "startMs": 1736016840000,
      "endMs": 1736019709669,
      "startLocation": {
        "latitude": 39.689062,
        "longitude": -104.9873
      },
      "endLocation": {
        "latitude": 39.759766,
        "longitude": -105.024209
      },
      "startAddress": "73204 Tamara Walks",
      "endAddress": "6889 Robert Vista Suite 964",
      "startCoords": {
        "latitude": 39.686073,
        "longitude": -104.999267
      },
      "endCoords": {
        "latitude": 39.803346,
        "longitude": -105.009585
      },
      "distanceMeters": 15242.5,
      "durationMs": 2869669,
      "drivingDurationMs": 2485818,
      "idlingDurationMs": 383851,
      "fuelConsumedMl": 689,
      "fuelConsumedGallons": 0.182,
      "maxSpeedMph": 33.8,
      "averageSpeedMph": 11.9,
      "safetyEvents": [],
      "_no_driver_login": false,
      "_fuel_note": ""
    },
    {
      "id": "trip_48291019_20250104_007",
      "vehicleId": "48291019",
      "driverId": "22831018",
      "startMs": 1735985820000,
      "endMs": 1735987225259,
      "startLocation": {
        "latitude": 39.690513,
        "longitude": -105.03154
      },
      "endLocation": {
        "latitude": 39.825561,
        "longitude": -104.994854
      },
      "startAddress": "6553 Fernandez Club Apt. 538",
      "endAddress": "87851 Jennifer Stravenue",
      "startCoords": {
        "latitude": 39.776138,
        "longitude": -104.916335
      },
      "endCoords": {
        "latitude": 39.805252,
        "longitude": -104.911209
      },
      "distanceMeters": 9295.4,
      "durationMs": 1405259,
      "drivingDurationMs": 1215380,
      "idlingDurationMs": 189879,
      "fuelConsumedMl": 420,
      "fuelConsumedGallons": 0.111,
      "maxSpeedMph": 62.1,
      "averageSpeedMph": 14.8,
      "safetyEvents": [],
      "_no_driver_login": false,
      "_fuel_note": ""
    },
    {
      "id": "trip_48291019_20250104_008",
      "vehicleId": "48291019",
      "driverId": "22831018",
      "startMs": 1735974060000,
      "endMs": 1735974971729,
      "startLocation": {
        "latitude": 39.788125,
        "longitude": -105.045112
      },
      "endLocation": {
        "latitude": 39.696415,
        "longitude": -104.951415
      },
      "startAddress": "4907 Crawford Mews",
      "endAddress": "08780 Woods Squares",
      "startCoords": {
        "latitude": 39.800814,
        "longitude": -104.93409
      },
      "endCoords": {
        "latitude": 39.761214,
        "longitude": -105.086788
      },
      "distanceMeters": 7152.3,
      "durationMs": 911730,
      "drivingDurationMs": 731337,
      "idlingDurationMs": 180393,
      "fuelConsumedMl": 322,
      "fuelConsumedGallons": 0.085,
      "maxSpeedMph": 71.7,
      "averageSpeedMph": 17.5,
      "safetyEvents": [
        {
          "type": "speeding",
          "startMs": 1735974840000,
          "maxSpeedMph": 71.7
        }
      ],
      "_no_driver_login": false,
      "_fuel_note": ""
    },
    {
      "id": "trip_48291019_20250104_009",
      "vehicleId": "48291019",
      "driverId": "22831018",
      "startMs": 1735971360000,
      "endMs": 1735975114690,
      "startLocation": {
        "latitude": 39.782888,
        "longitude": -104.938705
      },
      "endLocation": {
        "latitude": 39.738439,
        "longitude": -104.956204
      },
      "startAddress": "51494 Jennifer Overpass",
      "endAddress": "263 Collins Square Suite 539",
      "startCoords": {
        "latitude": 39.817041,
        "longitude": -104.977891
      },
      "endCoords": {
        "latitude": 39.701011,
        "longitude": -105.027608
      },
      "distanceMeters": 22316.3,
      "durationMs": 3754690,
      "drivingDurationMs": 3540838,
      "idlingDurationMs": 213852,
      "fuelConsumedMl": 1011,
      "fuelConsumedGallons": 0.267,
      "maxSpeedMph": 41.4,
      "averageSpeedMph": 13.3,
      "safetyEvents": [],
      "_no_driver_login": false,
      "_fuel_note": ""
    },
    {
      "id": "trip_48291019_20250104_010",
      "vehicleId": "48291019",
      "driverId": "22831018",
      "startMs": 1735980480000,
      "endMs": 1735982408949,
      "startLocation": {
        "latitude": 39.758937,
        "longitude": -105.042443
      },
      "endLocation": {
        "latitude": 39.752618,
        "longitude": -104.995463
      },
      "startAddress": "89509 Jennifer Knolls Apt. 191",
      "endAddress": "233 Mary Burgs Suite 151",
      "startCoords": {
        "latitude": 39.724166,
        "longitude": -104.942279
      },
      "endCoords": {
        "latitude": 39.753307,
        "longitude": -105.070438
      },
      "distanceMeters": 15435.0,
      "durationMs": 1928949,
      "drivingDurationMs": 1560735,
      "idlingDurationMs": 368215,
      "fuelConsumedMl": 697,
      "fuelConsumedGallons": 0.184,
      "maxSpeedMph": 56.0,
      "averageSpeedMph": 17.9,
      "safetyEvents": [],
      "_no_driver_login": false,
      "_fuel_note": ""
    },
    {
      "id": "trip_48291019_20250104_011",
      "vehicleId": "48291019",
      "driverId": "22831018",
      "startMs": 1736014680000,
      "endMs": 1736017599857,
      "startLocation": {
        "latitude": 39.807096,
        "longitude": -104.956901
      },
      "endLocation": {
        "latitude": 39.69456,
        "longitude": -104.994615
      },
      "startAddress": "9666 Taylor Junctions",
      "endAddress": "45264 Davis Green",
      "startCoords": {
        "latitude": 39.714355,
        "longitude": -104.961506
      },
      "endCoords": {
        "latitude": 39.751209,
        "longitude": -105.015236
      },
      "distanceMeters": 18361.8,
      "durationMs": 2919857,
      "drivingDurationMs": 2390842,
      "idlingDurationMs": 529015,
      "fuelConsumedMl": 829,
      "fuelConsumedGallons": 0.219,
      "maxSpeedMph": 38.7,
      "averageSpeedMph": 14.1,
      "safetyEvents": [],
      "_no_driver_login": false,
      "_fuel_note": ""
    },
    {
      "id": "trip_48291019_20250104_012",
      "vehicleId": "48291019",
      "driverId": "22831018",
      "startMs": 1735995960000,
      "endMs": 1735997205729,
      "startLocation": {
        "latitude": 39.819855,
        "longitude": -104.954351
      },
      "endLocation": {
        "latitude": 39.778184,
        "longitude": -104.92813
      },
      "startAddress": "35157 Alexandria Brooks Apt. 805",
      "endAddress": "08005 Torres Union",
      "startCoords": {
        "latitude": 39.698958,
        "longitude": -105.063236
      },
      "endCoords": {
        "latitude": 39.815864,
        "longitude": -105.015139
      },
      "distanceMeters": 9830.4,
      "durationMs": 1245730,
      "drivingDurationMs": 1010431,
      "idlingDurationMs": 235298,
      "fuelConsumedMl": 443,
      "fuelConsumedGallons": 0.117,
      "maxSpeedMph": 50.6,
      "averageSpeedMph": 17.7,
      "safetyEvents": [],
      "_no_driver_login": false,
      "_fuel_note": ""
    },
    {
      "id": "trip_48291019_20250104_013",
      "vehicleId": "48291019",
      "driverId": "22831018",
      "startMs": 1735998900000,
      "endMs": 1736001560058,
      "startLocation": {
        "latitude": 39.782649,
        "longitude": -104.908613
      },
      "endLocation": {
        "latitude": 39.766934,
        "longitude": -105.068506
      },
      "startAddress": "23972 Theresa Court Apt. 959",
      "endAddress": "2827 Christy Plain",
      "startCoords": {
        "latitude": 39.750172,
        "longitude": -105.067544
      },
      "endCoords": {
        "latitude": 39.699612,
        "longitude": -105.084595
      },
      "distanceMeters": 16271.0,
      "durationMs": 2660058,
      "drivingDurationMs": 2319978,
      "idlingDurationMs": 340080,
      "fuelConsumedMl": 734,
      "fuelConsumedGallons": 0.194,
      "maxSpeedMph": 31.0,
      "averageSpeedMph": 13.7,
      "safetyEvents": [],
      "_no_driver_login": false,
      "_fuel_note": ""
    },
    {
      "id": "trip_48291019_20250104_014",
      "vehicleId": "48291019",
      "driverId": "22831018",
      "startMs": 1735996260000,
      "endMs": 1735997464450,
      "startLocation": {
        "latitude": 39.763051,
        "longitude": -105.021002
      },
      "endLocation": {
        "latitude": 39.714296,
        "longitude": -105.013002
      },
      "startAddress": "4152 Rachel Parks",
      "endAddress": "295 Mcfarland Plaza",
      "startCoords": {
        "latitude": 39.745832,
        "longitude": -105.024896
      },
      "endCoords": {
        "latitude": 39.747345,
        "longitude": -105.018112
      },
      "distanceMeters": 8135.4,
      "durationMs": 1204451,
      "drivingDurationMs": 988778,
      "idlingDurationMs": 215673,
      "fuelConsumedMl": 367,
      "fuelConsumedGallons": 0.097,
      "maxSpeedMph": 43.5,
      "averageSpeedMph": 15.1,
      "safetyEvents": [],
      "_no_driver_login": false,
      "_fuel_note": ""
    },
    {
      "id": "trip_48291019_20250104_015",
      "vehicleId": "48291019",
      "driverId": "22831018",
      "startMs": 1735972860000,
      "endMs": 1735974111181,
      "startLocation": {
        "latitude": 39.723501,
        "longitude": -104.973374
      },
      "endLocation": {
        "latitude": 39.758484,
        "longitude": -105.067165
      },
      "startAddress": "1815 Michael Garden Suite 360",
      "endAddress": "79181 Buck Port Suite 834",
      "startCoords": {
        "latitude": 39.690917,
        "longitude": -105.040858
      },
      "endCoords": {
        "latitude": 39.69974,
        "longitude": -105.066035
      },
      "distanceMeters": 10798.0,
      "durationMs": 1251182,
      "drivingDurationMs": 1054943,
      "idlingDurationMs": 196239,
      "fuelConsumedMl": 488,
      "fuelConsumedGallons": 0.129,
      "maxSpeedMph": 36.3,
      "averageSpeedMph": 19.3,
      "safetyEvents": [],
      "_no_driver_login": false,
      "_fuel_note": ""
    },
    {
      "id": "trip_48291019_20250104_016",
      "vehicleId": "48291019",
      "driverId": "22831018",
      "startMs": 1735972560000,
      "endMs": 1735974022181,
      "startLocation": {
        "latitude": 39.78691,
        "longitude": -105.013947
      },
      "endLocation": {
        "latitude": 39.69833,
        "longitude": -104.949567
      },
      "startAddress": "73466 Bennett Overpass Apt. 715",
      "endAddress": "647 Townsend Square Apt. 803",
      "startCoords": {
        "latitude": 39.810507,
        "longitude": -105.03722
      },
      "endCoords": {
        "latitude": 39.713379,
        "longitude": -104.939816
      },
      "distanceMeters": 8122.1,
      "durationMs": 1462181,
      "drivingDurationMs": 1268332,
      "idlingDurationMs": 193850,
      "fuelConsumedMl": 367,
      "fuelConsumedGallons": 0.097,
      "maxSpeedMph": 38.0,
      "averageSpeedMph": 12.4,
      "safetyEvents": [],
      "_no_driver_login": false,
      "_fuel_note": ""
    },
    {
      "id": "trip_48291019_20250104_017",
      "vehicleId": "48291019",
      "driverId": "22831018",
      "startMs": 1735990800000,
      "endMs": 1735992012789,
      "startLocation": {
        "latitude": 39.784697,
        "longitude": -104.997975
      },
      "endLocation": {
        "latitude": 39.727739,
        "longitude": -104.917051
      },
      "startAddress": "9982 Stevenson Place",
      "endAddress": "46358 Madison Spur",
      "startCoords": {
        "latitude": 39.718124,
        "longitude": -105.028402
      },
      "endCoords": {
        "latitude": 39.693739,
        "longitude": -105.052453
      },
      "distanceMeters": 8623.8,
      "durationMs": 1212790,
      "drivingDurationMs": 984299,
      "idlingDurationMs": 228491,
      "fuelConsumedMl": 390,
      "fuelConsumedGallons": 0.103,
      "maxSpeedMph": 32.1,
      "averageSpeedMph": 15.9,
      "safetyEvents": [],
      "_no_driver_login": false,
      "_fuel_note": ""
    },
    {
      "id": "trip_48291019_20250106_001",
      "vehicleId": "48291019",
      "driverId": "22831018",
      "startMs": 1736157060000,
      "endMs": 1736158178237,
      "startLocation": {
        "latitude": 39.800536,
        "longitude": -104.900266
      },
      "endLocation": {
        "latitude": 39.690088,
        "longitude": -104.981701
      },
      "startAddress": "211 Juan Rest Suite 264",
      "endAddress": "29758 Shannon Valleys",
      "startCoords": {
        "latitude": 39.807259,
        "longitude": -104.982505
      },
      "endCoords": {
        "latitude": 39.785054,
        "longitude": -104.938642
      },
      "distanceMeters": 8147.5,
      "durationMs": 1118237,
      "drivingDurationMs": 895884,
      "idlingDurationMs": 222353,
      "fuelConsumedMl": 367,
      "fuelConsumedGallons": 0.097,
      "maxSpeedMph": 36.3,
      "averageSpeedMph": 16.3,
      "safetyEvents": [],
      "_no_driver_login": false,
      "_fuel_note": "QUIRK 5: fuelConsumedGallons is in US gallons. Multiply by 3.785 for litres. Samsara does not link fuel to specific Onfleet tasks."
    },
    {
      "id": "trip_48291019_20250106_002",
      "vehicleId": "48291019",
      "driverId": "22831018",
      "startMs": 1736186040000,
      "endMs": 1736188844716,
      "startLocation": {
        "latitude": 39.762227,
        "longitude": -105.017456
      },
      "endLocation": {
        "latitude": 39.81372,
        "longitude": -104.951021
      },
      "startAddress": "542 Madeline Key Suite 570",
      "endAddress": "8209 David Ways Suite 709",
      "startCoords": {
        "latitude": 39.761676,
        "longitude": -105.027348
      },
      "endCoords": {
        "latitude": 39.775881,
        "longitude": -105.011106
      },
      "distanceMeters": 19078.1,
      "durationMs": 2804717,
      "drivingDurationMs": 2583526,
      "idlingDurationMs": 221191,
      "fuelConsumedMl": 863,
      "fuelConsumedGallons": 0.228,
      "maxSpeedMph": 44.2,
      "averageSpeedMph": 15.2,
      "safetyEvents": [],
      "_no_driver_login": false,
      "_fuel_note": ""
    },
    {
      "id": "trip_48291019_20250106_003",
      "vehicleId": "48291019",
      "driverId": "22831018",
      "startMs": 1736177100000,
      "endMs": 1736178342381,
      "startLocation": {
        "latitude": 39.811934,
        "longitude": -104.960525
      },
      "endLocation": {
        "latitude": 39.742514,
        "longitude": -104.906751
      },
      "startAddress": "016 Sara Junctions",
      "endAddress": "0723 Joshua Way Suite 282",
      "startCoords": {
        "latitude": 39.696189,
        "longitude": -105.040056
      },
      "endCoords": {
        "latitude": 39.703568,
        "longitude": -104.913653
      },
      "distanceMeters": 10558.5,
      "durationMs": 1242381,
      "drivingDurationMs": 1007274,
      "idlingDurationMs": 235107,
      "fuelConsumedMl": 477,
      "fuelConsumedGallons": 0.126,
      "maxSpeedMph": 34.5,
      "averageSpeedMph": 19.0,
      "safetyEvents": [],
      "_no_driver_login": false,
      "_fuel_note": ""
    },
    {
      "id": "trip_48291019_20250106_004",
      "vehicleId": "48291019",
      "driverId": "22831018",
      "startMs": 1736180940000,
      "endMs": 1736182698514,
      "startLocation": {
        "latitude": 39.816095,
        "longitude": -104.902736
      },
      "endLocation": {
        "latitude": 39.704636,
        "longitude": -105.023407
      },
      "startAddress": "400 Todd Run Apt. 247",
      "endAddress": "26168 Smith Circles",
      "startCoords": {
        "latitude": 39.774928,
        "longitude": -104.947521
      },
      "endCoords": {
        "latitude": 39.806409,
        "longitude": -104.979728
      },
      "distanceMeters": 12367.7,
      "durationMs": 1758515,
      "drivingDurationMs": 1453720,
      "idlingDurationMs": 304794,
      "fuelConsumedMl": 560,
      "fuelConsumedGallons": 0.148,
      "maxSpeedMph": 67.1,
      "averageSpeedMph": 15.7,
      "safetyEvents": [
        {
          "type": "speeding",
          "startMs": 1736182560000,
          "maxSpeedMph": 67.1
        }
      ],
      "_no_driver_login": false,
      "_fuel_note": ""
    },
    {
      "id": "trip_48291019_20250106_005",
      "vehicleId": "48291019",
      "driverId": "22831018",
      "startMs": 1736157120000,
      "endMs": 1736160286399,
      "startLocation": {
        "latitude": 39.689779,
        "longitude": -105.068176
      },
      "endLocation": {
        "latitude": 39.68431,
        "longitude": -104.911811
      },
      "startAddress": "8011 Villegas Ridge",
      "endAddress": "1152 Miller Cape",
      "startCoords": {
        "latitude": 39.779531,
        "longitude": -105.056715
      },
      "endCoords": {
        "latitude": 39.716417,
        "longitude": -104.954117
      },
      "distanceMeters": 17943.9,
      "durationMs": 3166399,
      "drivingDurationMs": 2771515,
      "idlingDurationMs": 394884,
      "fuelConsumedMl": 810,
      "fuelConsumedGallons": 0.214,
      "maxSpeedMph": 32.9,
      "averageSpeedMph": 12.7,
      "safetyEvents": [],
      "_no_driver_login": false,
      "_fuel_note": ""
    },
    {
      "id": "trip_48291019_20250106_006",
      "vehicleId": "48291019",
      "driverId": "22831018",
      "startMs": 1736163060000,
      "endMs": 1736163697103,
      "startLocation": {
        "latitude": 39.778415,
        "longitude": -105.013779
      },
      "endLocation": {
        "latitude": 39.766902,
        "longitude": -104.946574
      },
      "startAddress": "70923 Antonio Cliffs Suite 950",
      "endAddress": "4189 Hoffman Islands",
      "startCoords": {
        "latitude": 39.78287,
        "longitude": -104.90175
      },
      "endCoords": {
        "latitude": 39.716278,
        "longitude": -104.966513
      },
      "distanceMeters": 4689.2,
      "durationMs": 637104,
      "drivingDurationMs": 500779,
      "idlingDurationMs": 136325,
      "fuelConsumedMl": 212,
      "fuelConsumedGallons": 0.056,
      "maxSpeedMph": 52.1,
      "averageSpeedMph": 16.5,
      "safetyEvents": [],
      "_no_driver_login": false,
      "_fuel_note": ""
    },
    {
      "id": "trip_48291019_20250106_007",
      "vehicleId": "48291019",
      "driverId": "22831018",
      "startMs": 1736153580000,
      "endMs": 1736155869810,
      "startLocation": {
        "latitude": 39.799034,
        "longitude": -104.994503
      },
      "endLocation": {
        "latitude": 39.815741,
        "longitude": -104.956906
      },
      "startAddress": "29876 Michelle Loop Suite 294",
      "endAddress": "1619 Tiffany Flats Suite 813",
      "startCoords": {
        "latitude": 39.727916,
        "longitude": -104.945449
      },
      "endCoords": {
        "latitude": 39.727383,
        "longitude": -105.048331
      },
      "distanceMeters": 17960.7,
      "durationMs": 2289811,
      "drivingDurationMs": 1898754,
      "idlingDurationMs": 391056,
      "fuelConsumedMl": 814,
      "fuelConsumedGallons": 0.215,
      "maxSpeedMph": 67.3,
      "averageSpeedMph": 17.5,
      "safetyEvents": [
        {
          "type": "speeding",
          "startMs": 1736154060000,
          "maxSpeedMph": 67.3
        }
      ],
      "_no_driver_login": false,
      "_fuel_note": ""
    },
    {
      "id": "trip_48291019_20250106_008",
      "vehicleId": "48291019",
      "driverId": "22831018",
      "startMs": 1736154060000,
      "endMs": 1736154538842,
      "startLocation": {
        "latitude": 39.693389,
        "longitude": -105.002522
      },
      "endLocation": {
        "latitude": 39.700874,
        "longitude": -104.909859
      },
      "startAddress": "45025 Walker Falls",
      "endAddress": "4357 Warren View",
      "startCoords": {
        "latitude": 39.779092,
        "longitude": -105.085728
      },
      "endCoords": {
        "latitude": 39.769863,
        "longitude": -105.023121
      },
      "distanceMeters": 2373.1,
      "durationMs": 478843,
      "drivingDurationMs": 319574,
      "idlingDurationMs": 159269,
      "fuelConsumedMl": 106,
      "fuelConsumedGallons": 0.028,
      "maxSpeedMph": 64.4,
      "averageSpeedMph": 11.1,
      "safetyEvents": [],
      "_no_driver_login": false,
      "_fuel_note": ""
    },
    {
      "id": "trip_48291019_20250106_009",
      "vehicleId": "48291019",
      "driverId": "22831018",
      "startMs": 1736161980000,
      "endMs": 1736163241536,
      "startLocation": {
        "latitude": 39.781619,
        "longitude": -104.903809
      },
      "endLocation": {
        "latitude": 39.755799,
        "longitude": -105.021554
      },
      "startAddress": "2680 Atkins Plains",
      "endAddress": "67398 Veronica Glen Suite 883",
      "startCoords": {
        "latitude": 39.720597,
        "longitude": -104.99857
      },
      "endCoords": {
        "latitude": 39.798731,
        "longitude": -104.945992
      },
      "distanceMeters": 8987.1,
      "durationMs": 1261537,
      "drivingDurationMs": 1013959,
      "idlingDurationMs": 247578,
      "fuelConsumedMl": 405,
      "fuelConsumedGallons": 0.107,
      "maxSpeedMph": 55.9,
      "averageSpeedMph": 15.9,
      "safetyEvents": [],
      "_no_driver_login": false,
      "_fuel_note": ""
    },
    {
      "id": "trip_48291019_20250106_010",
      "vehicleId": "48291019",
      "driverId": "22831018",
      "startMs": 1736186760000,
      "endMs": 1736188421618,
      "startLocation": {
        "latitude": 39.827099,
        "longitude": -105.016194
      },
      "endLocation": {
        "latitude": 39.822505,
        "longitude": -104.944838
      },
      "startAddress": "53646 Amber Isle Suite 077",
      "endAddress": "065 Harvey Knoll Apt. 562",
      "startCoords": {
        "latitude": 39.696244,
        "longitude": -105.040253
      },
      "endCoords": {
        "latitude": 39.696996,
        "longitude": -105.041527
      },
      "distanceMeters": 11722.1,
      "durationMs": 1661619,
      "drivingDurationMs": 1344196,
      "idlingDurationMs": 317422,
      "fuelConsumedMl": 530,
      "fuelConsumedGallons": 0.14,
      "maxSpeedMph": 69.8,
      "averageSpeedMph": 15.8,
      "safetyEvents": [
        {
          "type": "speeding",
          "startMs": 1736188200000,
          "maxSpeedMph": 69.8
        }
      ],
      "_no_driver_login": false,
      "_fuel_note": ""
    },
    {
      "id": "trip_48291019_20250106_011",
      "vehicleId": "48291019",
      "driverId": "22831018",
      "startMs": 1736182740000,
      "endMs": 1736183437933,
      "startLocation": {
        "latitude": 39.730268,
        "longitude": -104.983694
      },
      "endLocation": {
        "latitude": 39.785211,
        "longitude": -105.002786
      },
      "startAddress": "209 Amber Isle",
      "endAddress": "07409 Pamela Courts Apt. 178",
      "startCoords": {
        "latitude": 39.772192,
        "longitude": -105.069844
      },
      "endCoords": {
        "latitude": 39.782297,
        "longitude": -104.976013
      },
      "distanceMeters": 4162.1,
      "durationMs": 697934,
      "drivingDurationMs": 533652,
      "idlingDurationMs": 164282,
      "fuelConsumedMl": 189,
      "fuelConsumedGallons": 0.05,
      "maxSpeedMph": 54.6,
      "averageSpeedMph": 13.3,
      "safetyEvents": [],
      "_no_driver_login": false,
      "_fuel_note": ""
    },
    {
      "id": "trip_48291019_20250106_012",
      "vehicleId": "48291019",
      "driverId": "22831018",
      "startMs": 1736182140000,
      "endMs": 1736182629902,
      "startLocation": {
        "latitude": 39.765177,
        "longitude": -104.936883
      },
      "endLocation": {
        "latitude": 39.760941,
        "longitude": -104.951373
      },
      "startAddress": "90254 Fleming Center Apt. 206",
      "endAddress": "54120 Elizabeth Falls Suite 595",
      "startCoords": {
        "latitude": 39.720226,
        "longitude": -105.065568
      },
      "endCoords": {
        "latitude": 39.758212,
        "longitude": -105.05498
      },
      "distanceMeters": 2649.4,
      "durationMs": 489903,
      "drivingDurationMs": 316867,
      "idlingDurationMs": 173036,
      "fuelConsumedMl": 121,
      "fuelConsumedGallons": 0.032,
      "maxSpeedMph": 36.0,
      "averageSpeedMph": 12.1,
      "safetyEvents": [],
      "_no_driver_login": false,
      "_fuel_note": ""
    },
    {
      "id": "trip_48291019_20250106_013",
      "vehicleId": "48291019",
      "driverId": "22831018",
      "startMs": 1736169480000,
      "endMs": 1736173508907,
      "startLocation": {
        "latitude": 39.823341,
        "longitude": -105.073257
      },
      "endLocation": {
        "latitude": 39.753226,
        "longitude": -105.040839
      },
      "startAddress": "26015 Matthew Wall",
      "endAddress": "9479 Johnson Haven",
      "startCoords": {
        "latitude": 39.739555,
        "longitude": -104.947571
      },
      "endCoords": {
        "latitude": 39.77798,
        "longitude": -105.054469
      },
      "distanceMeters": 21631.8,
      "durationMs": 4028907,
      "drivingDurationMs": 3440126,
      "idlingDurationMs": 588781,
      "fuelConsumedMl": 977,
      "fuelConsumedGallons": 0.258,
      "maxSpeedMph": 46.8,
      "averageSpeedMph": 12.0,
      "safetyEvents": [],
      "_no_driver_login": false,
      "_fuel_note": ""
    },
    {
      "id": "trip_48291019_20250107_001",
      "vehicleId": "48291019",
      "driverId": "22831018",
      "startMs": 1736267760000,
      "endMs": 1736269350041,
      "startLocation": {
        "latitude": 39.726008,
        "longitude": -105.016878
      },
      "endLocation": {
        "latitude": 39.737788,
        "longitude": -104.924859
      },
      "startAddress": "24365 Megan Spurs Suite 055",
      "endAddress": "648 Holly Via",
      "startCoords": {
        "latitude": 39.796956,
        "longitude": -104.948318
      },
      "endCoords": {
        "latitude": 39.763981,
        "longitude": -105.005853
      },
      "distanceMeters": 8926.1,
      "durationMs": 1590041,
      "drivingDurationMs": 1329260,
      "idlingDurationMs": 260781,
      "fuelConsumedMl": 405,
      "fuelConsumedGallons": 0.107,
      "maxSpeedMph": 53.5,
      "averageSpeedMph": 12.6,
      "safetyEvents": [],
      "_no_driver_login": false,
      "_fuel_note": "QUIRK 5: fuelConsumedGallons is in US gallons. Multiply by 3.785 for litres. Samsara does not link fuel to specific Onfleet tasks."
    },
    {
      "id": "trip_48291019_20250107_002",
      "vehicleId": "48291019",
      "driverId": "22831018",
      "startMs": 1736256360000,
      "endMs": 1736256841775,
      "startLocation": {
        "latitude": 39.72852,
        "longitude": -105.007983
      },
      "endLocation": {
        "latitude": 39.736223,
        "longitude": -104.945362
      },
      "startAddress": "4036 Pittman Pass Apt. 159",
      "endAddress": "3854 Jenkins Flat Apt. 360",
      "startCoords": {
        "latitude": 39.732725,
        "longitude": -104.919724
      },
      "endCoords": {
        "latitude": 39.766065,
        "longitude": -104.94042
      },
      "distanceMeters": 3150.1,
      "durationMs": 481775,
      "drivingDurationMs": 327497,
      "idlingDurationMs": 154278,
      "fuelConsumedMl": 144,
      "fuelConsumedGallons": 0.038,
      "maxSpeedMph": 28.6,
      "averageSpeedMph": 14.6,
      "safetyEvents": [],
      "_no_driver_login": false,
      "_fuel_note": ""
    },
    {
      "id": "trip_48291019_20250107_003",
      "vehicleId": "48291019",
      "driverId": null,
      "startMs": 1736246940000,
      "endMs": 1736248552774,
      "startLocation": {
        "latitude": 39.70259,
        "longitude": -104.926393
      },
      "endLocation": {
        "latitude": 39.736993,
        "longitude": -104.937331
      },
      "startAddress": "7998 Campbell Cliffs Apt. 594",
      "endAddress": "220 Lopez Pine Suite 226",
      "startCoords": {
        "latitude": 39.809982,
        "longitude": -104.940277
      },
      "endCoords": {
        "latitude": 39.806869,
        "longitude": -105.053021
      },
      "distanceMeters": 9335.4,
      "durationMs": 1612775,
      "drivingDurationMs": 1316307,
      "idlingDurationMs": 296468,
      "fuelConsumedMl": 424,
      "fuelConsumedGallons": 0.112,
      "maxSpeedMph": 63.4,
      "averageSpeedMph": 12.9,
      "safetyEvents": [],
      "_no_driver_login": true,
      "_fuel_note": ""
    },
    {
      "id": "trip_48291019_20250107_004",
      "vehicleId": "48291019",
      "driverId": "22831018",
      "startMs": 1736252460000,
      "endMs": 1736255702975,
      "startLocation": {
        "latitude": 39.716723,
        "longitude": -105.07761
      },
      "endLocation": {
        "latitude": 39.783878,
        "longitude": -104.960608
      },
      "startAddress": "66617 Thompson Key",
      "endAddress": "992 Jason Terrace Suite 688",
      "startCoords": {
        "latitude": 39.706829,
        "longitude": -105.052567
      },
      "endCoords": {
        "latitude": 39.70894,
        "longitude": -105.032355
      },
      "distanceMeters": 18113.8,
      "durationMs": 3242976,
      "drivingDurationMs": 2851678,
      "idlingDurationMs": 391297,
      "fuelConsumedMl": 818,
      "fuelConsumedGallons": 0.216,
      "maxSpeedMph": 42.7,
      "averageSpeedMph": 12.5,
      "safetyEvents": [],
      "_no_driver_login": false,
      "_fuel_note": ""
    },
    {
      "id": "trip_48291019_20250107_005",
      "vehicleId": "48291019",
      "driverId": "22831018",
      "startMs": 1736275860000,
      "endMs": 1736277288558,
      "startLocation": {
        "latitude": 39.703092,
        "longitude": -105.028234
      },
      "endLocation": {
        "latitude": 39.693433,
        "longitude": -105.082494
      },
      "startAddress": "779 Nathan Tunnel Suite 041",
      "endAddress": "8208 Woodard Via",
      "startCoords": {
        "latitude": 39.695125,
        "longitude": -105.034837
      },
      "endCoords": {
        "latitude": 39.825493,
        "longitude": -105.070343
      },
      "distanceMeters": 12394.3,
      "durationMs": 1428558,
      "drivingDurationMs": 1192099,
      "idlingDurationMs": 236459,
      "fuelConsumedMl": 560,
      "fuelConsumedGallons": 0.148,
      "maxSpeedMph": 56.9,
      "averageSpeedMph": 19.4,
      "safetyEvents": [],
      "_no_driver_login": false,
      "_fuel_note": ""
    },
    {
      "id": "trip_48291019_20250107_006",
      "vehicleId": "48291019",
      "driverId": "22831018",
      "startMs": 1736261520000,
      "endMs": 1736264802354,
      "startLocation": {
        "latitude": 39.793349,
        "longitude": -104.903355
      },
      "endLocation": {
        "latitude": 39.685892,
        "longitude": -104.998384
      },
      "startAddress": "53983 Eric Crossroad",
      "endAddress": "00144 Denise Shoals Suite 629",
      "startCoords": {
        "latitude": 39.758145,
        "longitude": -105.013161
      },
      "endCoords": {
        "latitude": 39.78621,
        "longitude": -104.901057
      },
      "distanceMeters": 24000.5,
      "durationMs": 3282355,
      "drivingDurationMs": 2829646,
      "idlingDurationMs": 452708,
      "fuelConsumedMl": 1086,
      "fuelConsumedGallons": 0.287,
      "maxSpeedMph": 45.1,
      "averageSpeedMph": 16.4,
      "safetyEvents": [],
      "_no_driver_login": false,
      "_fuel_note": ""
    },
    {
      "id": "trip_48291019_20250107_007",
      "vehicleId": "48291019",
      "driverId": "22831018",
      "startMs": 1736237520000,
      "endMs": 1736241286227,
      "startLocation": {
        "latitude": 39.796967,
        "longitude": -105.085154
      },
      "endLocation": {
        "latitude": 39.799319,
        "longitude": -105.003743
      },
      "startAddress": "3049 Jeff Crest",
      "endAddress": "89752 Anderson Ramp",
      "startCoords": {
        "latitude": 39.827038,
        "longitude": -105.010814
      },
      "endCoords": {
        "latitude": 39.721655,
        "longitude": -105.056826
      },
      "distanceMeters": 22116.2,
      "durationMs": 3766227,
      "drivingDurationMs": 3214799,
      "idlingDurationMs": 551428,
      "fuelConsumedMl": 999,
      "fuelConsumedGallons": 0.264,
      "maxSpeedMph": 69.4,
      "averageSpeedMph": 13.1,
      "safetyEvents": [
        {
          "type": "speeding",
          "startMs": 1736240700000,
          "maxSpeedMph": 69.4
        }
      ],
      "_no_driver_login": false,
      "_fuel_note": ""
    },
    {
      "id": "trip_48291019_20250107_008",
      "vehicleId": "48291019",
      "driverId": "22831018",
      "startMs": 1736251440000,
      "endMs": 1736252439703,
      "startLocation": {
        "latitude": 39.789734,
        "longitude": -104.921224
      },
      "endLocation": {
        "latitude": 39.733047,
        "longitude": -105.006761
      },
      "startAddress": "564 Julia Shores Apt. 405",
      "endAddress": "82353 Ashley Oval",
      "startCoords": {
        "latitude": 39.784115,
        "longitude": -104.950401
      },
      "endCoords": {
        "latitude": 39.808614,
        "longitude": -104.987522
      },
      "distanceMeters": 5387.3,
      "durationMs": 999703,
      "drivingDurationMs": 815762,
      "idlingDurationMs": 183941,
      "fuelConsumedMl": 242,
      "fuelConsumedGallons": 0.064,
      "maxSpeedMph": 37.0,
      "averageSpeedMph": 12.1,
      "safetyEvents": [],
      "_no_driver_login": false,
      "_fuel_note": ""
    },
    {
      "id": "trip_48291019_20250107_009",
      "vehicleId": "48291019",
      "driverId": "22831018",
      "startMs": 1736256900000,
      "endMs": 1736258124632,
      "startLocation": {
        "latitude": 39.708928,
        "longitude": -105.063639
      },
      "endLocation": {
        "latitude": 39.780557,
        "longitude": -104.956948
      },
      "startAddress": "9194 Martinez Port Apt. 568",
      "endAddress": "17530 Gilbert Lodge",
      "startCoords": {
        "latitude": 39.71725,
        "longitude": -105.026673
      },
      "endCoords": {
        "latitude": 39.720228,
        "longitude": -104.93771
      },
      "distanceMeters": 10058.2,
      "durationMs": 1224632,
      "drivingDurationMs": 1031487,
      "idlingDurationMs": 193145,
      "fuelConsumedMl": 454,
      "fuelConsumedGallons": 0.12,
      "maxSpeedMph": 71.3,
      "averageSpeedMph": 18.4,
      "safetyEvents": [
        {
          "type": "speeding",
          "startMs": 1736257500000,
          "maxSpeedMph": 71.3
        }
      ],
      "_no_driver_login": false,
      "_fuel_note": ""
    },
    {
      "id": "trip_48291019_20250107_010",
      "vehicleId": "48291019",
      "driverId": "22831018",
      "startMs": 1736229720000,
      "endMs": 1736232199941,
      "startLocation": {
        "latitude": 39.732526,
        "longitude": -105.060303
      },
      "endLocation": {
        "latitude": 39.712097,
        "longitude": -104.92206
      },
      "startAddress": "695 Hernandez Track",
      "endAddress": "43474 Jennifer Island Apt. 137",
      "startCoords": {
        "latitude": 39.699786,
        "longitude": -104.909936
      },
      "endCoords": {
        "latitude": 39.70595,
        "longitude": -104.95352
      },
      "distanceMeters": 17543.9,
      "durationMs": 2479941,
      "drivingDurationMs": 2187834,
      "idlingDurationMs": 292107,
      "fuelConsumedMl": 795,
      "fuelConsumedGallons": 0.21,
      "maxSpeedMph": 44.2,
      "averageSpeedMph": 15.8,
      "safetyEvents": [],
      "_no_driver_login": false,
      "_fuel_note": ""
    },
    {
      "id": "trip_48291019_20250107_011",
      "vehicleId": "48291019",
      "driverId": "22831018",
      "startMs": 1736255880000,
      "endMs": 1736258565794,
      "startLocation": {
        "latitude": 39.773211,
        "longitude": -104.934193
      },
      "endLocation": {
        "latitude": 39.695961,
        "longitude": -105.005197
      },
      "startAddress": "1007 Simpson Row Apt. 175",
      "endAddress": "61920 Heather Village",
      "startCoords": {
        "latitude": 39.795231,
        "longitude": -104.943876
      },
      "endCoords": {
        "latitude": 39.71874,
        "longitude": -105.032476
      },
      "distanceMeters": 19704.3,
      "durationMs": 2685795,
      "drivingDurationMs": 2228120,
      "idlingDurationMs": 457675,
      "fuelConsumedMl": 890,
      "fuelConsumedGallons": 0.235,
      "maxSpeedMph": 71.0,
      "averageSpeedMph": 16.4,
      "safetyEvents": [
        {
          "type": "speeding",
          "startMs": 1736256600000,
          "maxSpeedMph": 71.0
        }
      ],
      "_no_driver_login": false,
      "_fuel_note": ""
    },
    {
      "id": "trip_48291019_20250107_012",
      "vehicleId": "48291019",
      "driverId": "22831018",
      "startMs": 1736255400000,
      "endMs": 1736255789276,
      "startLocation": {
        "latitude": 39.694218,
        "longitude": -104.998356
      },
      "endLocation": {
        "latitude": 39.786678,
        "longitude": -104.964413
      },
      "startAddress": "387 Jason Canyon",
      "endAddress": "2444 Mitchell Rest",
      "startCoords": {
        "latitude": 39.692489,
        "longitude": -104.928321
      },
      "endCoords": {
        "latitude": 39.771186,
        "longitude": -105.014866
      },
      "distanceMeters": 2706.2,
      "durationMs": 389276,
      "drivingDurationMs": 271514,
      "idlingDurationMs": 117763,
      "fuelConsumedMl": 121,
      "fuelConsumedGallons": 0.032,
      "maxSpeedMph": 44.7,
      "averageSpeedMph": 15.6,
      "safetyEvents": [],
      "_no_driver_login": false,
      "_fuel_note": ""
    },
    {
      "id": "trip_48291019_20250107_013",
      "vehicleId": "48291019",
      "driverId": "22831018",
      "startMs": 1736243520000,
      "endMs": 1736244038447,
      "startLocation": {
        "latitude": 39.798009,
        "longitude": -105.044509
      },
      "endLocation": {
        "latitude": 39.787394,
        "longitude": -104.993028
      },
      "startAddress": "7607 Cline Trail",
      "endAddress": "1076 Jones Throughway",
      "startCoords": {
        "latitude": 39.704604,
        "longitude": -104.970235
      },
      "endCoords": {
        "latitude": 39.7168,
        "longitude": -104.928137
      },
      "distanceMeters": 2959.2,
      "durationMs": 518448,
      "drivingDurationMs": 390745,
      "idlingDurationMs": 127703,
      "fuelConsumedMl": 132,
      "fuelConsumedGallons": 0.035,
      "maxSpeedMph": 29.5,
      "averageSpeedMph": 12.8,
      "safetyEvents": [],
      "_no_driver_login": false,
      "_fuel_note": ""
    },
    {
      "id": "trip_48291019_20250107_014",
      "vehicleId": "48291019",
      "driverId": "22831018",
      "startMs": 1736244000000,
      "endMs": 1736244379030,
      "startLocation": {
        "latitude": 39.693692,
        "longitude": -104.923466
      },
      "endLocation": {
        "latitude": 39.747229,
        "longitude": -104.992629
      },
      "startAddress": "0851 Neal Shoals",
      "endAddress": "951 Bell Fields",
      "startCoords": {
        "latitude": 39.757845,
        "longitude": -105.075113
      },
      "endCoords": {
        "latitude": 39.744987,
        "longitude": -104.901572
      },
      "distanceMeters": 2822.6,
      "durationMs": 379031,
      "drivingDurationMs": 276622,
      "idlingDurationMs": 102408,
      "fuelConsumedMl": 129,
      "fuelConsumedGallons": 0.034,
      "maxSpeedMph": 55.9,
      "averageSpeedMph": 16.7,
      "safetyEvents": [],
      "_no_driver_login": false,
      "_fuel_note": ""
    },
    {
      "id": "trip_48291019_20250107_015",
      "vehicleId": "48291019",
      "driverId": "22831018",
      "startMs": 1736244960000,
      "endMs": 1736246016718,
      "startLocation": {
        "latitude": 39.760375,
        "longitude": -104.933468
      },
      "endLocation": {
        "latitude": 39.810432,
        "longitude": -104.95813
      },
      "startAddress": "91858 Maxwell Plains Apt. 157",
      "endAddress": "9653 Sandra Causeway Suite 700",
      "startCoords": {
        "latitude": 39.752212,
        "longitude": -104.971098
      },
      "endCoords": {
        "latitude": 39.748641,
        "longitude": -104.940089
      },
      "distanceMeters": 7851.0,
      "durationMs": 1056718,
      "drivingDurationMs": 863796,
      "idlingDurationMs": 192922,
      "fuelConsumedMl": 356,
      "fuelConsumedGallons": 0.094,
      "maxSpeedMph": 39.5,
      "averageSpeedMph": 16.6,
      "safetyEvents": [],
      "_no_driver_login": false,
      "_fuel_note": ""
    },
    {
      "id": "trip_48291019_20250107_016",
      "vehicleId": "48291019",
      "driverId": "22831018",
      "startMs": 1736233200000,
      "endMs": 1736235501299,
      "startLocation": {
        "latitude": 39.776506,
        "longitude": -105.064502
      },
      "endLocation": {
        "latitude": 39.76108,
        "longitude": -104.906947
      },
      "startAddress": "93045 Wilson Harbor Apt. 398",
      "endAddress": "18039 Long Estates",
      "startCoords": {
        "latitude": 39.757601,
        "longitude": -105.039632
      },
      "endCoords": {
        "latitude": 39.761402,
        "longitude": -105.015059
      },
      "distanceMeters": 16761.1,
      "durationMs": 2301299,
      "drivingDurationMs": 1861507,
      "idlingDurationMs": 439792,
      "fuelConsumedMl": 757,
      "fuelConsumedGallons": 0.2,
      "maxSpeedMph": 59.9,
      "averageSpeedMph": 16.3,
      "safetyEvents": [],
      "_no_driver_login": false,
      "_fuel_note": ""
    },
    {
      "id": "trip_48291019_20250108_001",
      "vehicleId": "48291019",
      "driverId": "22831018",
      "startMs": 1736360220000,
      "endMs": 1736362328697,
      "startLocation": {
        "latitude": 39.79103,
        "longitude": -104.902689
      },
      "endLocation": {
        "latitude": 39.808492,
        "longitude": -104.979607
      },
      "startAddress": "984 Kline Prairie Suite 990",
      "endAddress": "21711 Payne Lodge Suite 658",
      "startCoords": {
        "latitude": 39.713232,
        "longitude": -105.054314
      },
      "endCoords": {
        "latitude": 39.69499,
        "longitude": -104.994351
      },
      "distanceMeters": 14511.7,
      "durationMs": 2108697,
      "drivingDurationMs": 1773932,
      "idlingDurationMs": 334765,
      "fuelConsumedMl": 655,
      "fuelConsumedGallons": 0.173,
      "maxSpeedMph": 60.4,
      "averageSpeedMph": 15.4,
      "safetyEvents": [],
      "_no_driver_login": false,
      "_fuel_note": "QUIRK 5: fuelConsumedGallons is in US gallons. Multiply by 3.785 for litres. Samsara does not link fuel to specific Onfleet tasks."
    },
    {
      "id": "trip_48291019_20250108_002",
      "vehicleId": "48291019",
      "driverId": "22831018",
      "startMs": 1736333400000,
      "endMs": 1736334298380,
      "startLocation": {
        "latitude": 39.714573,
        "longitude": -105.008806
      },
      "endLocation": {
        "latitude": 39.699279,
        "longitude": -104.931777
      },
      "startAddress": "981 Ryan Park",
      "endAddress": "563 Victoria Flats",
      "startCoords": {
        "latitude": 39.691168,
        "longitude": -105.051498
      },
      "endCoords": {
        "latitude": 39.738873,
        "longitude": -105.006471
      },
      "distanceMeters": 5315.5,
      "durationMs": 898380,
      "drivingDurationMs": 718481,
      "idlingDurationMs": 179899,
      "fuelConsumedMl": 242,
      "fuelConsumedGallons": 0.064,
      "maxSpeedMph": 67.2,
      "averageSpeedMph": 13.2,
      "safetyEvents": [
        {
          "type": "speeding",
          "startMs": 1736333880000,
          "maxSpeedMph": 67.2
        }
      ],
      "_no_driver_login": false,
      "_fuel_note": ""
    },
    {
      "id": "trip_48291019_20250108_003",
      "vehicleId": "48291019",
      "driverId": "22831018",
      "startMs": 1736326980000,
      "endMs": 1736329186016,
      "startLocation": {
        "latitude": 39.818395,
        "longitude": -105.05921
      },
      "endLocation": {
        "latitude": 39.688794,
        "longitude": -104.975801
      },
      "startAddress": "97557 Julie Terrace",
      "endAddress": "69496 Tony Points Apt. 193",
      "startCoords": {
        "latitude": 39.796079,
        "longitude": -105.04321
      },
      "endCoords": {
        "latitude": 39.812486,
        "longitude": -105.009769
      },
      "distanceMeters": 12922.5,
      "durationMs": 2206017,
      "drivingDurationMs": 1907462,
      "idlingDurationMs": 298555,
      "fuelConsumedMl": 583,
      "fuelConsumedGallons": 0.154,
      "maxSpeedMph": 58.6,
      "averageSpeedMph": 13.1,
      "safetyEvents": [],
      "_no_driver_login": false,
      "_fuel_note": ""
    },
    {
      "id": "trip_48291019_20250108_004",
      "vehicleId": "48291019",
      "driverId": null,
      "startMs": 1736323440000,
      "endMs": 1736326134131,
      "startLocation": {
        "latitude": 39.750733,
        "longitude": -104.973851
      },
      "endLocation": {
        "latitude": 39.688056,
        "longitude": -105.069689
      },
      "startAddress": "8201 Dawn Bridge",
      "endAddress": "67532 Paul Unions Apt. 613",
      "startCoords": {
        "latitude": 39.718812,
        "longitude": -105.024934
      },
      "endCoords": {
        "latitude": 39.798746,
        "longitude": -104.905939
      },
      "distanceMeters": 15138.5,
      "durationMs": 2694132,
      "drivingDurationMs": 2167337,
      "idlingDurationMs": 526795,
      "fuelConsumedMl": 685,
      "fuelConsumedGallons": 0.181,
      "maxSpeedMph": 53.7,
      "averageSpeedMph": 12.6,
      "safetyEvents": [],
      "_no_driver_login": true,
      "_fuel_note": ""
    },
    {
      "id": "trip_48291019_20250108_005",
      "vehicleId": "48291019",
      "driverId": null,
      "startMs": 1736319060000,
      "endMs": 1736320681535,
      "startLocation": {
        "latitude": 39.748805,
        "longitude": -105.057553
      },
      "endLocation": {
        "latitude": 39.699462,
        "longitude": -104.98597
      },
      "startAddress": "9854 Karen Cape",
      "endAddress": "903 Chambers Rapid Suite 458",
      "startCoords": {
        "latitude": 39.7386,
        "longitude": -105.079952
      },
      "endCoords": {
        "latitude": 39.757143,
        "longitude": -104.921205
      },
      "distanceMeters": 12612.1,
      "durationMs": 1621535,
      "drivingDurationMs": 1425748,
      "idlingDurationMs": 195787,
      "fuelConsumedMl": 572,
      "fuelConsumedGallons": 0.151,
      "maxSpeedMph": 61.1,
      "averageSpeedMph": 17.4,
      "safetyEvents": [],
      "_no_driver_login": true,
      "_fuel_note": ""
    },
    {
      "id": "trip_48291019_20250108_006",
      "vehicleId": "48291019",
      "driverId": "22831018",
      "startMs": 1736353440000,
      "endMs": 1736355559335,
      "startLocation": {
        "latitude": 39.816636,
        "longitude": -104.942123
      },
      "endLocation": {
        "latitude": 39.790896,
        "longitude": -104.93857
      },
      "startAddress": "356 Erin Radial Apt. 274",
      "endAddress": "225 Rodriguez Valleys",
      "startCoords": {
        "latitude": 39.827698,
        "longitude": -105.066831
      },
      "endCoords": {
        "latitude": 39.707827,
        "longitude": -104.935672
      },
      "distanceMeters": 13399.1,
      "durationMs": 2119336,
      "drivingDurationMs": 1931777,
      "idlingDurationMs": 187559,
      "fuelConsumedMl": 606,
      "fuelConsumedGallons": 0.16,
      "maxSpeedMph": 64.2,
      "averageSpeedMph": 14.1,
      "safetyEvents": [],
      "_no_driver_login": false,
      "_fuel_note": ""
    },
    {
      "id": "trip_48291019_20250108_007",
      "vehicleId": "48291019",
      "driverId": "22831018",
      "startMs": 1736321400000,
      "endMs": 1736324329720,
      "startLocation": {
        "latitude": 39.704586,
        "longitude": -105.045255
      },
      "endLocation": {
        "latitude": 39.727192,
        "longitude": -104.926432
      },
      "startAddress": "92581 Collier Ways Suite 212",
      "endAddress": "0186 Ashley Green",
      "startCoords": {
        "latitude": 39.817879,
        "longitude": -105.062919
      },
      "endCoords": {
        "latitude": 39.735699,
        "longitude": -105.070241
      },
      "distanceMeters": 21187.4,
      "durationMs": 2929721,
      "drivingDurationMs": 2605309,
      "idlingDurationMs": 324412,
      "fuelConsumedMl": 958,
      "fuelConsumedGallons": 0.253,
      "maxSpeedMph": 45.9,
      "averageSpeedMph": 16.2,
      "safetyEvents": [],
      "_no_driver_login": false,
      "_fuel_note": ""
    },
    {
      "id": "trip_48291019_20250108_008",
      "vehicleId": "48291019",
      "driverId": "22831018",
      "startMs": 1736337600000,
      "endMs": 1736338559326,
      "startLocation": {
        "latitude": 39.821292,
        "longitude": -104.915696
      },
      "endLocation": {
        "latitude": 39.779486,
        "longitude": -105.084514
      },
      "startAddress": "1384 Hall Island Suite 309",
      "endAddress": "79685 Debra Meadow",
      "startCoords": {
        "latitude": 39.722877,
        "longitude": -104.948064
      },
      "endCoords": {
        "latitude": 39.748027,
        "longitude": -104.929116
      },
      "distanceMeters": 5313.6,
      "durationMs": 959326,
      "drivingDurationMs": 768317,
      "idlingDurationMs": 191009,
      "fuelConsumedMl": 238,
      "fuelConsumedGallons": 0.063,
      "maxSpeedMph": 39.9,
      "averageSpeedMph": 12.4,
      "safetyEvents": [],
      "_no_driver_login": false,
      "_fuel_note": ""
    },
    {
      "id": "trip_48291019_20250109_001",
      "vehicleId": "48291019",
      "driverId": "22831018",
      "startMs": 1736436420000,
      "endMs": 1736440167720,
      "startLocation": {
        "latitude": 39.739123,
        "longitude": -104.99907
      },
      "endLocation": {
        "latitude": 39.720428,
        "longitude": -105.054459
      },
      "startAddress": "4160 Barbara Corner",
      "endAddress": "087 Sarah Crest Suite 086",
      "startCoords": {
        "latitude": 39.701361,
        "longitude": -104.947857
      },
      "endCoords": {
        "latitude": 39.766222,
        "longitude": -104.985173
      },
      "distanceMeters": 20333.2,
      "durationMs": 3747720,
      "drivingDurationMs": 3270256,
      "idlingDurationMs": 477464,
      "fuelConsumedMl": 920,
      "fuelConsumedGallons": 0.243,
      "maxSpeedMph": 37.1,
      "averageSpeedMph": 12.1,
      "safetyEvents": [],
      "_no_driver_login": false,
      "_fuel_note": "QUIRK 5: fuelConsumedGallons is in US gallons. Multiply by 3.785 for litres. Samsara does not link fuel to specific Onfleet tasks."
    },
    {
      "id": "trip_48291019_20250109_002",
      "vehicleId": "48291019",
      "driverId": "22831018",
      "startMs": 1736438700000,
      "endMs": 1736442068619,
      "startLocation": {
        "latitude": 39.744945,
        "longitude": -105.004526
      },
      "endLocation": {
        "latitude": 39.732257,
        "longitude": -104.909213
      },
      "startAddress": "52077 Jenny Centers Suite 404",
      "endAddress": "68957 Chavez Drive",
      "startCoords": {
        "latitude": 39.813106,
        "longitude": -105.073238
      },
      "endCoords": {
        "latitude": 39.779498,
        "longitude": -105.011578
      },
      "distanceMeters": 23196.3,
      "durationMs": 3368619,
      "drivingDurationMs": 2802905,
      "idlingDurationMs": 565714,
      "fuelConsumedMl": 1049,
      "fuelConsumedGallons": 0.277,
      "maxSpeedMph": 68.6,
      "averageSpeedMph": 15.4,
      "safetyEvents": [
        {
          "type": "speeding",
          "startMs": 1736440920000,
          "maxSpeedMph": 68.6
        }
      ],
      "_no_driver_login": false,
      "_fuel_note": ""
    },
    {
      "id": "trip_48291019_20250109_003",
      "vehicleId": "48291019",
      "driverId": "22831018",
      "startMs": 1736408460000,
      "endMs": 1736412044852,
      "startLocation": {
        "latitude": 39.804489,
        "longitude": -104.962043
      },
      "endLocation": {
        "latitude": 39.739455,
        "longitude": -104.920309
      },
      "startAddress": "1051 Austin Village Apt. 070",
      "endAddress": "8502 Nathan Drive",
      "startCoords": {
        "latitude": 39.785383,
        "longitude": -105.03969
      },
      "endCoords": {
        "latitude": 39.764802,
        "longitude": -104.957083
      },
      "distanceMeters": 21185.0,
      "durationMs": 3584853,
      "drivingDurationMs": 2868555,
      "idlingDurationMs": 716297,
      "fuelConsumedMl": 958,
      "fuelConsumedGallons": 0.253,
      "maxSpeedMph": 38.0,
      "averageSpeedMph": 13.2,
      "safetyEvents": [],
      "_no_driver_login": false,
      "_fuel_note": ""
    },
    {
      "id": "trip_48291019_20250109_004",
      "vehicleId": "48291019",
      "driverId": "22831018",
      "startMs": 1736447280000,
      "endMs": 1736448385105,
      "startLocation": {
        "latitude": 39.760991,
        "longitude": -105.03339
      },
      "endLocation": {
        "latitude": 39.775536,
        "longitude": -105.042284
      },
      "startAddress": "497 Gina Road Apt. 920",
      "endAddress": "29759 Adams Mount",
      "startCoords": {
        "latitude": 39.712742,
        "longitude": -104.911861
      },
      "endCoords": {
        "latitude": 39.80076,
        "longitude": -105.007764
      },
      "distanceMeters": 8619.4,
      "durationMs": 1105105,
      "drivingDurationMs": 918723,
      "idlingDurationMs": 186382,
      "fuelConsumedMl": 390,
      "fuelConsumedGallons": 0.103,
      "maxSpeedMph": 63.7,
      "averageSpeedMph": 17.4,
      "safetyEvents": [],
      "_no_driver_login": false,
      "_fuel_note": ""
    },
    {
      "id": "trip_48291019_20250109_005",
      "vehicleId": "48291019",
      "driverId": "22831018",
      "startMs": 1736439720000,
      "endMs": 1736442739716,
      "startLocation": {
        "latitude": 39.801806,
        "longitude": -105.065774
      },
      "endLocation": {
        "latitude": 39.812116,
        "longitude": -105.009484
      },
      "startAddress": "396 Larson Summit Suite 442",
      "endAddress": "69420 Miller Haven Apt. 537",
      "startCoords": {
        "latitude": 39.748942,
        "longitude": -105.064543
      },
      "endCoords": {
        "latitude": 39.791296,
        "longitude": -104.901375
      },
      "distanceMeters": 24292.6,
      "durationMs": 3019717,
      "drivingDurationMs": 2573248,
      "idlingDurationMs": 446468,
      "fuelConsumedMl": 1098,
      "fuelConsumedGallons": 0.29,
      "maxSpeedMph": 56.4,
      "averageSpeedMph": 18.0,
      "safetyEvents": [],
      "_no_driver_login": false,
      "_fuel_note": ""
    },
    {
      "id": "trip_48291019_20250109_006",
      "vehicleId": "48291019",
      "driverId": "22831018",
      "startMs": 1736425620000,
      "endMs": 1736430502988,
      "startLocation": {
        "latitude": 39.723783,
        "longitude": -104.935001
      },
      "endLocation": {
        "latitude": 39.816588,
        "longitude": -105.062414
      },
      "startAddress": "51337 Miranda Turnpike Suite 699",
      "endAddress": "8160 Cooper Trafficway Apt. 749",
      "startCoords": {
        "latitude": 39.806111,
        "longitude": -105.063622
      },
      "endCoords": {
        "latitude": 39.781753,
        "longitude": -104.903464
      },
      "distanceMeters": 23908.6,
      "durationMs": 4882989,
      "drivingDurationMs": 3908060,
      "idlingDurationMs": 974928,
      "fuelConsumedMl": 1083,
      "fuelConsumedGallons": 0.286,
      "maxSpeedMph": 60.9,
      "averageSpeedMph": 11.0,
      "safetyEvents": [],
      "_no_driver_login": false,
      "_fuel_note": ""
    },
    {
      "id": "trip_48291019_20250109_007",
      "vehicleId": "48291019",
      "driverId": "22831018",
      "startMs": 1736419140000,
      "endMs": 1736422184266,
      "startLocation": {
        "latitude": 39.744755,
        "longitude": -105.046173
      },
      "endLocation": {
        "latitude": 39.744409,
        "longitude": -105.020314
      },
      "startAddress": "8496 Joshua Radial",
      "endAddress": "035 Jackson Street",
      "startCoords": {
        "latitude": 39.790448,
        "longitude": -105.070064
      },
      "endCoords": {
        "latitude": 39.808304,
        "longitude": -104.972091
      },
      "distanceMeters": 15532.8,
      "durationMs": 3044267,
      "drivingDurationMs": 2470549,
      "idlingDurationMs": 573718,
      "fuelConsumedMl": 704,
      "fuelConsumedGallons": 0.186,
      "maxSpeedMph": 37.2,
      "averageSpeedMph": 11.4,
      "safetyEvents": [],
      "_no_driver_login": false,
      "_fuel_note": ""
    },
    {
      "id": "trip_48291019_20250109_008",
      "vehicleId": "48291019",
      "driverId": null,
      "startMs": 1736420940000,
      "endMs": 1736423540807,
      "startLocation": {
        "latitude": 39.707397,
        "longitude": -105.041541
      },
      "endLocation": {
        "latitude": 39.807454,
        "longitude": -105.075921
      },
      "startAddress": "574 Rivera Port",
      "endAddress": "24535 Terri Street Apt. 111",
      "startCoords": {
        "latitude": 39.727554,
        "longitude": -105.013279
      },
      "endCoords": {
        "latitude": 39.735691,
        "longitude": -104.921754
      },
      "distanceMeters": 16620.3,
      "durationMs": 2600808,
      "drivingDurationMs": 2264923,
      "idlingDurationMs": 335885,
      "fuelConsumedMl": 753,
      "fuelConsumedGallons": 0.199,
      "maxSpeedMph": 40.1,
      "averageSpeedMph": 14.3,
      "safetyEvents": [],
      "_no_driver_login": true,
      "_fuel_note": ""
    },
    {
      "id": "trip_48291019_20250109_009",
      "vehicleId": "48291019",
      "driverId": "22831018",
      "startMs": 1736412900000,
      "endMs": 1736415237039,
      "startLocation": {
        "latitude": 39.702213,
        "longitude": -105.046647
      },
      "endLocation": {
        "latitude": 39.765546,
        "longitude": -104.940462
      },
      "startAddress": "851 Jenkins Manors",
      "endAddress": "321 Michael Ports Suite 183",
      "startCoords": {
        "latitude": 39.735145,
        "longitude": -104.917441
      },
      "endCoords": {
        "latitude": 39.738703,
        "longitude": -104.972454
      },
      "distanceMeters": 20607.1,
      "durationMs": 2337039,
      "drivingDurationMs": 2118564,
      "idlingDurationMs": 218476,
      "fuelConsumedMl": 931,
      "fuelConsumedGallons": 0.246,
      "maxSpeedMph": 44.9,
      "averageSpeedMph": 19.7,
      "safetyEvents": [],
      "_no_driver_login": false,
      "_fuel_note": ""
    },
    {
      "id": "trip_48291019_20250110_001",
      "vehicleId": "48291019",
      "driverId": "22831018",
      "startMs": 1736490720000,
      "endMs": 1736492687050,
      "startLocation": {
        "latitude": 39.721921,
        "longitude": -104.994391
      },
      "endLocation": {
        "latitude": 39.795207,
        "longitude": -105.017255
      },
      "startAddress": "54692 Elizabeth Port",
      "endAddress": "71734 Joshua Lights Apt. 954",
      "startCoords": {
        "latitude": 39.723024,
        "longitude": -105.033722
      },
      "endCoords": {
        "latitude": 39.71824,
        "longitude": -105.034022
      },
      "distanceMeters": 16127.8,
      "durationMs": 1967051,
      "drivingDurationMs": 1588434,
      "idlingDurationMs": 378617,
      "fuelConsumedMl": 731,
      "fuelConsumedGallons": 0.193,
      "maxSpeedMph": 54.6,
      "averageSpeedMph": 18.3,
      "safetyEvents": [],
      "_no_driver_login": false,
      "_fuel_note": "QUIRK 5: fuelConsumedGallons is in US gallons. Multiply by 3.785 for litres. Samsara does not link fuel to specific Onfleet tasks."
    },
    {
      "id": "trip_48291019_20250110_002",
      "vehicleId": "48291019",
      "driverId": "22831018",
      "startMs": 1736520300000,
      "endMs": 1736521673717,
      "startLocation": {
        "latitude": 39.720304,
        "longitude": -104.932268
      },
      "endLocation": {
        "latitude": 39.687691,
        "longitude": -104.945932
      },
      "startAddress": "006 Laura Gateway Apt. 079",
      "endAddress": "63521 Chen Street Apt. 202",
      "startCoords": {
        "latitude": 39.718326,
        "longitude": -105.014439
      },
      "endCoords": {
        "latitude": 39.744253,
        "longitude": -104.998246
      },
      "distanceMeters": 9688.5,
      "durationMs": 1373718,
      "drivingDurationMs": 1110820,
      "idlingDurationMs": 262897,
      "fuelConsumedMl": 439,
      "fuelConsumedGallons": 0.116,
      "maxSpeedMph": 47.6,
      "averageSpeedMph": 15.8,
      "safetyEvents": [],
      "_no_driver_login": false,
      "_fuel_note": ""
    },
    {
      "id": "trip_48291019_20250110_003",
      "vehicleId": "48291019",
      "driverId": "22831018",
      "startMs": 1736489760000,
      "endMs": 1736494104839,
      "startLocation": {
        "latitude": 39.728142,
        "longitude": -105.003924
      },
      "endLocation": {
        "latitude": 39.712517,
        "longitude": -105.071103
      },
      "startAddress": "1756 Patrick Canyon",
      "endAddress": "4185 Martinez Forge Apt. 665",
      "startCoords": {
        "latitude": 39.729435,
        "longitude": -104.999024
      },
      "endCoords": {
        "latitude": 39.713666,
        "longitude": -104.941467
      },
      "distanceMeters": 22058.7,
      "durationMs": 4344840,
      "drivingDurationMs": 3551428,
      "idlingDurationMs": 793412,
      "fuelConsumedMl": 999,
      "fuelConsumedGallons": 0.264,
      "maxSpeedMph": 46.5,
      "averageSpeedMph": 11.4,
      "safetyEvents": [],
      "_no_driver_login": false,
      "_fuel_note": ""
    },
    {
      "id": "trip_48291019_20250110_004",
      "vehicleId": "48291019",
      "driverId": "22831018",
      "startMs": 1736491140000,
      "endMs": 1736493079101,
      "startLocation": {
        "latitude": 39.790175,
        "longitude": -104.937824
      },
      "endLocation": {
        "latitude": 39.737436,
        "longitude": -105.020505
      },
      "startAddress": "85915 Horton Island",
      "endAddress": "9157 Ariel Squares",
      "startCoords": {
        "latitude": 39.7567,
        "longitude": -105.042133
      },
      "endCoords": {
        "latitude": 39.725602,
        "longitude": -105.038138
      },
      "distanceMeters": 15532.3,
      "durationMs": 1939101,
      "drivingDurationMs": 1615131,
      "idlingDurationMs": 323971,
      "fuelConsumedMl": 704,
      "fuelConsumedGallons": 0.186,
      "maxSpeedMph": 30.0,
      "averageSpeedMph": 17.9,
      "safetyEvents": [],
      "_no_driver_login": false,
      "_fuel_note": ""
    },
    {
      "id": "trip_48291019_20250110_005",
      "vehicleId": "48291019",
      "driverId": "22831018",
      "startMs": 1736501580000,
      "endMs": 1736504604448,
      "startLocation": {
        "latitude": 39.821217,
        "longitude": -104.91571
      },
      "endLocation": {
        "latitude": 39.808401,
        "longitude": -105.063222
      },
      "startAddress": "49221 Dawn Cove Suite 299",
      "endAddress": "141 Smith Corner Apt. 856",
      "startCoords": {
        "latitude": 39.74306,
        "longitude": -104.902522
      },
      "endCoords": {
        "latitude": 39.774726,
        "longitude": -104.915403
      },
      "distanceMeters": 24613.4,
      "durationMs": 3024448,
      "drivingDurationMs": 2545639,
      "idlingDurationMs": 478809,
      "fuelConsumedMl": 1113,
      "fuelConsumedGallons": 0.294,
      "maxSpeedMph": 46.6,
      "averageSpeedMph": 18.2,
      "safetyEvents": [],
      "_no_driver_login": false,
      "_fuel_note": ""
    },
    {
      "id": "trip_48291019_20250110_006",
      "vehicleId": "48291019",
      "driverId": "22831018",
      "startMs": 1736527680000,
      "endMs": 1736528050437,
      "startLocation": {
        "latitude": 39.789942,
        "longitude": -105.074515
      },
      "endLocation": {
        "latitude": 39.789762,
        "longitude": -104.934319
      },
      "startAddress": "142 Morris Avenue",
      "endAddress": "01740 Brett Parkways",
      "startCoords": {
        "latitude": 39.76804,
        "longitude": -104.945889
      },
      "endCoords": {
        "latitude": 39.735861,
        "longitude": -105.008392
      },
      "distanceMeters": 2310.0,
      "durationMs": 370438,
      "drivingDurationMs": 222785,
      "idlingDurationMs": 147653,
      "fuelConsumedMl": 106,
      "fuelConsumedGallons": 0.028,
      "maxSpeedMph": 29.3,
      "averageSpeedMph": 13.9,
      "safetyEvents": [],
      "_no_driver_login": false,
      "_fuel_note": ""
    },
    {
      "id": "trip_48291019_20250110_007",
      "vehicleId": "48291019",
      "driverId": "22831018",
      "startMs": 1736494680000,
      "endMs": 1736497083405,
      "startLocation": {
        "latitude": 39.826952,
        "longitude": -105.071386
      },
      "endLocation": {
        "latitude": 39.698402,
        "longitude": -104.920803
      },
      "startAddress": "469 Powell Road Suite 818",
      "endAddress": "2913 Bryant Skyway",
      "startCoords": {
        "latitude": 39.756143,
        "longitude": -104.946753
      },
      "endCoords": {
        "latitude": 39.748279,
        "longitude": -104.912819
      },
      "distanceMeters": 17857.0,
      "durationMs": 2403406,
      "drivingDurationMs": 2036555,
      "idlingDurationMs": 366851,
      "fuelConsumedMl": 806,
      "fuelConsumedGallons": 0.213,
      "maxSpeedMph": 60.4,
      "averageSpeedMph": 16.6,
      "safetyEvents": [],
      "_no_driver_login": false,
      "_fuel_note": ""
    },
    {
      "id": "trip_48291019_20250110_008",
      "vehicleId": "48291019",
      "driverId": "22831018",
      "startMs": 1736512020000,
      "endMs": 1736512564399,
      "startLocation": {
        "latitude": 39.776389,
        "longitude": -104.965758
      },
      "endLocation": {
        "latitude": 39.757403,
        "longitude": -104.961801
      },
      "startAddress": "164 Benson Ports Apt. 532",
      "endAddress": "011 Bryan Island",
      "startCoords": {
        "latitude": 39.724184,
        "longitude": -105.000836
      },
      "endCoords": {
        "latitude": 39.767843,
        "longitude": -105.012443
      },
      "distanceMeters": 3759.5,
      "durationMs": 544400,
      "drivingDurationMs": 401817,
      "idlingDurationMs": 142583,
      "fuelConsumedMl": 170,
      "fuelConsumedGallons": 0.045,
      "maxSpeedMph": 46.7,
      "averageSpeedMph": 15.4,
      "safetyEvents": [],
      "_no_driver_login": false,
      "_fuel_note": ""
    },
    {
      "id": "trip_48291019_20250110_009",
      "vehicleId": "48291019",
      "driverId": null,
      "startMs": 1736528040000,
      "endMs": 1736531183973,
      "startLocation": {
        "latitude": 39.737474,
        "longitude": -105.062651
      },
      "endLocation": {
        "latitude": 39.741979,
        "longitude": -104.903633
      },
      "startAddress": "15682 Keith Plains",
      "endAddress": "022 Foster Lock Suite 132",
      "startCoords": {
        "latitude": 39.76822,
        "longitude": -105.08456
      },
      "endCoords": {
        "latitude": 39.776255,
        "longitude": -105.074955
      },
      "distanceMeters": 19985.4,
      "durationMs": 3143974,
      "drivingDurationMs": 2557275,
      "idlingDurationMs": 586698,
      "fuelConsumedMl": 905,
      "fuelConsumedGallons": 0.239,
      "maxSpeedMph": 59.2,
      "averageSpeedMph": 14.2,
      "safetyEvents": [],
      "_no_driver_login": true,
      "_fuel_note": ""
    },
    {
      "id": "trip_48291019_20250110_010",
      "vehicleId": "48291019",
      "driverId": "22831018",
      "startMs": 1736529000000,
      "endMs": 1736531155171,
      "startLocation": {
        "latitude": 39.755278,
        "longitude": -104.91675
      },
      "endLocation": {
        "latitude": 39.807024,
        "longitude": -105.028321
      },
      "startAddress": "53423 Alexander Canyon",
      "endAddress": "6042 Denise Roads Suite 667",
      "startCoords": {
        "latitude": 39.804546,
        "longitude": -104.959641
      },
      "endCoords": {
        "latitude": 39.77355,
        "longitude": -105.00822
      },
      "distanceMeters": 18131.8,
      "durationMs": 2155171,
      "drivingDurationMs": 1974040,
      "idlingDurationMs": 181131,
      "fuelConsumedMl": 821,
      "fuelConsumedGallons": 0.217,
      "maxSpeedMph": 35.9,
      "averageSpeedMph": 18.8,
      "safetyEvents": [],
      "_no_driver_login": false,
      "_fuel_note": ""
    },
    {
      "id": "trip_48291019_20250110_011",
      "vehicleId": "48291019",
      "driverId": "22831018",
      "startMs": 1736496240000,
      "endMs": 1736497454441,
      "startLocation": {
        "latitude": 39.688374,
        "longitude": -104.996508
      },
      "endLocation": {
        "latitude": 39.748747,
        "longitude": -105.041857
      },
      "startAddress": "87721 Shane Junction Apt. 400",
      "endAddress": "05109 Levy Drive",
      "startCoords": {
        "latitude": 39.763261,
        "longitude": -104.929975
      },
      "endCoords": {
        "latitude": 39.720244,
        "longitude": -104.949697
      },
      "distanceMeters": 7827.7,
      "durationMs": 1214442,
      "drivingDurationMs": 1018312,
      "idlingDurationMs": 196130,
      "fuelConsumedMl": 356,
      "fuelConsumedGallons": 0.094,
      "maxSpeedMph": 31.9,
      "averageSpeedMph": 14.4,
      "safetyEvents": [],
      "_no_driver_login": false,
      "_fuel_note": ""
    },
    {
      "id": "trip_48291019_20250110_012",
      "vehicleId": "48291019",
      "driverId": null,
      "startMs": 1736518860000,
      "endMs": 1736519759926,
      "startLocation": {
        "latitude": 39.730908,
        "longitude": -105.038314
      },
      "endLocation": {
        "latitude": 39.698591,
        "longitude": -104.912654
      },
      "startAddress": "2542 Reed Circles Suite 893",
      "endAddress": "6398 Lyons Forges",
      "startCoords": {
        "latitude": 39.791303,
        "longitude": -104.961186
      },
      "endCoords": {
        "latitude": 39.815811,
        "longitude": -105.04519
      },
      "distanceMeters": 5856.2,
      "durationMs": 899926,
      "drivingDurationMs": 719940,
      "idlingDurationMs": 179987,
      "fuelConsumedMl": 265,
      "fuelConsumedGallons": 0.07,
      "maxSpeedMph": 64.4,
      "averageSpeedMph": 14.6,
      "safetyEvents": [],
      "_no_driver_login": true,
      "_fuel_note": ""
    },
    {
      "id": "trip_48291019_20250110_013",
      "vehicleId": "48291019",
      "driverId": "22831018",
      "startMs": 1736519400000,
      "endMs": 1736521537718,
      "startLocation": {
        "latitude": 39.784583,
        "longitude": -104.925948
      },
      "endLocation": {
        "latitude": 39.743349,
        "longitude": -104.913474
      },
      "startAddress": "289 Rebecca Rue",
      "endAddress": "278 Black Neck",
      "startCoords": {
        "latitude": 39.808345,
        "longitude": -104.997541
      },
      "endCoords": {
        "latitude": 39.697495,
        "longitude": -105.070744
      },
      "distanceMeters": 16838.2,
      "durationMs": 2137719,
      "drivingDurationMs": 1711740,
      "idlingDurationMs": 425979,
      "fuelConsumedMl": 761,
      "fuelConsumedGallons": 0.201,
      "maxSpeedMph": 51.6,
      "averageSpeedMph": 17.6,
      "safetyEvents": [],
      "_no_driver_login": false,
      "_fuel_note": ""
    },