{
  "vehicleId": "48291034",
  "vehicleName": "ALB-MOT-01",
  "month": "2025_01",
  "pagination": {
    "endCursor": "trip_48291034_20250131_009",
    "hasNextPage": false
  },
  "trips": [
    {
      "id": "trip_48291034_20250101_001",
      "vehicleId": "48291034",
      "driverId": "22831033",
      "startMs": 1735737360000,
      "endMs": 1735738602207,
      "startLocation": {
        "latitude": 35.072582,
        "longitude": -106.571315
      },
      "endLocation": {
        "latitude": 35.123174,
        "longitude": -106.657917
      },
      "startAddress": "65307 Prince Brooks Suite 444",
      "endAddress": "132 Mccann Mills Suite 469",
      "startCoords": {
        "latitude": 35.140879,
        "longitude": -106.604808
      },
      "endCoords": {
        "latitude": 35.062353,
        "longitude": -106.697709
      },
      "distanceMeters": 10017.3,
      "durationMs": 1242208,
      "drivingDurationMs": 1028360,
      "idlingDurationMs": 213848,
      "fuelConsumedMl": 454,
      "fuelConsumedGallons": 0.12,
      "maxSpeedMph": 71.7,
      "averageSpeedMph": 18.0,
      "safetyEvents": [
        {
          "type": "speeding",
          "startMs": 1735737840000,
          "maxSpeedMph": 71.7
        }
      ],
      "_no_driver_login": false,
      "_fuel_note": "QUIRK 5: fuelConsumedGallons is in US gallons. Multiply by 3.785 for litres. Samsara does not link fuel to specific Onfleet tasks."
    },
    {
      "id": "trip_48291034_20250101_002",
      "vehicleId": "48291034",
      "driverId": "22831033",
      "startMs": 1735725060000,
      "endMs": 1735725658970,
      "startLocation": {
        "latitude": 35.139913,
        "longitude": -106.669455
      },
      "endLocation": {
        "latitude": 35.076964,
        "longitude": -106.562409
      },
      "startAddress": "73678 Nicholson Passage",
      "endAddress": "48628 Glenn Wells",
      "startCoords": {
        "latitude": 35.18048,
        "longitude": -106.59605
      },
      "endCoords": {
        "latitude": 35.052154,
        "longitude": -106.54269
      },
      "distanceMeters": 3365.2,
      "durationMs": 598971,
      "drivingDurationMs": 438736,
      "idlingDurationMs": 160235,
      "fuelConsumedMl": 151,
      "fuelConsumedGallons": 0.04,
      "maxSpeedMph": 51.7,
      "averageSpeedMph": 12.6,
      "safetyEvents": [],
      "_no_driver_login": false,
      "_fuel_note": ""
    },
    {
      "id": "trip_48291034_20250101_003",
      "vehicleId": "48291034",
      "driverId": "22831033",
      "startMs": 1735755960000,
      "endMs": 1735758658833,
      "startLocation": {
        "latitude": 35.074417,
        "longitude": -106.590008
      },
      "endLocation": {
        "latitude": 35.157849,
        "longitude": -106.580581
      },
      "startAddress": "30705 Joshua View",
      "endAddress": "610 Nathan Ranch Suite 279",
      "startCoords": {
        "latitude": 35.135903,
        "longitude": -106.631784
      },
      "endCoords": {
        "latitude": 35.12166,
        "longitude": -106.673336
      },
      "distanceMeters": 23131.7,
      "durationMs": 2698833,
      "drivingDurationMs": 2198377,
      "idlingDurationMs": 500456,
      "fuelConsumedMl": 1045,
      "fuelConsumedGallons": 0.276,
      "maxSpeedMph": 33.6,
      "averageSpeedMph": 19.2,
      "safetyEvents": [],
      "_no_driver_login": false,
      "_fuel_note": ""
    },
    {
      "id": "trip_48291034_20250101_004",
      "vehicleId": "48291034",
      "driverId": "22831033",
      "startMs": 1735734240000,
      "endMs": 1735735955637,
      "startLocation": {
        "latitude": 35.078533,
        "longitude": -106.547666
      },
      "endLocation": {
        "latitude": 35.091627,
        "longitude": -106.545046
      },
      "startAddress": "2414 Paul Estates Apt. 333",
      "endAddress": "680 Thomas Curve Apt. 903",
      "startCoords": {
        "latitude": 35.085605,
        "longitude": -106.723452
      },
      "endCoords": {
        "latitude": 35.150015,
        "longitude": -106.585993
      },
      "distanceMeters": 12395.8,
      "durationMs": 1715638,
      "drivingDurationMs": 1388539,
      "idlingDurationMs": 327099,
      "fuelConsumedMl": 560,
      "fuelConsumedGallons": 0.148,
      "maxSpeedMph": 32.1,
      "averageSpeedMph": 16.2,
      "safetyEvents": [],
      "_no_driver_login": false,
      "_fuel_note": ""
    },
    {
      "id": "trip_48291034_20250101_005",
      "vehicleId": "48291034",
      "driverId": "22831033",
      "startMs": 1735752540000,
      "endMs": 1735754752559,
      "startLocation": {
        "latitude": 35.177978,
        "longitude": -106.568652
      },
      "endLocation": {
        "latitude": 35.109738,
        "longitude": -106.663143
      },
      "startAddress": "446 York Mount Suite 374",
      "endAddress": "108 Hoffman Ranch Suite 417",
      "startCoords": {
        "latitude": 35.079306,
        "longitude": -106.620894
      },
      "endCoords": {
        "latitude": 35.057252,
        "longitude": -106.563462
      },
      "distanceMeters": 16601.3,
      "durationMs": 2212559,
      "drivingDurationMs": 1802499,
      "idlingDurationMs": 410060,
      "fuelConsumedMl": 750,
      "fuelConsumedGallons": 0.198,
      "maxSpeedMph": 63.0,
      "averageSpeedMph": 16.8,
      "safetyEvents": [],
      "_no_driver_login": false,
      "_fuel_note": ""
    },
    {
      "id": "trip_48291034_20250101_006",
      "vehicleId": "48291034",
      "driverId": "22831033",
      "startMs": 1735755660000,
      "endMs": 1735758234610,
      "startLocation": {
        "latitude": 35.040775,
        "longitude": -106.548966
      },
      "endLocation": {
        "latitude": 35.0612,
        "longitude": -106.637985
      },
      "startAddress": "4544 Lopez Path",
      "endAddress": "96520 Bright Green",
      "startCoords": {
        "latitude": 35.181396,
        "longitude": -106.643391
      },
      "endCoords": {
        "latitude": 35.181951,
        "longitude": -106.552735
      },
      "distanceMeters": 22565.6,
      "durationMs": 2574611,
      "drivingDurationMs": 2375595,
      "idlingDurationMs": 199016,
      "fuelConsumedMl": 1022,
      "fuelConsumedGallons": 0.27,
      "maxSpeedMph": 55.6,
      "averageSpeedMph": 19.6,
      "safetyEvents": [],
      "_no_driver_login": false,
      "_fuel_note": ""
    },
    {
      "id": "trip_48291034_20250102_001",
      "vehicleId": "48291034",
      "driverId": "22831033",
      "startMs": 1735801200000,
      "endMs": 1735802986264,
      "startLocation": {
        "latitude": 35.166599,
        "longitude": -106.70451
      },
      "endLocation": {
        "latitude": 35.148868,
        "longitude": -106.583578
      },
      "startAddress": "32032 Thomas Estates Suite 617",
      "endAddress": "5877 Rodriguez Stravenue",
      "startCoords": {
        "latitude": 35.041668,
        "longitude": -106.581142
      },
      "endCoords": {
        "latitude": 35.130515,
        "longitude": -106.684417
      },
      "distanceMeters": 9152.6,
      "durationMs": 1786264,
      "drivingDurationMs": 1451223,
      "idlingDurationMs": 335042,
      "fuelConsumedMl": 413,
      "fuelConsumedGallons": 0.109,
      "maxSpeedMph": 66.4,
      "averageSpeedMph": 11.5,
      "safetyEvents": [
        {
          "type": "speeding",
          "startMs": 1735801680000,
          "maxSpeedMph": 66.4
        }
      ],
      "_no_driver_login": false,
      "_fuel_note": "QUIRK 5: fuelConsumedGallons is in US gallons. Multiply by 3.785 for litres. Samsara does not link fuel to specific Onfleet tasks."
    },
    {
      "id": "trip_48291034_20250102_002",
      "vehicleId": "48291034",
      "driverId": "22831033",
      "startMs": 1735809480000,
      "endMs": 1735810813765,
      "startLocation": {
        "latitude": 35.077871,
        "longitude": -106.721046
      },
      "endLocation": {
        "latitude": 35.128222,
        "longitude": -106.627153
      },
      "startAddress": "51342 Karen View",
      "endAddress": "939 Alicia Ports Apt. 613",
      "startCoords": {
        "latitude": 35.068205,
        "longitude": -106.657975
      },
      "endCoords": {
        "latitude": 35.084336,
        "longitude": -106.697272
      },
      "distanceMeters": 8362.9,
      "durationMs": 1333766,
      "drivingDurationMs": 1110682,
      "idlingDurationMs": 223084,
      "fuelConsumedMl": 379,
      "fuelConsumedGallons": 0.1,
      "maxSpeedMph": 33.2,
      "averageSpeedMph": 14.0,
      "safetyEvents": [],
      "_no_driver_login": false,
      "_fuel_note": ""
    },
    {
      "id": "trip_48291034_20250102_003",
      "vehicleId": "48291034",
      "driverId": "22831033",
      "startMs": 1735840260000,
      "endMs": 1735841631031,
      "startLocation": {
        "latitude": 35.102377,
        "longitude": -106.699433
      },
      "endLocation": {
        "latitude": 35.106282,
        "longitude": -106.596765
      },
      "startAddress": "150 Maldonado Springs Apt. 659",
      "endAddress": "2017 Gibson Grove",
      "startCoords": {
        "latitude": 35.053697,
        "longitude": -106.713791
      },
      "endCoords": {
        "latitude": 35.0999,
        "longitude": -106.690227
      },
      "distanceMeters": 8515.2,
      "durationMs": 1371031,
      "drivingDurationMs": 1182788,
      "idlingDurationMs": 188243,
      "fuelConsumedMl": 386,
      "fuelConsumedGallons": 0.102,
      "maxSpeedMph": 55.0,
      "averageSpeedMph": 13.9,
      "safetyEvents": [],
      "_no_driver_login": false,
      "_fuel_note": ""
    },
    {
      "id": "trip_48291034_20250102_004",
      "vehicleId": "48291034",
      "driverId": "22831033",
      "startMs": 1735833420000,
      "endMs": 1735835343039,
      "startLocation": {
        "latitude": 35.156257,
        "longitude": -106.589725
      },
      "endLocation": {
        "latitude": 35.13513,
        "longitude": -106.623497
      },
      "startAddress": "0975 Jason Causeway",
      "endAddress": "0189 Davis Glens Apt. 361",
      "startCoords": {
        "latitude": 35.178778,
        "longitude": -106.58166
      },
      "endCoords": {
        "latitude": 35.105555,
        "longitude": -106.699109
      },
      "distanceMeters": 15633.4,
      "durationMs": 1923040,
      "drivingDurationMs": 1590790,
      "idlingDurationMs": 332250,
      "fuelConsumedMl": 708,
      "fuelConsumedGallons": 0.187,
      "maxSpeedMph": 55.1,
      "averageSpeedMph": 18.2,
      "safetyEvents": [],
      "_no_driver_login": false,
      "_fuel_note": ""
    },
    {
      "id": "trip_48291034_20250102_005",
      "vehicleId": "48291034",
      "driverId": "22831033",
      "startMs": 1735844280000,
      "endMs": 1735847379621,
      "startLocation": {
        "latitude": 35.106254,
        "longitude": -106.545574
      },
      "endLocation": {
        "latitude": 35.059145,
        "longitude": -106.555315
      },
      "startAddress": "26642 Kenneth Unions",
      "endAddress": "492 Wade Village Suite 837",
      "startCoords": {
        "latitude": 35.075625,
        "longitude": -106.655504
      },
      "endCoords": {
        "latitude": 35.064857,
        "longitude": -106.551256
      },
      "distanceMeters": 18067.8,
      "durationMs": 3099622,
      "drivingDurationMs": 2761227,
      "idlingDurationMs": 338395,
      "fuelConsumedMl": 818,
      "fuelConsumedGallons": 0.216,
      "maxSpeedMph": 56.4,
      "averageSpeedMph": 13.0,
      "safetyEvents": [],
      "_no_driver_login": false,
      "_fuel_note": ""
    },
    {
      "id": "trip_48291034_20250102_006",
      "vehicleId": "48291034",
      "driverId": "22831033",
      "startMs": 1735818600000,
      "endMs": 1735821929381,
      "startLocation": {
        "latitude": 35.107423,
        "longitude": -106.564715
      },
      "endLocation": {
        "latitude": 35.079114,
        "longitude": -106.658296
      },
      "startAddress": "7499 Davis Manors Suite 926",
      "endAddress": "08573 Sarah Pine Apt. 476",
      "startCoords": {
        "latitude": 35.121264,
        "longitude": -106.628304
      },
      "endCoords": {
        "latitude": 35.096905,
        "longitude": -106.589466
      },
      "distanceMeters": 21798.2,
      "durationMs": 3329382,
      "drivingDurationMs": 2885462,
      "idlingDurationMs": 443919,
      "fuelConsumedMl": 984,
      "fuelConsumedGallons": 0.26,
      "maxSpeedMph": 30.9,
      "averageSpeedMph": 14.6,
      "safetyEvents": [],
      "_no_driver_login": false,
      "_fuel_note": ""
    },
    {
      "id": "trip_48291034_20250102_007",
      "vehicleId": "48291034",
      "driverId": "22831033",
      "startMs": 1735802400000,
      "endMs": 1735805001159,
      "startLocation": {
        "latitude": 35.072817,
        "longitude": -106.678046
      },
      "endLocation": {
        "latitude": 35.06135,
        "longitude": -106.633118
      },
      "startAddress": "4224 Alexandra Hill",
      "endAddress": "108 William Loop",
      "startCoords": {
        "latitude": 35.04795,
        "longitude": -106.68472
      },
      "endCoords": {
        "latitude": 35.138473,
        "longitude": -106.64276
      },
      "distanceMeters": 14791.4,
      "durationMs": 2601159,
      "drivingDurationMs": 2301695,
      "idlingDurationMs": 299465,
      "fuelConsumedMl": 670,
      "fuelConsumedGallons": 0.177,
      "maxSpeedMph": 48.3,
      "averageSpeedMph": 12.7,
      "safetyEvents": [],
      "_no_driver_login": false,
      "_fuel_note": ""
    },
    {
      "id": "trip_48291034_20250102_008",
      "vehicleId": "48291034",
      "driverId": "22831033",
      "startMs": 1735821360000,
      "endMs": 1735823993696,
      "startLocation": {
        "latitude": 35.172606,
        "longitude": -106.615835
      },
      "endLocation": {
        "latitude": 35.108573,
        "longitude": -106.612452
      },
      "startAddress": "9454 Kayla Brook",
      "endAddress": "722 Williams Mall",
      "startCoords": {
        "latitude": 35.105153,
        "longitude": -106.619431
      },
      "endCoords": {
        "latitude": 35.156918,
        "longitude": -106.690755
      },
      "distanceMeters": 20108.5,
      "durationMs": 2633696,
      "drivingDurationMs": 2357048,
      "idlingDurationMs": 276649,
      "fuelConsumedMl": 908,
      "fuelConsumedGallons": 0.24,
      "maxSpeedMph": 57.2,
      "averageSpeedMph": 17.1,
      "safetyEvents": [],
      "_no_driver_login": false,
      "_fuel_note": ""
    },
    {
      "id": "trip_48291034_20250102_009",
      "vehicleId": "48291034",
      "driverId": "22831033",
      "startMs": 1735819440000,
      "endMs": 1735821490170,
      "startLocation": {
        "latitude": 35.131399,
        "longitude": -106.712345
      },
      "endLocation": {
        "latitude": 35.069795,
        "longitude": -106.697769
      },
      "startAddress": "9779 Peterson Well Apt. 321",
      "endAddress": "168 Adam Crescent Apt. 277",
      "startCoords": {
        "latitude": 35.122142,
        "longitude": -106.581802
      },
      "endCoords": {
        "latitude": 35.155162,
        "longitude": -106.581409
      },
      "distanceMeters": 15760.0,
      "durationMs": 2050170,
      "drivingDurationMs": 1720930,
      "idlingDurationMs": 329240,
      "fuelConsumedMl": 712,
      "fuelConsumedGallons": 0.188,
      "maxSpeedMph": 64.1,
      "averageSpeedMph": 17.2,
      "safetyEvents": [],
      "_no_driver_login": false,
      "_fuel_note": ""
    },
    {
      "id": "trip_48291034_20250102_010",
      "vehicleId": "48291034",
      "driverId": "22831033",
      "startMs": 1735834140000,
      "endMs": 1735836143871,
      "startLocation": {
        "latitude": 35.164904,
        "longitude": -106.667497
      },
      "endLocation": {
        "latitude": 35.152928,
        "longitude": -106.596001
      },
      "startAddress": "974 Vazquez Spurs Suite 412",
      "endAddress": "31030 Timothy Drive",
      "startCoords": {
        "latitude": 35.170825,
        "longitude": -106.547602
      },
      "endCoords": {
        "latitude": 35.141893,
        "longitude": -106.55166
      },
      "distanceMeters": 12418.4,
      "durationMs": 2003872,
      "drivingDurationMs": 1676650,
      "idlingDurationMs": 327222,
      "fuelConsumedMl": 560,
      "fuelConsumedGallons": 0.148,
      "maxSpeedMph": 47.7,
      "averageSpeedMph": 13.9,
      "safetyEvents": [],
      "_no_driver_login": false,
      "_fuel_note": ""
    },
    {
      "id": "trip_48291034_20250102_011",
      "vehicleId": "48291034",
      "driverId": "22831033",
      "startMs": 1735803420000,
      "endMs": 1735803756655,
      "startLocation": {
        "latitude": 35.091649,
        "longitude": -106.620598
      },
      "endLocation": {
        "latitude": 35.046086,
        "longitude": -106.591522
      },
      "startAddress": "8314 Hernandez Manors",
      "endAddress": "22777 Michelle Prairie",
      "startCoords": {
        "latitude": 35.156735,
        "longitude": -106.656295
      },
      "endCoords": {
        "latitude": 35.162572,
        "longitude": -106.560966
      },
      "distanceMeters": 2186.7,
      "durationMs": 336655,
      "drivingDurationMs": 208356,
      "idlingDurationMs": 128299,
      "fuelConsumedMl": 98,
      "fuelConsumedGallons": 0.026,
      "maxSpeedMph": 33.6,
      "averageSpeedMph": 14.5,
      "safetyEvents": [],
      "_no_driver_login": false,
      "_fuel_note": ""
    },
    {
      "id": "trip_48291034_20250102_012",
      "vehicleId": "48291034",
      "driverId": "22831033",
      "startMs": 1735810020000,
      "endMs": 1735812634618,
      "startLocation": {
        "latitude": 35.117004,
        "longitude": -106.599214
      },
      "endLocation": {
        "latitude": 35.106878,
        "longitude": -106.688487
      },
      "startAddress": "49605 Curtis Vista",
      "endAddress": "7998 Johnson Locks Suite 899",
      "startCoords": {
        "latitude": 35.093865,
        "longitude": -106.549897
      },
      "endCoords": {
        "latitude": 35.159504,
        "longitude": -106.694879
      },
      "distanceMeters": 18151.1,
      "durationMs": 2614618,
      "drivingDurationMs": 2308298,
      "idlingDurationMs": 306320,
      "fuelConsumedMl": 821,
      "fuelConsumedGallons": 0.217,
      "maxSpeedMph": 44.8,
      "averageSpeedMph": 15.5,
      "safetyEvents": [],
      "_no_driver_login": false,
      "_fuel_note": ""
    },
    {
      "id": "trip_48291034_20250102_013",
      "vehicleId": "48291034",
      "driverId": "22831033",
      "startMs": 1735834080000,
      "endMs": 1735835051632,
      "startLocation": {
        "latitude": 35.101381,
        "longitude": -106.537524
      },
      "endLocation": {
        "latitude": 35.050632,
        "longitude": -106.603025
      },
      "startAddress": "08069 Tran Grove Suite 717",
      "endAddress": "6024 Taylor Mill Apt. 839",
      "startCoords": {
        "latitude": 35.098371,
        "longitude": -106.638077
      },
      "endCoords": {
        "latitude": 35.152147,
        "longitude": -106.610143
      },
      "distanceMeters": 5088.4,
      "durationMs": 971633,
      "drivingDurationMs": 791352,
      "idlingDurationMs": 180280,
      "fuelConsumedMl": 231,
      "fuelConsumedGallons": 0.061,
      "maxSpeedMph": 59.7,
      "averageSpeedMph": 11.7,
      "safetyEvents": [],
      "_no_driver_login": false,
      "_fuel_note": ""
    },
    {
      "id": "trip_48291034_20250102_014",
      "vehicleId": "48291034",
      "driverId": "22831033",
      "startMs": 1735821540000,
      "endMs": 1735822454296,
      "startLocation": {
        "latitude": 35.065209,
        "longitude": -106.610116
      },
      "endLocation": {
        "latitude": 35.121734,
        "longitude": -106.564519
      },
      "startAddress": "724 Moyer Village Suite 729",
      "endAddress": "1722 Eric Overpass",
      "startCoords": {
        "latitude": 35.072554,
        "longitude": -106.629475
      },
      "endCoords": {
        "latitude": 35.097648,
        "longitude": -106.62111
      },
      "distanceMeters": 6135.3,
      "durationMs": 914296,
      "drivingDurationMs": 732562,
      "idlingDurationMs": 181734,
      "fuelConsumedMl": 276,
      "fuelConsumedGallons": 0.073,
      "maxSpeedMph": 47.8,
      "averageSpeedMph": 15.0,
      "safetyEvents": [],
      "_no_driver_login": false,
      "_fuel_note": ""
    },
    {
      "id": "trip_48291034_20250103_001",
      "vehicleId": "48291034",
      "driverId": "22831033",
      "startMs": 1735909140000,
      "endMs": 1735911628226,
      "startLocation": {
        "latitude": 35.142535,
        "longitude": -106.627991
      },
      "endLocation": {
        "latitude": 35.10886,
        "longitude": -106.59432
      },
      "startAddress": "9851 White Trafficway",
      "endAddress": "7232 Monica Shoal Apt. 310",
      "startCoords": {
        "latitude": 35.138818,
        "longitude": -106.601394
      },
      "endCoords": {
        "latitude": 35.17198,
        "longitude": -106.58544
      },
      "distanceMeters": 15009.0,
      "durationMs": 2488227,
      "drivingDurationMs": 2152029,
      "idlingDurationMs": 336198,
      "fuelConsumedMl": 678,
      "fuelConsumedGallons": 0.179,
      "maxSpeedMph": 39.2,
      "averageSpeedMph": 13.5,
      "safetyEvents": [],
      "_no_driver_login": false,
      "_fuel_note": "QUIRK 5: fuelConsumedGallons is in US gallons. Multiply by 3.785 for litres. Samsara does not link fuel to specific Onfleet tasks."
    },
    {
      "id": "trip_48291034_20250103_002",
      "vehicleId": "48291034",
      "driverId": "22831033",
      "startMs": 1735896600000,
      "endMs": 1735896999008,
      "startLocation": {
        "latitude": 35.131449,
        "longitude": -106.674726
      },
      "endLocation": {
        "latitude": 35.104081,
        "longitude": -106.595717
      },
      "startAddress": "879 Williams Stravenue",
      "endAddress": "44058 Caroline Keys",
      "startCoords": {
        "latitude": 35.075082,
        "longitude": -106.610572
      },
      "endCoords": {
        "latitude": 35.175621,
        "longitude": -106.565515
      },
      "distanceMeters": 2793.7,
      "durationMs": 399009,
      "drivingDurationMs": 287267,
      "idlingDurationMs": 111741,
      "fuelConsumedMl": 125,
      "fuelConsumedGallons": 0.033,
      "maxSpeedMph": 57.8,
      "averageSpeedMph": 15.7,
      "safetyEvents": [],
      "_no_driver_login": false,
      "_fuel_note": ""
    },
    {
      "id": "trip_48291034_20250103_003",
      "vehicleId": "48291034",
      "driverId": "22831033",
      "startMs": 1735884420000,
      "endMs": 1735887137485,
      "startLocation": {
        "latitude": 35.168301,
        "longitude": -106.626311
      },
      "endLocation": {
        "latitude": 35.065646,
        "longitude": -106.644304
      },
      "startAddress": "87181 James Ports",
      "endAddress": "616 Thomas Islands Suite 565",
      "startCoords": {
        "latitude": 35.158031,
        "longitude": -106.676318
      },
      "endCoords": {
        "latitude": 35.081991,
        "longitude": -106.541765
      },
      "distanceMeters": 19732.4,
      "durationMs": 2717486,
      "drivingDurationMs": 2198567,
      "idlingDurationMs": 518918,
      "fuelConsumedMl": 893,
      "fuelConsumedGallons": 0.236,
      "maxSpeedMph": 45.5,
      "averageSpeedMph": 16.2,
      "safetyEvents": [],
      "_no_driver_login": false,
      "_fuel_note": ""
    },
    {
      "id": "trip_48291034_20250103_004",
      "vehicleId": "48291034",
      "driverId": "22831033",
      "startMs": 1735923360000,
      "endMs": 1735925058966,
      "startLocation": {
        "latitude": 35.051239,
        "longitude": -106.604166
      },
      "endLocation": {
        "latitude": 35.150383,
        "longitude": -106.659091
      },
      "startAddress": "9025 Kelly Drive Apt. 193",
      "endAddress": "895 Nicholas Prairie Apt. 261",
      "startCoords": {
        "latitude": 35.058999,
        "longitude": -106.58298
      },
      "endCoords": {
        "latitude": 35.172484,
        "longitude": -106.649006
      },
      "distanceMeters": 10804.1,
      "durationMs": 1698966,
      "drivingDurationMs": 1444422,
      "idlingDurationMs": 254545,
      "fuelConsumedMl": 488,
      "fuelConsumedGallons": 0.129,
      "maxSpeedMph": 66.6,
      "averageSpeedMph": 14.2,
      "safetyEvents": [
        {
          "type": "speeding",
          "startMs": 1735924020000,
          "maxSpeedMph": 66.6
        }
      ],
      "_no_driver_login": false,
      "_fuel_note": ""
    },
    {
      "id": "trip_48291034_20250103_005",
      "vehicleId": "48291034",
      "driverId": "22831033",
      "startMs": 1735884600000,
      "endMs": 1735888222690,
      "startLocation": {
        "latitude": 35.132773,
        "longitude": -106.585933
      },
      "endLocation": {
        "latitude": 35.063024,
        "longitude": -106.653395
      },
      "startAddress": "98986 Melanie Pines",
      "endAddress": "788 Stewart Fields",
      "startCoords": {
        "latitude": 35.139912,
        "longitude": -106.686643
      },
      "endCoords": {
        "latitude": 35.06466,
        "longitude": -106.54538
      },
      "distanceMeters": 20777.0,
      "durationMs": 3622690,
      "drivingDurationMs": 3395967,
      "idlingDurationMs": 226723,
      "fuelConsumedMl": 939,
      "fuelConsumedGallons": 0.248,
      "maxSpeedMph": 58.6,
      "averageSpeedMph": 12.8,
      "safetyEvents": [],
      "_no_driver_login": false,
      "_fuel_note": ""
    },
    {
      "id": "trip_48291034_20250103_006",
      "vehicleId": "48291034",
      "driverId": "22831033",
      "startMs": 1735911360000,
      "endMs": 1735914562210,
      "startLocation": {
        "latitude": 35.075812,
        "longitude": -106.554078
      },
      "endLocation": {
        "latitude": 35.097353,
        "longitude": -106.605925
      },
      "startAddress": "53537 Goodman Crescent Apt. 765",
      "endAddress": "8815 Jacobs Mission",
      "startCoords": {
        "latitude": 35.128435,
        "longitude": -106.560461
      },
      "endCoords": {
        "latitude": 35.062374,
        "longitude": -106.668741
      },
      "distanceMeters": 20730.5,
      "durationMs": 3202210,
      "drivingDurationMs": 2988757,
      "idlingDurationMs": 213454,
      "fuelConsumedMl": 939,
      "fuelConsumedGallons": 0.248,
      "maxSpeedMph": 36.0,
      "averageSpeedMph": 14.5,
      "safetyEvents": [],
      "_no_driver_login": false,
      "_fuel_note": ""
    },
    {
      "id": "trip_48291034_20250103_007",
      "vehicleId": "48291034",
      "driverId": "22831033",
      "startMs": 1735906020000,
      "endMs": 1735907351214,
      "startLocation": {
        "latitude": 35.052959,
        "longitude": -106.712425
      },
      "endLocation": {
        "latitude": 35.146795,
        "longitude": -106.722557
      },
      "startAddress": "92836 Catherine Underpass Suite 551",
      "endAddress": "6829 Chen Trail",
      "startCoords": {
        "latitude": 35.122384,
        "longitude": -106.538013
      },
      "endCoords": {
        "latitude": 35.052387,
        "longitude": -106.625596
      },
      "distanceMeters": 8365.5,
      "durationMs": 1331215,
      "drivingDurationMs": 1096143,
      "idlingDurationMs": 235072,
      "fuelConsumedMl": 379,
      "fuelConsumedGallons": 0.1,
      "maxSpeedMph": 49.0,
      "averageSpeedMph": 14.1,
      "safetyEvents": [],
      "_no_driver_login": false,
      "_fuel_note": ""
    },
    {
      "id": "trip_48291034_20250104_001",
      "vehicleId": "48291034",
      "driverId": "22831033",
      "startMs": 1735992420000,
      "endMs": 1735993161698,
      "startLocation": {
        "latitude": 35.056887,
        "longitude": -106.557862
      },
      "endLocation": {
        "latitude": 35.159526,
        "longitude": -106.561281
      },
      "startAddress": "28217 Ashlee Gateway",
      "endAddress": "534 Brown Meadows Apt. 560",
      "startCoords": {
        "latitude": 35.125067,
        "longitude": -106.594558
      },
      "endCoords": {
        "latitude": 35.042603,
        "longitude": -106.673485
      },
      "distanceMeters": 6052.5,
      "durationMs": 741698,
      "drivingDurationMs": 584136,
      "idlingDurationMs": 157562,
      "fuelConsumedMl": 273,
      "fuelConsumedGallons": 0.072,
      "maxSpeedMph": 43.3,
      "averageSpeedMph": 18.3,
      "safetyEvents": [],
      "_no_driver_login": false,
      "_fuel_note": "QUIRK 5: fuelConsumedGallons is in US gallons. Multiply by 3.785 for litres. Samsara does not link fuel to specific Onfleet tasks."
    },
    {
      "id": "trip_48291034_20250104_002",
      "vehicleId": "48291034",
      "driverId": "22831033",
      "startMs": 1735984560000,
      "endMs": 1735987742003,
      "startLocation": {
        "latitude": 35.097704,
        "longitude": -106.57163
      },
      "endLocation": {
        "latitude": 35.099718,
        "longitude": -106.674845
      },
      "startAddress": "567 Kaitlyn Crossroad",
      "endAddress": "862 Carol Heights Suite 169",
      "startCoords": {
        "latitude": 35.046303,
        "longitude": -106.632528
      },
      "endCoords": {
        "latitude": 35.069988,
        "longitude": -106.60415
      },
      "distanceMeters": 21572.7,
      "durationMs": 3182004,
      "drivingDurationMs": 2720767,
      "idlingDurationMs": 461237,
      "fuelConsumedMl": 977,
      "fuelConsumedGallons": 0.258,
      "maxSpeedMph": 42.2,
      "averageSpeedMph": 15.2,
      "safetyEvents": [],
      "_no_driver_login": false,
      "_fuel_note": ""
    },
    {
      "id": "trip_48291034_20250104_003",
      "vehicleId": "48291034",
      "driverId": "22831033",
      "startMs": 1735971540000,
      "endMs": 1735973674837,
      "startLocation": {
        "latitude": 35.054329,
        "longitude": -106.541658
      },
      "endLocation": {
        "latitude": 35.126464,
        "longitude": -106.699595
      },
      "startAddress": "1812 Mike Lock",
      "endAddress": "5489 Calhoun Walk Suite 876",
      "startCoords": {
        "latitude": 35.116232,
        "longitude": -106.545042
      },
      "endCoords": {
        "latitude": 35.041472,
        "longitude": -106.652541
      },
      "distanceMeters": 12295.6,
      "durationMs": 2134837,
      "drivingDurationMs": 1733071,
      "idlingDurationMs": 401767,
      "fuelConsumedMl": 556,
      "fuelConsumedGallons": 0.147,
      "maxSpeedMph": 51.6,
      "averageSpeedMph": 12.9,
      "safetyEvents": [],
      "_no_driver_login": false,
      "_fuel_note": ""
    },
    {
      "id": "trip_48291034_20250104_004",
      "vehicleId": "48291034",
      "driverId": null,
      "startMs": 1736016300000,
      "endMs": 1736017841937,
      "startLocation": {
        "latitude": 35.068765,
        "longitude": -106.623123
      },
      "endLocation": {
        "latitude": 35.180441,
        "longitude": -106.566148
      },
      "startAddress": "5175 John Grove",
      "endAddress": "9835 Solomon Port Apt. 543",
      "startCoords": {
        "latitude": 35.095441,
        "longitude": -106.588798
      },
      "endCoords": {
        "latitude": 35.080257,
        "longitude": -106.693536
      },
      "distanceMeters": 9665.6,
      "durationMs": 1541938,
      "drivingDurationMs": 1258763,
      "idlingDurationMs": 283175,
      "fuelConsumedMl": 435,
      "fuelConsumedGallons": 0.115,
      "maxSpeedMph": 30.8,
      "averageSpeedMph": 14.0,
      "safetyEvents": [],
      "_no_driver_login": true,
      "_fuel_note": ""
    },
    {
      "id": "trip_48291034_20250104_005",
      "vehicleId": "48291034",
      "driverId": "22831033",
      "startMs": 1735989660000,
      "endMs": 1735991221780,
      "startLocation": {
        "latitude": 35.147274,
        "longitude": -106.624801
      },
      "endLocation": {
        "latitude": 35.110716,
        "longitude": -106.574959
      },
      "startAddress": "644 Santiago Field Apt. 435",
      "endAddress": "79821 Little Ford Suite 275",
      "startCoords": {
        "latitude": 35.044523,
        "longitude": -106.67063
      },
      "endCoords": {
        "latitude": 35.041923,
        "longitude": -106.605037
      },
      "distanceMeters": 11508.1,
      "durationMs": 1561781,
      "drivingDurationMs": 1343043,
      "idlingDurationMs": 218738,
      "fuelConsumedMl": 522,
      "fuelConsumedGallons": 0.138,
      "maxSpeedMph": 28.6,
      "averageSpeedMph": 16.5,
      "safetyEvents": [],
      "_no_driver_login": false,
      "_fuel_note": ""
    },
    {
      "id": "trip_48291034_20250104_006",
      "vehicleId": "48291034",
      "driverId": "22831033",
      "startMs": 1736010900000,
      "endMs": 1736011287459,
      "startLocation": {
        "latitude": 35.15638,
        "longitude": -106.558907
      },
      "endLocation": {
        "latitude": 35.162678,
        "longitude": -106.709513
      },
      "startAddress": "7497 Thomas Rest",
      "endAddress": "1686 Carl Valleys",
      "startCoords": {
        "latitude": 35.11115,
        "longitude": -106.591496
      },
      "endCoords": {
        "latitude": 35.144034,
        "longitude": -106.720124
      },
      "distanceMeters": 2776.9,
      "durationMs": 387459,
      "drivingDurationMs": 294036,
      "idlingDurationMs": 93423,
      "fuelConsumedMl": 125,
      "fuelConsumedGallons": 0.033,
      "maxSpeedMph": 44.6,
      "averageSpeedMph": 16.0,
      "safetyEvents": [],
      "_no_driver_login": false,
      "_fuel_note": ""
    },
    {
      "id": "trip_48291034_20250104_007",
      "vehicleId": "48291034",
      "driverId": "22831033",
      "startMs": 1736013180000,
      "endMs": 1736014794867,
      "startLocation": {
        "latitude": 35.15828,
        "longitude": -106.562166
      },
      "endLocation": {
        "latitude": 35.151548,
        "longitude": -106.643889
      },
      "startAddress": "7894 Gonzalez Center Suite 791",
      "endAddress": "6512 David Trace Apt. 014",
      "startCoords": {
        "latitude": 35.145597,
        "longitude": -106.667042
      },
      "endCoords": {
        "latitude": 35.104576,
        "longitude": -106.705155
      },
      "distanceMeters": 14459.1,
      "durationMs": 1614867,
      "drivingDurationMs": 1418188,
      "idlingDurationMs": 196679,
      "fuelConsumedMl": 655,
      "fuelConsumedGallons": 0.173,
      "maxSpeedMph": 53.9,
      "averageSpeedMph": 20.0,
      "safetyEvents": [],
      "_no_driver_login": false,
      "_fuel_note": ""
    },
    {
      "id": "trip_48291034_20250104_008",
      "vehicleId": "48291034",
      "driverId": "22831033",
      "startMs": 1736008560000,
      "endMs": 1736010497738,
      "startLocation": {
        "latitude": 35.1081,
        "longitude": -106.553063
      },
      "endLocation": {
        "latitude": 35.115286,
        "longitude": -106.677873
      },
      "startAddress": "842 Sara Spur",
      "endAddress": "09001 Davila Stravenue Suite 463",
      "startCoords": {
        "latitude": 35.040909,
        "longitude": -106.630358
      },
      "endCoords": {
        "latitude": 35.09517,
        "longitude": -106.653755
      },
      "distanceMeters": 12842.2,
      "durationMs": 1937738,
      "drivingDurationMs": 1734143,
      "idlingDurationMs": 203595,
      "fuelConsumedMl": 579,
      "fuelConsumedGallons": 0.153,
      "maxSpeedMph": 70.5,
      "averageSpeedMph": 14.8,
      "safetyEvents": [
        {
          "type": "speeding",
          "startMs": 1736009700000,
          "maxSpeedMph": 70.5
        }
      ],
      "_no_driver_login": false,
      "_fuel_note": ""
    },
    {
      "id": "trip_48291034_20250104_009",
      "vehicleId": "48291034",
      "driverId": "22831033",
      "startMs": 1736010360000,
      "endMs": 1736011973326,
      "startLocation": {
        "latitude": 35.107157,
        "longitude": -106.70341
      },
      "endLocation": {
        "latitude": 35.083201,
        "longitude": -106.696855
      },
      "startAddress": "99948 Randall Drive",
      "endAddress": "953 Linda Views",
      "startCoords": {
        "latitude": 35.129226,
        "longitude": -106.708175
      },
      "endCoords": {
        "latitude": 35.119276,
        "longitude": -106.684825
      },
      "distanceMeters": 12402.2,
      "durationMs": 1613327,
      "drivingDurationMs": 1428915,
      "idlingDurationMs": 184412,
      "fuelConsumedMl": 560,
      "fuelConsumedGallons": 0.148,
      "maxSpeedMph": 61.9,
      "averageSpeedMph": 17.2,
      "safetyEvents": [],
      "_no_driver_login": false,
      "_fuel_note": ""
    },
    {
      "id": "trip_48291034_20250104_010",
      "vehicleId": "48291034",
      "driverId": "22831033",
      "startMs": 1735997820000,
      "endMs": 1735999216127,
      "startLocation": {
        "latitude": 35.120106,
        "longitude": -106.680166
      },
      "endLocation": {
        "latitude": 35.149045,
        "longitude": -106.676478
      },
      "startAddress": "89021 Pacheco Crossing Apt. 363",
      "endAddress": "9223 Rodriguez Garden",
      "startCoords": {
        "latitude": 35.083322,
        "longitude": -106.660319
      },
      "endCoords": {
        "latitude": 35.060138,
        "longitude": -106.663411
      },
      "distanceMeters": 7749.3,
      "durationMs": 1396128,
      "drivingDurationMs": 1149875,
      "idlingDurationMs": 246253,
      "fuelConsumedMl": 352,
      "fuelConsumedGallons": 0.093,
      "maxSpeedMph": 48.8,
      "averageSpeedMph": 12.4,
      "safetyEvents": [],
      "_no_driver_login": false,
      "_fuel_note": ""
    },
    {
      "id": "trip_48291034_20250104_011",
      "vehicleId": "48291034",
      "driverId": "22831033",
      "startMs": 1736005080000,
      "endMs": 1736007304830,
      "startLocation": {
        "latitude": 35.117071,
        "longitude": -106.664997
      },
      "endLocation": {
        "latitude": 35.132411,
        "longitude": -106.663336
      },
      "startAddress": "9967 Jesse Vista Apt. 677",
      "endAddress": "696 Amber Groves",
      "startCoords": {
        "latitude": 35.140607,
        "longitude": -106.627084
      },
      "endCoords": {
        "latitude": 35.162198,
        "longitude": -106.537046
      },
      "distanceMeters": 11350.3,
      "durationMs": 2224831,
      "drivingDurationMs": 1849824,
      "idlingDurationMs": 375007,
      "fuelConsumedMl": 515,
      "fuelConsumedGallons": 0.136,
      "maxSpeedMph": 61.2,
      "averageSpeedMph": 11.4,
      "safetyEvents": [],
      "_no_driver_login": false,
      "_fuel_note": ""
    },
    {
      "id": "trip_48291034_20250104_012",
      "vehicleId": "48291034",
      "driverId": "22831033",
      "startMs": 1735977480000,
      "endMs": 1735978116382,
      "startLocation": {
        "latitude": 35.146269,
        "longitude": -106.692634
      },
      "endLocation": {
        "latitude": 35.101506,
        "longitude": -106.540969
      },
      "startAddress": "768 Morris Parks",
      "endAddress": "9352 Carolyn Square Suite 263",
      "startCoords": {
        "latitude": 35.044058,
        "longitude": -106.644072
      },
      "endCoords": {
        "latitude": 35.063037,
        "longitude": -106.572736
      },
      "distanceMeters": 4416.0,
      "durationMs": 636383,
      "drivingDurationMs": 479016,
      "idlingDurationMs": 157366,
      "fuelConsumedMl": 201,
      "fuelConsumedGallons": 0.053,
      "maxSpeedMph": 61.3,
      "averageSpeedMph": 15.5,
      "safetyEvents": [],
      "_no_driver_login": false,
      "_fuel_note": ""
    },
    {
      "id": "trip_48291034_20250104_013",
      "vehicleId": "48291034",
      "driverId": "22831033",
      "startMs": 1735996080000,
      "endMs": 1735998663544,
      "startLocation": {
        "latitude": 35.080839,
        "longitude": -106.55037
      },
      "endLocation": {
        "latitude": 35.135968,
        "longitude": -106.625568
      },
      "startAddress": "5643 Roach Light",
      "endAddress": "93170 Armstrong Lake Suite 076",
      "startCoords": {
        "latitude": 35.127091,
        "longitude": -106.653963
      },
      "endCoords": {
        "latitude": 35.132153,
        "longitude": -106.697279
      },
      "distanceMeters": 19226.8,
      "durationMs": 2583545,
      "drivingDurationMs": 2250702,
      "idlingDurationMs": 332843,
      "fuelConsumedMl": 871,
      "fuelConsumedGallons": 0.23,
      "maxSpeedMph": 41.1,
      "averageSpeedMph": 16.6,
      "safetyEvents": [],
      "_no_driver_login": false,
      "_fuel_note": ""
    },
    {
      "id": "trip_48291034_20250104_014",
      "vehicleId": "48291034",
      "driverId": "22831033",
      "startMs": 1736001780000,
      "endMs": 1736002725041,
      "startLocation": {
        "latitude": 35.105149,
        "longitude": -106.547691
      },
      "endLocation": {
        "latitude": 35.172061,
        "longitude": -106.588364
      },
      "startAddress": "1645 Joseph Green Suite 223",
      "endAddress": "65031 Christopher Square",
      "startCoords": {
        "latitude": 35.161296,
        "longitude": -106.698442
      },
      "endCoords": {
        "latitude": 35.114014,
        "longitude": -106.567794
      },
      "distanceMeters": 6702.6,
      "durationMs": 945041,
      "drivingDurationMs": 758215,
      "idlingDurationMs": 186826,
      "fuelConsumedMl": 303,
      "fuelConsumedGallons": 0.08,
      "maxSpeedMph": 50.9,
      "averageSpeedMph": 15.9,
      "safetyEvents": [],
      "_no_driver_login": false,
      "_fuel_note": ""
    },
    {
      "id": "trip_48291034_20250104_015",
      "vehicleId": "48291034",
      "driverId": "22831033",
      "startMs": 1735971600000,
      "endMs": 1735973503941,
      "startLocation": {
        "latitude": 35.06548,
        "longitude": -106.593274
      },
      "endLocation": {
        "latitude": 35.115939,
        "longitude": -106.661605
      },
      "startAddress": "1847 Kelly Walks",
      "endAddress": "2364 Abigail Fort Apt. 909",
      "startCoords": {
        "latitude": 35.047236,
        "longitude": -106.635693
      },
      "endCoords": {
        "latitude": 35.06098,
        "longitude": -106.65795
      },
      "distanceMeters": 11575.0,
      "durationMs": 1903942,
      "drivingDurationMs": 1707391,
      "idlingDurationMs": 196551,
      "fuelConsumedMl": 522,
      "fuelConsumedGallons": 0.138,
      "maxSpeedMph": 71.0,
      "averageSpeedMph": 13.6,
      "safetyEvents": [
        {
          "type": "speeding",
          "startMs": 1735972740000,
          "maxSpeedMph": 71.0
        }
      ],
      "_no_driver_login": false,
      "_fuel_note": ""
    },
    {
      "id": "trip_48291034_20250104_016",
      "vehicleId": "48291034",
      "driverId": "22831033",
      "startMs": 1735982520000,
      "endMs": 1735984369477,
      "startLocation": {
        "latitude": 35.122676,
        "longitude": -106.666365
      },
      "endLocation": {
        "latitude": 35.128446,
        "longitude": -106.648008
      },
      "startAddress": "8762 Andre Flat",
      "endAddress": "14281 Tran Land",
      "startCoords": {
        "latitude": 35.075149,
        "longitude": -106.622079
      },
      "endCoords": {
        "latitude": 35.133472,
        "longitude": -106.709334
      },
      "distanceMeters": 16462.9,
      "durationMs": 1849478,
      "drivingDurationMs": 1608487,
      "idlingDurationMs": 240990,
      "fuelConsumedMl": 746,
      "fuelConsumedGallons": 0.197,
      "maxSpeedMph": 64.1,
      "averageSpeedMph": 19.9,
      "safetyEvents": [],
      "_no_driver_login": false,
      "_fuel_note": ""
    },
    {
      "id": "trip_48291034_20250106_001",
      "vehicleId": "48291034",
      "driverId": "22831033",
      "startMs": 1736189040000,
      "endMs": 1736190004111,
      "startLocation": {
        "latitude": 35.119158,
        "longitude": -106.649639
      },
      "endLocation": {
        "latitude": 35.132072,
        "longitude": -106.58981
      },
      "startAddress": "974 Angela Mall",
      "endAddress": "27500 Jason Springs",
      "startCoords": {
        "latitude": 35.156151,
        "longitude": -106.713973
      },
      "endCoords": {
        "latitude": 35.064344,
        "longitude": -106.559061
      },
      "distanceMeters": 4915.9,
      "durationMs": 964112,
      "drivingDurationMs": 774137,
      "idlingDurationMs": 189975,
      "fuelConsumedMl": 223,
      "fuelConsumedGallons": 0.059,
      "maxSpeedMph": 51.5,
      "averageSpeedMph": 11.4,
      "safetyEvents": [],
      "_no_driver_login": false,
      "_fuel_note": "QUIRK 5: fuelConsumedGallons is in US gallons. Multiply by 3.785 for litres. Samsara does not link fuel to specific Onfleet tasks."
    },
    {
      "id": "trip_48291034_20250106_002",
      "vehicleId": "48291034",
      "driverId": "22831033",
      "startMs": 1736186880000,
      "endMs": 1736188349016,
      "startLocation": {
        "latitude": 35.116122,
        "longitude": -106.708187
      },
      "endLocation": {
        "latitude": 35.114115,
        "longitude": -106.706311
      },
      "startAddress": "661 Newman Brook Suite 641",
      "endAddress": "378 Reynolds Port Apt. 870",
      "startCoords": {
        "latitude": 35.07607,
        "longitude": -106.620594
      },
      "endCoords": {
        "latitude": 35.157795,
        "longitude": -106.715632
      },
      "distanceMeters": 7531.1,
      "durationMs": 1469016,
      "drivingDurationMs": 1188490,
      "idlingDurationMs": 280527,
      "fuelConsumedMl": 341,
      "fuelConsumedGallons": 0.09,
      "maxSpeedMph": 51.9,
      "averageSpeedMph": 11.5,
      "safetyEvents": [],
      "_no_driver_login": false,
      "_fuel_note": ""
    },
    {
      "id": "trip_48291034_20250106_003",
      "vehicleId": "48291034",
      "driverId": "22831033",
      "startMs": 1736171640000,
      "endMs": 1736175461639,
      "startLocation": {
        "latitude": 35.059736,
        "longitude": -106.640652
      },
      "endLocation": {
        "latitude": 35.099274,
        "longitude": -106.604604
      },
      "startAddress": "726 Anthony Roads",
      "endAddress": "5103 Ellison Hollow",
      "startCoords": {
        "latitude": 35.049982,
        "longitude": -106.580833
      },
      "endCoords": {
        "latitude": 35.104864,
        "longitude": -106.595666
      },
      "distanceMeters": 21271.7,
      "durationMs": 3821639,
      "drivingDurationMs": 3159768,
      "idlingDurationMs": 661871,
      "fuelConsumedMl": 961,
      "fuelConsumedGallons": 0.254,
      "maxSpeedMph": 58.7,
      "averageSpeedMph": 12.5,
      "safetyEvents": [],
      "_no_driver_login": false,
      "_fuel_note": ""
    },
    {
      "id": "trip_48291034_20250106_004",
      "vehicleId": "48291034",
      "driverId": null,
      "startMs": 1736161260000,
      "endMs": 1736161886257,
      "startLocation": {
        "latitude": 35.155127,
        "longitude": -106.718205
      },
      "endLocation": {
        "latitude": 35.084914,
        "longitude": -106.581318
      },
      "startAddress": "99067 Ortega Manors Suite 524",
      "endAddress": "2215 Carr Mews",
      "startCoords": {
        "latitude": 35.154892,
        "longitude": -106.613642
      },
      "endCoords": {
        "latitude": 35.050339,
        "longitude": -106.688074
      },
      "distanceMeters": 2761.4,
      "durationMs": 626258,
      "drivingDurationMs": 448115,
      "idlingDurationMs": 178143,
      "fuelConsumedMl": 125,
      "fuelConsumedGallons": 0.033,
      "maxSpeedMph": 57.3,
      "averageSpeedMph": 9.9,
      "safetyEvents": [],
      "_no_driver_login": true,
      "_fuel_note": ""
    },
    {
      "id": "trip_48291034_20250106_005",
      "vehicleId": "48291034",
      "driverId": "22831033",
      "startMs": 1736186760000,
      "endMs": 1736188216970,
      "startLocation": {
        "latitude": 35.178052,
        "longitude": -106.719053
      },
      "endLocation": {
        "latitude": 35.060017,
        "longitude": -106.657407
      },
      "startAddress": "56222 Chelsea Isle Apt. 347",
      "endAddress": "7476 Weaver Spur",
      "startCoords": {
        "latitude": 35.093065,
        "longitude": -106.702241
      },
      "endCoords": {
        "latitude": 35.170213,
        "longitude": -106.602392
      },
      "distanceMeters": 12096.5,
      "durationMs": 1456970,
      "drivingDurationMs": 1199367,
      "idlingDurationMs": 257603,
      "fuelConsumedMl": 549,
      "fuelConsumedGallons": 0.145,
      "maxSpeedMph": 30.5,
      "averageSpeedMph": 18.6,
      "safetyEvents": [],
      "_no_driver_login": false,
      "_fuel_note": ""
    },
    {
      "id": "trip_48291034_20250106_006",
      "vehicleId": "48291034",
      "driverId": "22831033",
      "startMs": 1736187480000,
      "endMs": 1736188996768,
      "startLocation": {
        "latitude": 35.107153,
        "longitude": -106.631468
      },
      "endLocation": {
        "latitude": 35.169636,
        "longitude": -106.709498
      },
      "startAddress": "9396 Jackson Vista Apt. 835",
      "endAddress": "1245 Robinson Expressway",
      "startCoords": {
        "latitude": 35.063758,
        "longitude": -106.580251
      },
      "endCoords": {
        "latitude": 35.110704,
        "longitude": -106.57553
      },
      "distanceMeters": 7998.5,
      "durationMs": 1516768,
      "drivingDurationMs": 1232610,
      "idlingDurationMs": 284158,
      "fuelConsumedMl": 363,
      "fuelConsumedGallons": 0.096,
      "maxSpeedMph": 54.4,
      "averageSpeedMph": 11.8,
      "safetyEvents": [],
      "_no_driver_login": false,
      "_fuel_note": ""
    },
    {
      "id": "trip_48291034_20250106_007",
      "vehicleId": "48291034",
      "driverId": null,
      "startMs": 1736162640000,
      "endMs": 1736164442699,
      "startLocation": {
        "latitude": 35.133857,
        "longitude": -106.55718
      },
      "endLocation": {
        "latitude": 35.092899,
        "longitude": -106.604074
      },
      "startAddress": "36221 Sarah Tunnel",
      "endAddress": "27726 Herrera Plains Apt. 958",
      "startCoords": {
        "latitude": 35.051212,
        "longitude": -106.587654
      },
      "endCoords": {
        "latitude": 35.078079,
        "longitude": -106.69569
      },
      "distanceMeters": 12784.1,
      "durationMs": 1802699,
      "drivingDurationMs": 1528271,
      "idlingDurationMs": 274429,
      "fuelConsumedMl": 579,
      "fuelConsumedGallons": 0.153,
      "maxSpeedMph": 29.9,
      "averageSpeedMph": 15.9,
      "safetyEvents": [],
      "_no_driver_login": true,
      "_fuel_note": ""
    },
    {
      "id": "trip_48291034_20250107_001",
      "vehicleId": "48291034",
      "driverId": "22831033",
      "startMs": 1736230980000,
      "endMs": 1736233244338,
      "startLocation": {
        "latitude": 35.155029,
        "longitude": -106.678574
      },
      "endLocation": {
        "latitude": 35.04977,
        "longitude": -106.566844
      },
      "startAddress": "8367 Williamson Brook Apt. 779",
      "endAddress": "2446 Joshua Burg",
      "startCoords": {
        "latitude": 35.160711,
        "longitude": -106.624341
      },
      "endCoords": {
        "latitude": 35.096903,
        "longitude": -106.653544
      },
      "distanceMeters": 14227.5,
      "durationMs": 2264338,
      "drivingDurationMs": 2000846,
      "idlingDurationMs": 263493,
      "fuelConsumedMl": 644,
      "fuelConsumedGallons": 0.17,
      "maxSpeedMph": 36.9,
      "averageSpeedMph": 14.1,
      "safetyEvents": [],
      "_no_driver_login": false,
      "_fuel_note": "QUIRK 5: fuelConsumedGallons is in US gallons. Multiply by 3.785 for litres. Samsara does not link fuel to specific Onfleet tasks."
    },
    {
      "id": "trip_48291034_20250107_002",
      "vehicleId": "48291034",
      "driverId": "22831033",
      "startMs": 1736270220000,
      "endMs": 1736271785769,
      "startLocation": {
        "latitude": 35.07714,
        "longitude": -106.661645
      },
      "endLocation": {
        "latitude": 35.103802,
        "longitude": -106.613456
      },
      "startAddress": "35174 Velez Mews",
      "endAddress": "60186 Tracy Crossroad Suite 319",
      "startCoords": {
        "latitude": 35.167425,
        "longitude": -106.573802
      },
      "endCoords": {
        "latitude": 35.077095,
        "longitude": -106.578583
      },
      "distanceMeters": 10505.3,
      "durationMs": 1565770,
      "drivingDurationMs": 1283285,
      "idlingDurationMs": 282485,
      "fuelConsumedMl": 477,
      "fuelConsumedGallons": 0.126,
      "maxSpeedMph": 68.3,
      "averageSpeedMph": 15.0,
      "safetyEvents": [
        {
          "type": "speeding",
          "startMs": 1736271540000,
          "maxSpeedMph": 68.3
        }
      ],
      "_no_driver_login": false,
      "_fuel_note": ""
    },
    {
      "id": "trip_48291034_20250107_003",
      "vehicleId": "48291034",
      "driverId": "22831033",
      "startMs": 1736248320000,
      "endMs": 1736249999997,
      "startLocation": {
        "latitude": 35.095081,
        "longitude": -106.548634
      },
      "endLocation": {
        "latitude": 35.124143,
        "longitude": -106.629275
      },
      "startAddress": "695 Aguilar Estate Apt. 776",
      "endAddress": "49003 Smith Fall Suite 513",
      "startCoords": {
        "latitude": 35.177134,
        "longitude": -106.711949
      },
      "endCoords": {
        "latitude": 35.0685,
        "longitude": -106.671145
      },
      "distanceMeters": 10291.3,
      "durationMs": 1679998,
      "drivingDurationMs": 1433840,
      "idlingDurationMs": 246158,
      "fuelConsumedMl": 466,
      "fuelConsumedGallons": 0.123,
      "maxSpeedMph": 48.8,
      "averageSpeedMph": 13.7,
      "safetyEvents": [],
      "_no_driver_login": false,
      "_fuel_note": ""
    },
    {
      "id": "trip_48291034_20250107_004",
      "vehicleId": "48291034",
      "driverId": "22831033",
      "startMs": 1736233860000,
      "endMs": 1736235390312,
      "startLocation": {
        "latitude": 35.171804,
        "longitude": -106.54757
      },
      "endLocation": {
        "latitude": 35.170617,
        "longitude": -106.666252
      },
      "startAddress": "4867 Henry Plain Apt. 904",
      "endAddress": "31454 Simon Square Apt. 574",
      "startCoords": {
        "latitude": 35.051046,
        "longitude": -106.659599
      },
      "endCoords": {
        "latitude": 35.148038,
        "longitude": -106.61174
      },
      "distanceMeters": 9894.9,
      "durationMs": 1530313,
      "drivingDurationMs": 1275894,
      "idlingDurationMs": 254418,
      "fuelConsumedMl": 447,
      "fuelConsumedGallons": 0.118,
      "maxSpeedMph": 68.0,
      "averageSpeedMph": 14.5,
      "safetyEvents": [
        {
          "type": "speeding",
          "startMs": 1736234580000,
          "maxSpeedMph": 68.0
        }
      ],
      "_no_driver_login": false,
      "_fuel_note": ""
    },
    {
      "id": "trip_48291034_20250107_005",
      "vehicleId": "48291034",
      "driverId": "22831033",
      "startMs": 1736274180000,
      "endMs": 1736276551689,
      "startLocation": {
        "latitude": 35.072955,
        "longitude": -106.638609
      },
      "endLocation": {
        "latitude": 35.17981,
        "longitude": -106.698184
      },
      "startAddress": "51149 Fox Mountain",
      "endAddress": "12040 Mitchell Mill Suite 661",
      "startCoords": {
        "latitude": 35.091465,
        "longitude": -106.588877
      },
      "endCoords": {
        "latitude": 35.180741,
        "longitude": -106.673904
      },
      "distanceMeters": 15241.5,
      "durationMs": 2371690,
      "drivingDurationMs": 1935208,
      "idlingDurationMs": 436482,
      "fuelConsumedMl": 689,
      "fuelConsumedGallons": 0.182,
      "maxSpeedMph": 36.0,
      "averageSpeedMph": 14.4,
      "safetyEvents": [],
      "_no_driver_login": false,
      "_fuel_note": ""
    },
    {
      "id": "trip_48291034_20250107_006",
      "vehicleId": "48291034",
      "driverId": "22831033",
      "startMs": 1736251620000,
      "endMs": 1736255591486,
      "startLocation": {
        "latitude": 35.122539,
        "longitude": -106.677271
      },
      "endLocation": {
        "latitude": 35.167763,
        "longitude": -106.546796
      },
      "startAddress": "85800 Jennifer Plain",
      "endAddress": "14391 Davis Circles Suite 367",
      "startCoords": {
        "latitude": 35.156133,
        "longitude": -106.667259
      },
      "endCoords": {
        "latitude": 35.084083,
        "longitude": -106.665763
      },
      "distanceMeters": 23461.9,
      "durationMs": 3971486,
      "drivingDurationMs": 3178322,
      "idlingDurationMs": 793165,
      "fuelConsumedMl": 1060,
      "fuelConsumedGallons": 0.28,
      "maxSpeedMph": 70.0,
      "averageSpeedMph": 13.2,
      "safetyEvents": [
        {
          "type": "speeding",
          "startMs": 1736254440000,
          "maxSpeedMph": 70.0
        }
      ],
      "_no_driver_login": false,
      "_fuel_note": ""
    },
    {
      "id": "trip_48291034_20250107_007",
      "vehicleId": "48291034",
      "driverId": "22831033",
      "startMs": 1736272980000,
      "endMs": 1736274861088,
      "startLocation": {
        "latitude": 35.169233,
        "longitude": -106.553816
      },
      "endLocation": {
        "latitude": 35.04275,
        "longitude": -106.60239
      },
      "startAddress": "10781 Davis Ridges Suite 856",
      "endAddress": "57068 Douglas Meadow Apt. 315",
      "startCoords": {
        "latitude": 35.143779,
        "longitude": -106.630613
      },
      "endCoords": {
        "latitude": 35.114944,
        "longitude": -106.656855
      },
      "distanceMeters": 12414.5,
      "durationMs": 1881088,
      "drivingDurationMs": 1562536,
      "idlingDurationMs": 318552,
      "fuelConsumedMl": 560,
      "fuelConsumedGallons": 0.148,
      "maxSpeedMph": 48.1,
      "averageSpeedMph": 14.8,
      "safetyEvents": [],
      "_no_driver_login": false,
      "_fuel_note": ""
    },
    {
      "id": "trip_48291034_20250107_008",
      "vehicleId": "48291034",
      "driverId": "22831033",
      "startMs": 1736237340000,
      "endMs": 1736241675479,
      "startLocation": {
        "latitude": 35.118714,
        "longitude": -106.663996
      },
      "endLocation": {
        "latitude": 35.068571,
        "longitude": -106.570384
      },
      "startAddress": "30600 James Ferry Suite 550",
      "endAddress": "24114 Anthony Lodge Suite 015",
      "startCoords": {
        "latitude": 35.133266,
        "longitude": -106.584788
      },
      "endCoords": {
        "latitude": 35.063829,
        "longitude": -106.556543
      },
      "distanceMeters": 23434.2,
      "durationMs": 4335480,
      "drivingDurationMs": 3625336,
      "idlingDurationMs": 710144,
      "fuelConsumedMl": 1060,
      "fuelConsumedGallons": 0.28,
      "maxSpeedMph": 47.7,
      "averageSpeedMph": 12.1,
      "safetyEvents": [],
      "_no_driver_login": false,
      "_fuel_note": ""
    },
    {
      "id": "trip_48291034_20250107_009",
      "vehicleId": "48291034",
      "driverId": "22831033",
      "startMs": 1736261460000,
      "endMs": 1736263536871,
      "startLocation": {
        "latitude": 35.054634,
        "longitude": -106.687401
      },
      "endLocation": {
        "latitude": 35.177509,
        "longitude": -106.560211
      },
      "startAddress": "5992 Cody Wall",
      "endAddress": "3382 Derek Dale Suite 005",
      "startCoords": {
        "latitude": 35.173024,
        "longitude": -106.596538
      },
      "endCoords": {
        "latitude": 35.138104,
        "longitude": -106.646568
      },
      "distanceMeters": 12595.1,
      "durationMs": 2076871,
      "drivingDurationMs": 1725813,
      "idlingDurationMs": 351058,
      "fuelConsumedMl": 572,
      "fuelConsumedGallons": 0.151,
      "maxSpeedMph": 67.2,
      "averageSpeedMph": 13.6,
      "safetyEvents": [
        {
          "type": "speeding",
          "startMs": 1736262180000,
          "maxSpeedMph": 67.2
        }
      ],
      "_no_driver_login": false,
      "_fuel_note": ""
    },
    {
      "id": "trip_48291034_20250107_010",
      "vehicleId": "48291034",
      "driverId": "22831033",
      "startMs": 1736272320000,
      "endMs": 1736273010659,
      "startLocation": {
        "latitude": 35.13673,
        "longitude": -106.647355
      },
      "endLocation": {
        "latitude": 35.066533,
        "longitude": -106.723277
      },
      "startAddress": "222 Nathan Dam",
      "endAddress": "90113 Ferguson Fords",
      "startCoords": {
        "latitude": 35.078595,
        "longitude": -106.712257
      },
      "endCoords": {
        "latitude": 35.157695,
        "longitude": -106.5498
      },
      "distanceMeters": 5394.5,
      "durationMs": 690660,
      "drivingDurationMs": 532369,
      "idlingDurationMs": 158291,
      "fuelConsumedMl": 242,
      "fuelConsumedGallons": 0.064,
      "maxSpeedMph": 33.8,
      "averageSpeedMph": 17.5,
      "safetyEvents": [],
      "_no_driver_login": false,
      "_fuel_note": ""
    },
    {
      "id": "trip_48291034_20250107_011",
      "vehicleId": "48291034",
      "driverId": null,
      "startMs": 1736268240000,
      "endMs": 1736270010604,
      "startLocation": {
        "latitude": 35.173354,
        "longitude": -106.66265
      },
      "endLocation": {
        "latitude": 35.113259,
        "longitude": -106.538678
      },
      "startAddress": "133 Michael Path",
      "endAddress": "32394 Collier Loop Suite 523",
      "startCoords": {
        "latitude": 35.04367,
        "longitude": -106.550595
      },
      "endCoords": {
        "latitude": 35.108171,
        "longitude": -106.595462
      },
      "distanceMeters": 10213.5,
      "durationMs": 1770604,
      "drivingDurationMs": 1504447,
      "idlingDurationMs": 266157,
      "fuelConsumedMl": 462,
      "fuelConsumedGallons": 0.122,
      "maxSpeedMph": 51.6,
      "averageSpeedMph": 12.9,
      "safetyEvents": [],
      "_no_driver_login": true,
      "_fuel_note": ""
    },
    {
      "id": "trip_48291034_20250107_012",
      "vehicleId": "48291034",
      "driverId": "22831033",
      "startMs": 1736269680000,
      "endMs": 1736270341252,
      "startLocation": {
        "latitude": 35.09975,
        "longitude": -106.610183
      },
      "endLocation": {
        "latitude": 35.071107,
        "longitude": -106.615934
      },
      "startAddress": "86449 Patterson Avenue Apt. 498",
      "endAddress": "3420 Wright Terrace Suite 734",
      "startCoords": {
        "latitude": 35.152556,
        "longitude": -106.57912
      },
      "endCoords": {
        "latitude": 35.069796,
        "longitude": -106.649001
      },
      "distanceMeters": 3511.4,
      "durationMs": 661252,
      "drivingDurationMs": 506026,
      "idlingDurationMs": 155226,
      "fuelConsumedMl": 159,
      "fuelConsumedGallons": 0.042,
      "maxSpeedMph": 65.3,
      "averageSpeedMph": 11.9,
      "safetyEvents": [
        {
          "type": "speeding",
          "startMs": 1736269860000,
          "maxSpeedMph": 65.3
        }
      ],
      "_no_driver_login": false,
      "_fuel_note": ""
    },
    {
      "id": "trip_48291034_20250107_013",
      "vehicleId": "48291034",
      "driverId": "22831033",
      "startMs": 1736255400000,
      "endMs": 1736258980253,
      "startLocation": {
        "latitude": 35.060651,
        "longitude": -106.577929
      },
      "endLocation": {
        "latitude": 35.063799,
        "longitude": -106.588229
      },
      "startAddress": "97356 Matthew Fall Suite 655",
      "endAddress": "7625 Monica Pass",
      "startCoords": {
        "latitude": 35.125049,
        "longitude": -106.688814
      },
      "endCoords": {
        "latitude": 35.143113,
        "longitude": -106.562799
      },
      "distanceMeters": 22894.0,
      "durationMs": 3580253,
      "drivingDurationMs": 3273768,
      "idlingDurationMs": 306485,
      "fuelConsumedMl": 1037,
      "fuelConsumedGallons": 0.274,
      "maxSpeedMph": 55.4,
      "averageSpeedMph": 14.3,
      "safetyEvents": [],
      "_no_driver_login": false,
      "_fuel_note": ""
    },
    {
      "id": "trip_48291034_20250107_014",
      "vehicleId": "48291034",
      "driverId": "22831033",
      "startMs": 1736273700000,
      "endMs": 1736275028221,
      "startLocation": {
        "latitude": 35.133458,
        "longitude": -106.683784
      },
      "endLocation": {
        "latitude": 35.072249,
        "longitude": -106.69211
      },
      "startAddress": "664 Joseph Tunnel",
      "endAddress": "36952 Humphrey Tunnel Suite 665",
      "startCoords": {
        "latitude": 35.130671,
        "longitude": -106.578815
      },
      "endCoords": {
        "latitude": 35.10224,
        "longitude": -106.592283
      },
      "distanceMeters": 9911.3,
      "durationMs": 1328222,
      "drivingDurationMs": 1064898,
      "idlingDurationMs": 263324,
      "fuelConsumedMl": 447,
      "fuelConsumedGallons": 0.118,
      "maxSpeedMph": 43.5,
      "averageSpeedMph": 16.7,
      "safetyEvents": [],
      "_no_driver_login": false,
      "_fuel_note": ""
    },
    {
      "id": "trip_48291034_20250107_015",
      "vehicleId": "48291034",
      "driverId": "22831033",
      "startMs": 1736243820000,
      "endMs": 1736245590108,
      "startLocation": {
        "latitude": 35.138391,
        "longitude": -106.55556
      },
      "endLocation": {
        "latitude": 35.158298,
        "longitude": -106.576744
      },
      "startAddress": "3896 Kathleen Trafficway",
      "endAddress": "324 Natalie Station Suite 792",
      "startCoords": {
        "latitude": 35.070933,
        "longitude": -106.681257
      },
      "endCoords": {
        "latitude": 35.099952,
        "longitude": -106.62843
      },
      "distanceMeters": 14010.9,
      "durationMs": 1770108,
      "drivingDurationMs": 1589799,
      "idlingDurationMs": 180310,
      "fuelConsumedMl": 632,
      "fuelConsumedGallons": 0.167,
      "maxSpeedMph": 44.0,
      "averageSpeedMph": 17.7,
      "safetyEvents": [],
      "_no_driver_login": false,
      "_fuel_note": ""
    },
    {
      "id": "trip_48291034_20250107_016",
      "vehicleId": "48291034",
      "driverId": "22831033",
      "startMs": 1736231400000,
      "endMs": 1736232729542,
      "startLocation": {
        "latitude": 35.094513,
        "longitude": -106.630208
      },
      "endLocation": {
        "latitude": 35.17675,
        "longitude": -106.580013
      },
      "startAddress": "57127 Tapia Summit Apt. 543",
      "endAddress": "8586 Elizabeth Burg Suite 168",
      "startCoords": {
        "latitude": 35.154742,
        "longitude": -106.567727
      },
      "endCoords": {
        "latitude": 35.067243,
        "longitude": -106.716657
      },
      "distanceMeters": 11133.2,
      "durationMs": 1329542,
      "drivingDurationMs": 1097518,
      "idlingDurationMs": 232024,
      "fuelConsumedMl": 503,
      "fuelConsumedGallons": 0.133,
      "maxSpeedMph": 48.2,
      "averageSpeedMph": 18.7,
      "safetyEvents": [],
      "_no_driver_login": false,
      "_fuel_note": ""
    },
    {
      "id": "trip_48291034_20250108_001",
      "vehicleId": "48291034",
      "driverId": "22831033",
      "startMs": 1736320620000,
      "endMs": 1736321515409,
      "startLocation": {
        "latitude": 35.134455,
        "longitude": -106.714625
      },
      "endLocation": {
        "latitude": 35.161145,
        "longitude": -106.632602
      },
      "startAddress": "79412 Patterson Prairie Apt. 122",
      "endAddress": "14252 Miller Coves",
      "startCoords": {
        "latitude": 35.123657,
        "longitude": -106.603878
      },
      "endCoords": {
        "latitude": 35.076039,
        "longitude": -106.609948
      },
      "distanceMeters": 6827.3,
      "durationMs": 895409,
      "drivingDurationMs": 715522,
      "idlingDurationMs": 179888,
      "fuelConsumedMl": 310,
      "fuelConsumedGallons": 0.082,
      "maxSpeedMph": 56.2,
      "averageSpeedMph": 17.1,
      "safetyEvents": [],
      "_no_driver_login": false,
      "_fuel_note": "QUIRK 5: fuelConsumedGallons is in US gallons. Multiply by 3.785 for litres. Samsara does not link fuel to specific Onfleet tasks."
    },
    {
      "id": "trip_48291034_20250108_002",
      "vehicleId": "48291034",
      "driverId": "22831033",
      "startMs": 1736324580000,
      "endMs": 1736327297775,
      "startLocation": {
        "latitude": 35.072484,
        "longitude": -106.569821
      },
      "endLocation": {
        "latitude": 35.128991,
        "longitude": -106.596782
      },
      "startAddress": "892 Patrick Way Suite 657",
      "endAddress": "465 Henry Spur Suite 441",
      "startCoords": {
        "latitude": 35.139388,
        "longitude": -106.622327
      },
      "endCoords": {
        "latitude": 35.054206,
        "longitude": -106.689973
      },
      "distanceMeters": 17925.8,
      "durationMs": 2717775,
      "drivingDurationMs": 2480007,
      "idlingDurationMs": 237769,
      "fuelConsumedMl": 810,
      "fuelConsumedGallons": 0.214,
      "maxSpeedMph": 70.7,
      "averageSpeedMph": 14.8,
      "safetyEvents": [
        {
          "type": "speeding",
          "startMs": 1736324700000,
          "maxSpeedMph": 70.7
        }
      ],
      "_no_driver_login": false,
      "_fuel_note": ""
    },
    {
      "id": "trip_48291034_20250108_003",
      "vehicleId": "48291034",
      "driverId": "22831033",
      "startMs": 1736333340000,
      "endMs": 1736335375318,
      "startLocation": {
        "latitude": 35.067008,
        "longitude": -106.684582
      },
      "endLocation": {
        "latitude": 35.072227,
        "longitude": -106.691888
      },
      "startAddress": "185 Jason Mission",
      "endAddress": "052 Jamie Views",
      "startCoords": {
        "latitude": 35.123411,
        "longitude": -106.618847
      },
      "endCoords": {
        "latitude": 35.089497,
        "longitude": -106.656535
      },
      "distanceMeters": 14482.8,
      "durationMs": 2035319,
      "drivingDurationMs": 1744790,
      "idlingDurationMs": 290529,
      "fuelConsumedMl": 655,
      "fuelConsumedGallons": 0.173,
      "maxSpeedMph": 55.9,
      "averageSpeedMph": 15.9,
      "safetyEvents": [],
      "_no_driver_login": false,
      "_fuel_note": ""
    },
    {
      "id": "trip_48291034_20250108_004",
      "vehicleId": "48291034",
      "driverId": "22831033",
      "startMs": 1736348580000,
      "endMs": 1736349469056,
      "startLocation": {
        "latitude": 35.046692,
        "longitude": -106.626079
      },
      "endLocation": {
        "latitude": 35.130181,
        "longitude": -106.576038
      },
      "startAddress": "937 Palmer Tunnel",
      "endAddress": "471 Reyes Dale",
      "startCoords": {
        "latitude": 35.090216,
        "longitude": -106.624663
      },
      "endCoords": {
        "latitude": 35.066119,
        "longitude": -106.584846
      },
      "distanceMeters": 5816.4,
      "durationMs": 889057,
      "drivingDurationMs": 710365,
      "idlingDurationMs": 178692,
      "fuelConsumedMl": 265,
      "fuelConsumedGallons": 0.07,
      "maxSpeedMph": 40.8,
      "averageSpeedMph": 14.6,
      "safetyEvents": [],
      "_no_driver_login": false,
      "_fuel_note": ""
    },
    {
      "id": "trip_48291034_20250108_005",
      "vehicleId": "48291034",
      "driverId": "22831033",
      "startMs": 1736326140000,
      "endMs": 1736327572009,
      "startLocation": {
        "latitude": 35.041021,
        "longitude": -106.62831
      },
      "endLocation": {
        "latitude": 35.095783,
        "longitude": -106.700326
      },
      "startAddress": "14833 Mario Circle",
      "endAddress": "27283 Smith Alley",
      "startCoords": {
        "latitude": 35.12268,
        "longitude": -106.692241
      },
      "endCoords": {
        "latitude": 35.082413,
        "longitude": -106.683126
      },
      "distanceMeters": 9374.7,
      "durationMs": 1432009,
      "drivingDurationMs": 1163920,
      "idlingDurationMs": 268089,
      "fuelConsumedMl": 424,
      "fuelConsumedGallons": 0.112,
      "maxSpeedMph": 33.9,
      "averageSpeedMph": 14.6,
      "safetyEvents": [],
      "_no_driver_login": false,
      "_fuel_note": ""
    },
    {
      "id": "trip_48291034_20250108_006",
      "vehicleId": "48291034",
      "driverId": "22831033",
      "startMs": 1736361600000,
      "endMs": 1736364169481,
      "startLocation": {
        "latitude": 35.06135,
        "longitude": -106.689364
      },
      "endLocation": {
        "latitude": 35.088931,
        "longitude": -106.581803
      },
      "startAddress": "4770 Victoria Shore Suite 618",
      "endAddress": "6295 Timothy Shoal",
      "startCoords": {
        "latitude": 35.115298,
        "longitude": -106.657533
      },
      "endCoords": {
        "latitude": 35.15314,
        "longitude": -106.548139
      },
      "distanceMeters": 22122.6,
      "durationMs": 2569481,
      "drivingDurationMs": 2356685,
      "idlingDurationMs": 212796,
      "fuelConsumedMl": 999,
      "fuelConsumedGallons": 0.264,
      "maxSpeedMph": 53.8,
      "averageSpeedMph": 19.3,
      "safetyEvents": [],
      "_no_driver_login": false,
      "_fuel_note": ""
    },
    {
      "id": "trip_48291034_20250108_007",
      "vehicleId": "48291034",
      "driverId": "22831033",
      "startMs": 1736338200000,
      "endMs": 1736340353514,
      "startLocation": {
        "latitude": 35.148047,
        "longitude": -106.558118
      },
      "endLocation": {
        "latitude": 35.131562,
        "longitude": -106.706856
      },
      "startAddress": "162 Victor Canyon Suite 888",
      "endAddress": "041 Cervantes Forges Apt. 326",
      "startCoords": {
        "latitude": 35.174754,
        "longitude": -106.574662
      },
      "endCoords": {
        "latitude": 35.073842,
        "longitude": -106.67243
      },
      "distanceMeters": 19409.5,
      "durationMs": 2153515,
      "drivingDurationMs": 1847459,
      "idlingDurationMs": 306056,
      "fuelConsumedMl": 878,
      "fuelConsumedGallons": 0.232,
      "maxSpeedMph": 52.3,
      "averageSpeedMph": 20.2,
      "safetyEvents": [],
      "_no_driver_login": false,
      "_fuel_note": ""
    },
    {
      "id": "trip_48291034_20250108_008",
      "vehicleId": "48291034",
      "driverId": "22831033",
      "startMs": 1736332560000,
      "endMs": 1736334675627,
      "startLocation": {
        "latitude": 35.095281,
        "longitude": -106.567405
      },
      "endLocation": {
        "latitude": 35.102339,
        "longitude": -106.698623
      },
      "startAddress": "564 Mcdonald Coves Apt. 605",
      "endAddress": "064 Tammy Stravenue",
      "startCoords": {
        "latitude": 35.09587,
        "longitude": -106.674548
      },
      "endCoords": {
        "latitude": 35.158218,
        "longitude": -106.659411
      },
      "distanceMeters": 15188.1,
      "durationMs": 2115627,
      "drivingDurationMs": 1735549,
      "idlingDurationMs": 380079,
      "fuelConsumedMl": 685,
      "fuelConsumedGallons": 0.181,
      "maxSpeedMph": 54.6,
      "averageSpeedMph": 16.1,
      "safetyEvents": [],
      "_no_driver_login": false,
      "_fuel_note": ""
    },
    {
      "id": "trip_48291034_20250108_009",
      "vehicleId": "48291034",
      "driverId": "22831033",
      "startMs": 1736318220000,
      "endMs": 1736319890957,
      "startLocation": {
        "latitude": 35.041133,
        "longitude": -106.680322
      },
      "endLocation": {
        "latitude": 35.04922,
        "longitude": -106.585127
      },
      "startAddress": "034 Matthew Shore Apt. 970",
      "endAddress": "158 Jacob Plains",
      "startCoords": {
        "latitude": 35.050594,
        "longitude": -106.68258
      },
      "endCoords": {
        "latitude": 35.091867,
        "longitude": -106.686121
      },
      "distanceMeters": 10310.0,
      "durationMs": 1670958,
      "drivingDurationMs": 1478303,
      "idlingDurationMs": 192655,
      "fuelConsumedMl": 466,
      "fuelConsumedGallons": 0.123,
      "maxSpeedMph": 64.8,
      "averageSpeedMph": 13.8,
      "safetyEvents": [],
      "_no_driver_login": false,
      "_fuel_note": ""
    },
    {
      "id": "trip_48291034_20250108_010",
      "vehicleId": "48291034",
      "driverId": "22831033",
      "startMs": 1736349060000,
      "endMs": 1736349920912,
      "startLocation": {
        "latitude": 35.093537,
        "longitude": -106.722828
      },
      "endLocation": {
        "latitude": 35.045171,
        "longitude": -106.542254
      },
      "startAddress": "670 Ramirez Crest",
      "endAddress": "19362 Cisneros Locks Apt. 221",
      "startCoords": {
        "latitude": 35.172736,
        "longitude": -106.696893
      },
      "endCoords": {
        "latitude": 35.108461,
        "longitude": -106.716902
      },
      "distanceMeters": 5092.8,
      "durationMs": 860912,
      "drivingDurationMs": 684973,
      "idlingDurationMs": 175940,
      "fuelConsumedMl": 231,
      "fuelConsumedGallons": 0.061,
      "maxSpeedMph": 31.8,
      "averageSpeedMph": 13.2,
      "safetyEvents": [],
      "_no_driver_login": false,
      "_fuel_note": ""
    },
    {
      "id": "trip_48291034_20250108_011",
      "vehicleId": "48291034",
      "driverId": "22831033",
      "startMs": 1736338620000,
      "endMs": 1736339967423,
      "startLocation": {
        "latitude": 35.179057,
        "longitude": -106.560095
      },
      "endLocation": {
        "latitude": 35.094777,
        "longitude": -106.682809
      },
      "startAddress": "088 Richardson Harbor Apt. 293",
      "endAddress": "8384 Faith Road",
      "startCoords": {
        "latitude": 35.114208,
        "longitude": -106.547091
      },
      "endCoords": {
        "latitude": 35.039916,
        "longitude": -106.616164
      },
      "distanceMeters": 11205.4,
      "durationMs": 1347423,
      "drivingDurationMs": 1096907,
      "idlingDurationMs": 250516,
      "fuelConsumedMl": 507,
      "fuelConsumedGallons": 0.134,
      "maxSpeedMph": 64.6,
      "averageSpeedMph": 18.6,
      "safetyEvents": [],
      "_no_driver_login": false,
      "_fuel_note": ""
    },
    {
      "id": "trip_48291034_20250109_001",
      "vehicleId": "48291034",
      "driverId": "22831033",
      "startMs": 1736437320000,
      "endMs": 1736439247105,
      "startLocation": {
        "latitude": 35.147252,
        "longitude": -106.623142
      },
      "endLocation": {
        "latitude": 35.075596,
        "longitude": -106.631515
      },
      "startAddress": "6860 Lucas Fork Suite 767",
      "endAddress": "9986 Douglas Prairie",
      "startCoords": {
        "latitude": 35.118247,
        "longitude": -106.573057
      },
      "endCoords": {
        "latitude": 35.110058,
        "longitude": -106.659447
      },
      "distanceMeters": 16406.5,
      "durationMs": 1927105,
      "drivingDurationMs": 1657998,
      "idlingDurationMs": 269107,
      "fuelConsumedMl": 742,
      "fuelConsumedGallons": 0.196,
      "maxSpeedMph": 37.2,
      "averageSpeedMph": 19.0,
      "safetyEvents": [],
      "_no_driver_login": false,
      "_fuel_note": "QUIRK 5: fuelConsumedGallons is in US gallons. Multiply by 3.785 for litres. Samsara does not link fuel to specific Onfleet tasks."
    },
    {
      "id": "trip_48291034_20250109_002",
      "vehicleId": "48291034",
      "driverId": "22831033",
      "startMs": 1736409360000,
      "endMs": 1736412380492,
      "startLocation": {
        "latitude": 35.150708,
        "longitude": -106.598308
      },
      "endLocation": {
        "latitude": 35.0428,
        "longitude": -106.650913
      },
      "startAddress": "910 Allison Ferry Suite 276",
      "endAddress": "15596 Rebecca Mills",
      "startCoords": {
        "latitude": 35.089325,
        "longitude": -106.592091
      },
      "endCoords": {
        "latitude": 35.095065,
        "longitude": -106.689284
      },
      "distanceMeters": 24664.9,
      "durationMs": 3020492,
      "drivingDurationMs": 2444205,
      "idlingDurationMs": 576287,
      "fuelConsumedMl": 1117,
      "fuelConsumedGallons": 0.295,
      "maxSpeedMph": 34.1,
      "averageSpeedMph": 18.3,
      "safetyEvents": [],
      "_no_driver_login": false,
      "_fuel_note": ""
    },
    {
      "id": "trip_48291034_20250109_003",
      "vehicleId": "48291034",
      "driverId": "22831033",
      "startMs": 1736430900000,
      "endMs": 1736434408079,
      "startLocation": {
        "latitude": 35.064818,
        "longitude": -106.671278
      },
      "endLocation": {
        "latitude": 35.174366,
        "longitude": -106.682392
      },
      "startAddress": "96399 Gilbert Ranch Suite 038",
      "endAddress": "4656 Gonzalez Mountains Apt. 873",
      "startCoords": {
        "latitude": 35.154867,
        "longitude": -106.677065
      },
      "endCoords": {
        "latitude": 35.175391,
        "longitude": -106.655131
      },
      "distanceMeters": 20239.4,
      "durationMs": 3508080,
      "drivingDurationMs": 2854495,
      "idlingDurationMs": 653584,
      "fuelConsumedMl": 916,
      "fuelConsumedGallons": 0.242,
      "maxSpeedMph": 30.8,
      "averageSpeedMph": 12.9,
      "safetyEvents": [],
      "_no_driver_login": false,
      "_fuel_note": ""
    },
    {
      "id": "trip_48291034_20250109_004",
      "vehicleId": "48291034",
      "driverId": "22831033",
      "startMs": 1736425200000,
      "endMs": 1736428635972,
      "startLocation": {
        "latitude": 35.11213,
        "longitude": -106.613107
      },
      "endLocation": {
        "latitude": 35.061454,
        "longitude": -106.67146
      },
      "startAddress": "21027 Omar Lane",
      "endAddress": "256 Harris Squares",
      "startCoords": {
        "latitude": 35.154056,
        "longitude": -106.66971
      },
      "endCoords": {
        "latitude": 35.091416,
        "longitude": -106.70127
      },
      "distanceMeters": 23398.1,
      "durationMs": 3435972,
      "drivingDurationMs": 2989701,
      "idlingDurationMs": 446271,
      "fuelConsumedMl": 1060,
      "fuelConsumedGallons": 0.28,
      "maxSpeedMph": 46.1,
      "averageSpeedMph": 15.2,
      "safetyEvents": [],
      "_no_driver_login": false,
      "_fuel_note": ""
    },
    {
      "id": "trip_48291034_20250109_005",
      "vehicleId": "48291034",
      "driverId": "22831033",
      "startMs": 1736418360000,
      "endMs": 1736421071965,
      "startLocation": {
        "latitude": 35.098796,
        "longitude": -106.651809
      },
      "endLocation": {
        "latitude": 35.17231,
        "longitude": -106.562271
      },
      "startAddress": "34874 Carmen Circles",
      "endAddress": "601 Arthur Branch Suite 886",
      "startCoords": {
        "latitude": 35.05904,
        "longitude": -106.597392
      },
      "endCoords": {
        "latitude": 35.16331,
        "longitude": -106.579745
      },
      "distanceMeters": 16385.9,
      "durationMs": 2711966,
      "drivingDurationMs": 2181683,
      "idlingDurationMs": 530283,
      "fuelConsumedMl": 742,
      "fuelConsumedGallons": 0.196,
      "maxSpeedMph": 53.5,
      "averageSpeedMph": 13.5,
      "safetyEvents": [],
      "_no_driver_login": false,
      "_fuel_note": ""
    },
    {
      "id": "trip_48291034_20250109_006",
      "vehicleId": "48291034",
      "driverId": "22831033",
      "startMs": 1736447280000,
      "endMs": 1736449923314,
      "startLocation": {
        "latitude": 35.139639,
        "longitude": -106.608362
      },
      "endLocation": {
        "latitude": 35.122652,
        "longitude": -106.683351
      },
      "startAddress": "073 Robert Hollow Suite 893",
      "endAddress": "595 Davis Meadows Apt. 909",
      "startCoords": {
        "latitude": 35.13714,
        "longitude": -106.673228
      },
      "endCoords": {
        "latitude": 35.058389,
        "longitude": -106.699261
      },
      "distanceMeters": 22143.8,
      "durationMs": 2643314,
      "drivingDurationMs": 2388513,
      "idlingDurationMs": 254801,
      "fuelConsumedMl": 1003,
      "fuelConsumedGallons": 0.265,
      "maxSpeedMph": 69.6,
      "averageSpeedMph": 18.7,
      "safetyEvents": [
        {
          "type": "speeding",
          "startMs": 1736447820000,
          "maxSpeedMph": 69.6
        }
      ],
      "_no_driver_login": false,
      "_fuel_note": ""
    },
    {
      "id": "trip_48291034_20250109_007",
      "vehicleId": "48291034",
      "driverId": "22831033",
      "startMs": 1736418420000,
      "endMs": 1736421420176,
      "startLocation": {
        "latitude": 35.08062,
        "longitude": -106.631037
      },
      "endLocation": {
        "latitude": 35.117722,
        "longitude": -106.562594
      },
      "startAddress": "1645 Alexis Keys",
      "endAddress": "46694 Sloan Turnpike Apt. 387",
      "startCoords": {
        "latitude": 35.173191,
        "longitude": -106.592297
      },
      "endCoords": {
        "latitude": 35.143642,
        "longitude": -106.722741
      },
      "distanceMeters": 21979.6,
      "durationMs": 3000177,
      "drivingDurationMs": 2434068,
      "idlingDurationMs": 566109,
      "fuelConsumedMl": 996,
      "fuelConsumedGallons": 0.263,
      "maxSpeedMph": 36.2,
      "averageSpeedMph": 16.4,
      "safetyEvents": [],
      "_no_driver_login": false,
      "_fuel_note": ""
    },
    {
      "id": "trip_48291034_20250109_008",
      "vehicleId": "48291034",
      "driverId": "22831033",
      "startMs": 1736422260000,
      "endMs": 1736425061869,
      "startLocation": {
        "latitude": 35.080418,
        "longitude": -106.600541
      },
      "endLocation": {
        "latitude": 35.104584,
        "longitude": -106.685591
      },
      "startAddress": "528 Donna Loaf",
      "endAddress": "1837 Singh Mills Apt. 988",
      "startCoords": {
        "latitude": 35.132083,
        "longitude": -106.624209
      },
      "endCoords": {
        "latitude": 35.051921,
        "longitude": -106.638688
      },
      "distanceMeters": 18629.9,
      "durationMs": 2801869,
      "drivingDurationMs": 2279798,
      "idlingDurationMs": 522072,
      "fuelConsumedMl": 844,
      "fuelConsumedGallons": 0.223,
      "maxSpeedMph": 44.4,
      "averageSpeedMph": 14.9,
      "safetyEvents": [],
      "_no_driver_login": false,
      "_fuel_note": ""
    },
    {
      "id": "trip_48291034_20250109_009",
      "vehicleId": "48291034",
      "driverId": "22831033",
      "startMs": 1736441580000,
      "endMs": 1736444082544,
      "startLocation": {
        "latitude": 35.143817,
        "longitude": -106.694542
      },
      "endLocation": {
        "latitude": 35.046514,
        "longitude": -106.617116
      },
      "startAddress": "4345 Catherine Lodge",
      "endAddress": "380 Moore Islands Apt. 230",
      "startCoords": {
        "latitude": 35.139784,
        "longitude": -106.664312
      },
      "endCoords": {
        "latitude": 35.14189,
        "longitude": -106.64962
      },
      "distanceMeters": 23777.2,
      "durationMs": 2502544,
      "drivingDurationMs": 2266850,
      "idlingDurationMs": 235694,
      "fuelConsumedMl": 1075,
      "fuelConsumedGallons": 0.284,
      "maxSpeedMph": 38.7,
      "averageSpeedMph": 21.3,
      "safetyEvents": [],
      "_no_driver_login": false,
      "_fuel_note": ""
    },
    {
      "id": "trip_48291034_20250109_010",
      "vehicleId": "48291034",
      "driverId": "22831033",
      "startMs": 1736426940000,
      "endMs": 1736430282825,
      "startLocation": {
        "latitude": 35.160763,
        "longitude": -106.576374
      },
      "endLocation": {
        "latitude": 35.154898,
        "longitude": -106.643666
      },
      "startAddress": "6924 Kenneth Well Apt. 548",
      "endAddress": "521 Lori Spur Suite 603",
      "startCoords": {
        "latitude": 35.039054,
        "longitude": -106.711237
      },
      "endCoords": {
        "latitude": 35.058366,
        "longitude": -106.574501
      },
      "distanceMeters": 18786.4,
      "durationMs": 3342825,
      "drivingDurationMs": 3048091,
      "idlingDurationMs": 294734,
      "fuelConsumedMl": 848,
      "fuelConsumedGallons": 0.224,
      "maxSpeedMph": 55.7,
      "averageSpeedMph": 12.6,
      "safetyEvents": [],
      "_no_driver_login": false,
      "_fuel_note": ""
    },
    {
      "id": "trip_48291034_20250109_011",
      "vehicleId": "48291034",
      "driverId": "22831033",
      "startMs": 1736409660000,
      "endMs": 1736412274388,
      "startLocation": {
        "latitude": 35.110987,
        "longitude": -106.673391
      },
      "endLocation": {
        "latitude": 35.094312,
        "longitude": -106.67627
      },
      "startAddress": "08803 Parrish Manor Suite 660",
      "endAddress": "037 Green Harbor Suite 691",
      "startCoords": {
        "latitude": 35.177482,
        "longitude": -106.62168
      },
      "endCoords": {
        "latitude": 35.067919,
        "longitude": -106.582226
      },
      "distanceMeters": 20899.2,
      "durationMs": 2614389,
      "drivingDurationMs": 2121978,
      "idlingDurationMs": 492410,
      "fuelConsumedMl": 946,
      "fuelConsumedGallons": 0.25,
      "maxSpeedMph": 59.7,
      "averageSpeedMph": 17.9,
      "safetyEvents": [],
      "_no_driver_login": false,
      "_fuel_note": ""
    },
    {
      "id": "trip_48291034_20250110_001",
      "vehicleId": "48291034",
      "driverId": "22831033",
      "startMs": 1736527800000,
      "endMs": 1736528213361,
      "startLocation": {
        "latitude": 35.062062,
        "longitude": -106.687665
      },
      "endLocation": {
        "latitude": 35.17416,
        "longitude": -106.678392
      },
      "startAddress": "09006 Cynthia Dam",
      "endAddress": "677 Campbell Land Suite 172",
      "startCoords": {
        "latitude": 35.151984,
        "longitude": -106.68332
      },
      "endCoords": {
        "latitude": 35.123385,
        "longitude": -106.680664
      },
      "distanceMeters": 2747.1,
      "durationMs": 413361,
      "drivingDurationMs": 322826,
      "idlingDurationMs": 90536,
      "fuelConsumedMl": 125,
      "fuelConsumedGallons": 0.033,
      "maxSpeedMph": 68.3,
      "averageSpeedMph": 14.9,
      "safetyEvents": [
        {
          "type": "speeding",
          "startMs": 1736527980000,
          "maxSpeedMph": 68.3
        }
      ],
      "_no_driver_login": false,
      "_fuel_note": "QUIRK 5: fuelConsumedGallons is in US gallons. Multiply by 3.785 for litres. Samsara does not link fuel to specific Onfleet tasks."
    },
    {
      "id": "trip_48291034_20250110_002",
      "vehicleId": "48291034",
      "driverId": "22831033",
      "startMs": 1736510460000,
      "endMs": 1736513006472,
      "startLocation": {
        "latitude": 35.092892,
        "longitude": -106.538523
      },
      "endLocation": {
        "latitude": 35.075702,
        "longitude": -106.68127
      },
      "startAddress": "0344 Little Forges Apt. 465",
      "endAddress": "415 Goodman Street Apt. 517",
      "startCoords": {
        "latitude": 35.170627,
        "longitude": -106.648844
      },
      "endCoords": {
        "latitude": 35.087983,
        "longitude": -106.69935
      },
      "distanceMeters": 20112.5,
      "durationMs": 2546473,
      "drivingDurationMs": 2066919,
      "idlingDurationMs": 479554,
      "fuelConsumedMl": 908,
      "fuelConsumedGallons": 0.24,
      "maxSpeedMph": 64.7,
      "averageSpeedMph": 17.7,
      "safetyEvents": [],
      "_no_driver_login": false,
      "_fuel_note": ""
    },
    {
      "id": "trip_48291034_20250110_003",
      "vehicleId": "48291034",
      "driverId": "22831033",
      "startMs": 1736508480000,
      "endMs": 1736510705569,
      "startLocation": {
        "latitude": 35.111343,
        "longitude": -106.678282
      },
      "endLocation": {
        "latitude": 35.141549,
        "longitude": -106.714777
      },
      "startAddress": "3518 Rodriguez Stream Suite 696",
      "endAddress": "959 Murphy Loop Apt. 033",
      "startCoords": {
        "latitude": 35.151649,
        "longitude": -106.561756
      },
      "endCoords": {
        "latitude": 35.076612,
        "longitude": -106.623953
      },
      "distanceMeters": 14366.8,
      "durationMs": 2225570,
      "drivingDurationMs": 1829605,
      "idlingDurationMs": 395965,
      "fuelConsumedMl": 651,
      "fuelConsumedGallons": 0.172,
      "maxSpeedMph": 54.3,
      "averageSpeedMph": 14.4,
      "safetyEvents": [],
      "_no_driver_login": false,
      "_fuel_note": ""
    },
    {
      "id": "trip_48291034_20250110_004",
      "vehicleId": "48291034",
      "driverId": "22831033",
      "startMs": 1736518860000,
      "endMs": 1736520161492,
      "startLocation": {
        "latitude": 35.121838,
        "longitude": -106.582093
      },
      "endLocation": {
        "latitude": 35.153679,
        "longitude": -106.576472
      },
      "startAddress": "522 Doyle Path Suite 210",
      "endAddress": "25145 Castillo Radial",
      "startCoords": {
        "latitude": 35.075318,
        "longitude": -106.655756
      },
      "endCoords": {
        "latitude": 35.177251,
        "longitude": -106.553656
      },
      "distanceMeters": 8607.2,
      "durationMs": 1301492,
      "drivingDurationMs": 1044629,
      "idlingDurationMs": 256863,
      "fuelConsumedMl": 390,
      "fuelConsumedGallons": 0.103,
      "maxSpeedMph": 38.8,
      "averageSpeedMph": 14.8,
      "safetyEvents": [],
      "_no_driver_login": false,
      "_fuel_note": ""
    },
    {
      "id": "trip_48291034_20250110_005",
      "vehicleId": "48291034",
      "driverId": "22831033",
      "startMs": 1736520660000,
      "endMs": 1736521091088,
      "startLocation": {
        "latitude": 35.057457,
        "longitude": -106.661231
      },
      "endLocation": {
        "latitude": 35.042733,
        "longitude": -106.619046
      },
      "startAddress": "372 Todd Loop Apt. 414",
      "endAddress": "4302 Williams Club",
      "startCoords": {
        "latitude": 35.178381,
        "longitude": -106.644054
      },
      "endCoords": {
        "latitude": 35.114829,
        "longitude": -106.543102
      },
      "distanceMeters": 2148.6,
      "durationMs": 431088,
      "drivingDurationMs": 297944,
      "idlingDurationMs": 133145,
      "fuelConsumedMl": 98,
      "fuelConsumedGallons": 0.026,
      "maxSpeedMph": 61.4,
      "averageSpeedMph": 11.1,
      "safetyEvents": [],
      "_no_driver_login": false,
      "_fuel_note": ""
    },
    {
      "id": "trip_48291034_20250110_006",
      "vehicleId": "48291034",
      "driverId": "22831033",
      "startMs": 1736519100000,
      "endMs": 1736519641105,
      "startLocation": {
        "latitude": 35.056063,
        "longitude": -106.556819
      },
      "endLocation": {
        "latitude": 35.170616,
        "longitude": -106.717483
      },
      "startAddress": "2298 David River",
      "endAddress": "2439 Gabriel Route",
      "startCoords": {
        "latitude": 35.168062,
        "longitude": -106.606942
      },
      "endCoords": {
        "latitude": 35.141791,
        "longitude": -106.662548
      },
      "distanceMeters": 2630.5,
      "durationMs": 541106,
      "drivingDurationMs": 380515,
      "idlingDurationMs": 160591,
      "fuelConsumedMl": 117,
      "fuelConsumedGallons": 0.031,
      "maxSpeedMph": 54.0,
      "averageSpeedMph": 10.9,
      "safetyEvents": [],
      "_no_driver_login": false,
      "_fuel_note": ""
    },
    {
      "id": "trip_48291034_20250110_007",
      "vehicleId": "48291034",
      "driverId": "22831033",
      "startMs": 1736511960000,
      "endMs": 1736514681316,
      "startLocation": {
        "latitude": 35.10646,
        "longitude": -106.625191
      },
      "endLocation": {
        "latitude": 35.108199,
        "longitude": -106.5508
      },
      "startAddress": "14962 Johnson Valley Suite 953",
      "endAddress": "783 Walton Lodge",
      "startCoords": {
        "latitude": 35.113296,
        "longitude": -106.685709
      },
      "endCoords": {
        "latitude": 35.153395,
        "longitude": -106.709557
      },
      "distanceMeters": 23217.6,
      "durationMs": 2721316,
      "drivingDurationMs": 2245491,
      "idlingDurationMs": 475825,
      "fuelConsumedMl": 1049,
      "fuelConsumedGallons": 0.277,
      "maxSpeedMph": 57.1,
      "averageSpeedMph": 19.1,
      "safetyEvents": [],
      "_no_driver_login": false,
      "_fuel_note": ""
    },
    {
      "id": "trip_48291034_20250110_008",
      "vehicleId": "48291034",
      "driverId": "22831033",
      "startMs": 1736532600000,
      "endMs": 1736535488325,
      "startLocation": {
        "latitude": 35.106736,
        "longitude": -106.598453
      },
      "endLocation": {
        "latitude": 35.094976,
        "longitude": -106.667369
      },
      "startAddress": "900 Wagner Inlet Suite 666",
      "endAddress": "483 Noble Viaduct Apt. 943",
      "startCoords": {
        "latitude": 35.099993,
        "longitude": -106.679785
      },
      "endCoords": {
        "latitude": 35.148012,
        "longitude": -106.621913
      },
      "distanceMeters": 20528.0,
      "durationMs": 2888326,
      "drivingDurationMs": 2377904,
      "idlingDurationMs": 510422,
      "fuelConsumedMl": 927,
      "fuelConsumedGallons": 0.245,
      "maxSpeedMph": 35.6,
      "averageSpeedMph": 15.9,
      "safetyEvents": [],
      "_no_driver_login": false,
      "_fuel_note": ""
    },
    {
      "id": "trip_48291034_20250111_001",
      "vehicleId": "48291034",
      "driverId": "22831033",
      "startMs": 1736609760000,
      "endMs": 1736610446557,
      "startLocation": {
        "latitude": 35.051191,
        "longitude": -106.57324
      },
      "endLocation": {
        "latitude": 35.132901,
        "longitude": -106.553708
      },
      "startAddress": "425 Jennifer Knoll",
      "endAddress": "76558 Eric Square Suite 528",
      "startCoords": {
        "latitude": 35.085263,
        "longitude": -106.647374
      },
      "endCoords": {
        "latitude": 35.050874,
        "longitude": -106.554498
      },
      "distanceMeters": 3406.0,
      "durationMs": 686557,
      "drivingDurationMs": 546648,
      "idlingDurationMs": 139909,
      "fuelConsumedMl": 155,
      "fuelConsumedGallons": 0.041,
      "maxSpeedMph": 49.1,
      "averageSpeedMph": 11.1,
      "safetyEvents": [],
      "_no_driver_login": false,
      "_fuel_note": "QUIRK 5: fuelConsumedGallons is in US gallons. Multiply by 3.785 for litres. Samsara does not link fuel to specific Onfleet tasks."
    },
    {
      "id": "trip_48291034_20250111_002",
      "vehicleId": "48291034",
      "driverId": "22831033",
      "startMs": 1736581800000,
      "endMs": 1736582412940,
      "startLocation": {
        "latitude": 35.153894,
        "longitude": -106.590261
      },
      "endLocation": {
        "latitude": 35.106607,
        "longitude": -106.68587
      },
      "startAddress": "706 Adam Shores Apt. 282",
      "endAddress": "52878 Garcia Stream",
      "startCoords": {
        "latitude": 35.125034,
        "longitude": -106.59486
      },