{
  "vehicleId": "43088084",
  "vehicleName": "SLC-VAN-05",
  "month": "2025_02",
  "pagination": {
    "endCursor": "trip_43088084_20250228_8090",
    "hasNextPage": false
  },
  "trips": [
    {
      "id": "trip_43088084_20250201_4252",
      "vehicleId": "43088084",
      "driverId": "20000037",
      "startMs": 1738375401000,
      "endMs": 1738377741000,
      "startAddress": "03341 Smith Walks Suite 290",
      "endAddress": "95014 Thomas Lakes Apt. 635",
      "startCoords": {
        "latitude": 40.752628,
        "longitude": -111.862733
      },
      "endCoords": {
        "latitude": 40.70378,
        "longitude": -111.857993
      },
      "distanceMeters": 14574.2,
      "durationMs": 2340000,
      "drivingDurationMs": 1760070,
      "idlingDurationMs": 579930,
      "fuelConsumedMl": 1855,
      "fuelConsumedGallons": 0.49,
      "maxSpeedMph": 38.9,
      "averageSpeedMph": 13.9,
      "safetyEvents": []
    },
    {
      "id": "trip_43088084_20250201_4322",
      "vehicleId": "43088084",
      "driverId": "20000033",
      "startMs": 1738420217000,
      "endMs": 1738422017000,
      "startAddress": "6551 Reese Mountains Apt. 342",
      "endAddress": "238 Matthew Junctions",
      "startCoords": {
        "latitude": 40.67301,
        "longitude": -111.818665
      },
      "endCoords": {
        "latitude": 40.765311,
        "longitude": -111.903697
      },
      "distanceMeters": 7718.0,
      "durationMs": 1800000,
      "drivingDurationMs": 1484434,
      "idlingDurationMs": 315566,
      "fuelConsumedMl": 980,
      "fuelConsumedGallons": 0.259,
      "maxSpeedMph": 30.0,
      "averageSpeedMph": 9.6,
      "safetyEvents": []
    },
    {
      "id": "trip_43088084_20250201_4378",
      "vehicleId": "43088084",
      "driverId": "20000034",
      "startMs": 1738453683000,
      "endMs": 1738455543000,
      "startAddress": "476 Brittany Shoal",
      "endAddress": "497 Richard Crescent Suite 102",
      "startCoords": {
        "latitude": 40.748391,
        "longitude": -111.830321
      },
      "endCoords": {
        "latitude": 40.739965,
        "longitude": -111.835297
      },
      "distanceMeters": 11458.7,
      "durationMs": 1860000,
      "drivingDurationMs": 1666707,
      "idlingDurationMs": 193293,
      "fuelConsumedMl": 1457,
      "fuelConsumedGallons": 0.385,
      "maxSpeedMph": 38.9,
      "averageSpeedMph": 13.8,
      "safetyEvents": []
    },
    {
      "id": "trip_43088084_20250202_4473",
      "vehicleId": "43088084",
      "driverId": "20000034",
      "startMs": 1738539381000,
      "endMs": 1738541421000,
      "startAddress": "79857 Dennis Walk Suite 634",
      "endAddress": "52082 Lin Pass",
      "startCoords": {
        "latitude": 40.733315,
        "longitude": -111.874795
      },
      "endCoords": {
        "latitude": 40.763672,
        "longitude": -111.94441
      },
      "distanceMeters": 11262.3,
      "durationMs": 2040000,
      "drivingDurationMs": 1710202,
      "idlingDurationMs": 329798,
      "fuelConsumedMl": 1431,
      "fuelConsumedGallons": 0.378,
      "maxSpeedMph": 27.6,
      "averageSpeedMph": 12.3,
      "safetyEvents": []
    },
    {
      "id": "trip_43088084_20250203_4510",
      "vehicleId": "43088084",
      "driverId": "20000035",
      "startMs": 1738575849000,
      "endMs": 1738578189000,
      "startAddress": "030 Callahan Lakes",
      "endAddress": "459 Torres Row Apt. 451",
      "startCoords": {
        "latitude": 40.761114,
        "longitude": -111.928071
      },
      "endCoords": {
        "latitude": 40.737086,
        "longitude": -111.873587
      },
      "distanceMeters": 9613.2,
      "durationMs": 2340000,
      "drivingDurationMs": 1800416,
      "idlingDurationMs": 539584,
      "fuelConsumedMl": 1223,
      "fuelConsumedGallons": 0.323,
      "maxSpeedMph": 30.9,
      "averageSpeedMph": 9.2,
      "safetyEvents": []
    },
    {
      "id": "trip_43088084_20250203_4558",
      "vehicleId": "43088084",
      "driverId": "20000033",
      "startMs": 1738598103000,
      "endMs": 1738600623000,
      "startAddress": "173 Andrew Lock",
      "endAddress": "787 Logan Harbors Apt. 574",
      "startCoords": {
        "latitude": 40.763431,
        "longitude": -111.947102
      },
      "endCoords": {
        "latitude": 40.800144,
        "longitude": -111.827929
      },
      "distanceMeters": 13382.4,
      "durationMs": 2520000,
      "drivingDurationMs": 2194083,
      "idlingDurationMs": 325917,
      "fuelConsumedMl": 1700,
      "fuelConsumedGallons": 0.449,
      "maxSpeedMph": 30.9,
      "averageSpeedMph": 11.9,
      "safetyEvents": []
    },
    {
      "id": "trip_43088084_20250203_4599",
      "vehicleId": "43088084",
      "driverId": "20000035",
      "startMs": 1738620772000,
      "endMs": 1738623801000,
      "startAddress": "5503 Sara Ridge Apt. 888",
      "endAddress": "563 Williamson Mountains",
      "startCoords": {
        "latitude": 40.744643,
        "longitude": -111.880345
      },
      "endCoords": {
        "latitude": 40.680792,
        "longitude": -111.908601
      },
      "distanceMeters": 12213.3,
      "durationMs": 3029000,
      "drivingDurationMs": 2428154,
      "idlingDurationMs": 600846,
      "fuelConsumedMl": 1552,
      "fuelConsumedGallons": 0.41,
      "maxSpeedMph": 38.3,
      "averageSpeedMph": 9.0,
      "safetyEvents": []
    },
    {
      "id": "trip_43088084_20250204_4646",
      "vehicleId": "43088084",
      "driverId": "20000036",
      "startMs": 1738649464000,
      "endMs": 1738651504000,
      "startAddress": "71981 Sarah Trail",
      "endAddress": "6524 Ronald Dale Apt. 430",
      "startCoords": {
        "latitude": 40.715097,
        "longitude": -111.899759
      },
      "endCoords": {
        "latitude": 40.79376,
        "longitude": -111.947473
      },
      "distanceMeters": 15309.7,
      "durationMs": 2040000,
      "drivingDurationMs": 1818478,
      "idlingDurationMs": 221522,
      "fuelConsumedMl": 1946,
      "fuelConsumedGallons": 0.514,
      "maxSpeedMph": 38.8,
      "averageSpeedMph": 16.8,
      "safetyEvents": []
    },
    {
      "id": "trip_43088084_20250204_4698",
      "vehicleId": "43088084",
      "driverId": "20000035",
      "startMs": 1738675304000,
      "endMs": 1738677044000,
      "startAddress": "6795 Kayla Ford Suite 792",
      "endAddress": "4057 Rose Lights Apt. 288",
      "startCoords": {
        "latitude": 40.724614,
        "longitude": -111.893673
      },
      "endCoords": {
        "latitude": 40.718368,
        "longitude": -111.879574
      },
      "distanceMeters": 11156.4,
      "durationMs": 1740000,
      "drivingDurationMs": 1375781,
      "idlingDurationMs": 364219,
      "fuelConsumedMl": 1420,
      "fuelConsumedGallons": 0.375,
      "maxSpeedMph": 39.1,
      "averageSpeedMph": 14.3,
      "safetyEvents": []
    },
    {
      "id": "trip_43088084_20250204_4749",
      "vehicleId": "43088084",
      "driverId": "20000037",
      "startMs": 1738701684000,
      "endMs": 1738703424000,
      "startAddress": "11872 Harris Isle Suite 903",
      "endAddress": "5116 Smith Valleys Suite 840",
      "startCoords": {
        "latitude": 40.794679,
        "longitude": -111.944583
      },
      "endCoords": {
        "latitude": 40.684743,
        "longitude": -111.94057
      },
      "distanceMeters": 12070.5,
      "durationMs": 1740000,
      "drivingDurationMs": 1500316,
      "idlingDurationMs": 239684,
      "fuelConsumedMl": 1533,
      "fuelConsumedGallons": 0.405,
      "maxSpeedMph": 34.4,
      "averageSpeedMph": 15.5,
      "safetyEvents": []
    },
    {
      "id": "trip_43088084_20250205_4804",
      "vehicleId": "43088084",
      "driverId": "20000038",
      "startMs": 1738747146000,
      "endMs": 1738749306000,
      "startAddress": "8846 Amy Loaf Suite 463",
      "endAddress": "052 Murphy Track Suite 170",
      "startCoords": {
        "latitude": 40.797696,
        "longitude": -111.796128
      },
      "endCoords": {
        "latitude": 40.726209,
        "longitude": -111.802028
      },
      "distanceMeters": 9600.5,
      "durationMs": 2160000,
      "drivingDurationMs": 1628069,
      "idlingDurationMs": 531931,
      "fuelConsumedMl": 1219,
      "fuelConsumedGallons": 0.322,
      "maxSpeedMph": 38.3,
      "averageSpeedMph": 9.9,
      "safetyEvents": []
    },
    {
      "id": "trip_43088084_20250205_4836",
      "vehicleId": "43088084",
      "driverId": "20000035",
      "startMs": 1738762792000,
      "endMs": 1738770266000,
      "startAddress": "0368 Smith Lodge Suite 225",
      "endAddress": "31210 White Lane Suite 272",
      "startCoords": {
        "latitude": 40.778212,
        "longitude": -111.774489
      },
      "endCoords": {
        "latitude": 40.704746,
        "longitude": -111.799027
      },
      "distanceMeters": 37496.1,
      "durationMs": 7474000,
      "drivingDurationMs": 6445040,
      "idlingDurationMs": 1028960,
      "fuelConsumedMl": 4766,
      "fuelConsumedGallons": 1.259,
      "maxSpeedMph": 38.5,
      "averageSpeedMph": 11.2,
      "safetyEvents": []
    },
    {
      "id": "trip_43088084_20250205_4878",
      "vehicleId": "43088084",
      "driverId": "20000033",
      "startMs": 1738783083000,
      "endMs": 1738785003000,
      "startAddress": "736 Long Corner",
      "endAddress": "407 Carr Springs Apt. 155",
      "startCoords": {
        "latitude": 40.792034,
        "longitude": -111.901338
      },
      "endCoords": {
        "latitude": 40.755308,
        "longitude": -111.83803
      },
      "distanceMeters": 10240.8,
      "durationMs": 1920000,
      "drivingDurationMs": 1578056,
      "idlingDurationMs": 341944,
      "fuelConsumedMl": 1302,
      "fuelConsumedGallons": 0.344,
      "maxSpeedMph": 26.3,
      "averageSpeedMph": 11.9,
      "safetyEvents": []
    },
    {
      "id": "trip_43088084_20250206_4933",
      "vehicleId": "43088084",
      "driverId": "20000036",
      "startMs": 1738819426000,
      "endMs": 1738827210000,
      "startAddress": "72116 Grace Street",
      "endAddress": "16961 Hamilton Alley Apt. 408",
      "startCoords": {
        "latitude": 40.750283,
        "longitude": -111.816059
      },
      "endCoords": {
        "latitude": 40.739028,
        "longitude": -111.831894
      },
      "distanceMeters": 57763.6,
      "durationMs": 7784000,
      "drivingDurationMs": 6597686,
      "idlingDurationMs": 1186314,
      "fuelConsumedMl": 7344,
      "fuelConsumedGallons": 1.94,
      "maxSpeedMph": 26.4,
      "averageSpeedMph": 16.6,
      "safetyEvents": []
    },
    {
      "id": "trip_43088084_20250206_4973",
      "vehicleId": "43088084",
      "driverId": "20000039",
      "startMs": 1738840475000,
      "endMs": 1738841795000,
      "startAddress": "216 Erickson Tunnel",
      "endAddress": "719 Joshua Shoals Apt. 986",
      "startCoords": {
        "latitude": 40.759709,
        "longitude": -111.844329
      },
      "endCoords": {
        "latitude": 40.772992,
        "longitude": -111.883457
      },
      "distanceMeters": 7833.0,
      "durationMs": 1320000,
      "drivingDurationMs": 1092037,
      "idlingDurationMs": 227963,
      "fuelConsumedMl": 996,
      "fuelConsumedGallons": 0.263,
      "maxSpeedMph": 29.1,
      "averageSpeedMph": 13.3,
      "safetyEvents": []
    },
    {
      "id": "trip_43088084_20250206_5023",
      "vehicleId": "43088084",
      "driverId": "20000035",
      "startMs": 1738865243000,
      "endMs": 1738867463000,
      "startAddress": "97278 Chelsea Falls",
      "endAddress": "649 Price Ways",
      "startCoords": {
        "latitude": 40.713616,
        "longitude": -111.832194
      },
      "endCoords": {
        "latitude": 40.798784,
        "longitude": -111.810419
      },
      "distanceMeters": 17568.2,
      "durationMs": 2220000,
      "drivingDurationMs": 1994231,
      "idlingDurationMs": 225769,
      "fuelConsumedMl": 2233,
      "fuelConsumedGallons": 0.59,
      "maxSpeedMph": 34.6,
      "averageSpeedMph": 17.7,
      "safetyEvents": []
    },
    {
      "id": "trip_43088084_20250207_5075",
      "vehicleId": "43088084",
      "driverId": "20000033",
      "startMs": 1738894584000,
      "endMs": 1738896144000,
      "startAddress": "160 Gibbs Prairie",
      "endAddress": "89265 Barry Road",
      "startCoords": {
        "latitude": 40.69107,
        "longitude": -111.83436
      },
      "endCoords": {
        "latitude": 40.722431,
        "longitude": -111.906079
      },
      "distanceMeters": 7240.1,
      "durationMs": 1560000,
      "drivingDurationMs": 1254723,
      "idlingDurationMs": 305277,
      "fuelConsumedMl": 920,
      "fuelConsumedGallons": 0.243,
      "maxSpeedMph": 28.5,
      "averageSpeedMph": 10.4,
      "safetyEvents": []
    },
    {
      "id": "trip_43088084_20250207_5140",
      "vehicleId": "43088084",
      "driverId": "20000037",
      "startMs": 1738932189000,
      "endMs": 1738934049000,
      "startAddress": "733 Brandt Mountain",
      "endAddress": "401 Michael Station",
      "startCoords": {
        "latitude": 40.676712,
        "longitude": -111.88754
      },
      "endCoords": {
        "latitude": 40.744518,
        "longitude": -111.869276
      },
      "distanceMeters": 8751.1,
      "durationMs": 1860000,
      "drivingDurationMs": 1441792,
      "idlingDurationMs": 418208,
      "fuelConsumedMl": 1113,
      "fuelConsumedGallons": 0.294,
      "maxSpeedMph": 31.4,
      "averageSpeedMph": 10.5,
      "safetyEvents": []
    },
    {
      "id": "trip_43088084_20250207_5179",
      "vehicleId": "43088084",
      "driverId": "20000039",
      "startMs": 1738946606000,
      "endMs": 1738949100000,
      "startAddress": "2502 Farmer Corners Apt. 853",
      "endAddress": "243 Christopher Cove",
      "startCoords": {
        "latitude": 40.710318,
        "longitude": -111.87932
      },
      "endCoords": {
        "latitude": 40.728399,
        "longitude": -111.816545
      },
      "distanceMeters": 12946.0,
      "durationMs": 2494000,
      "drivingDurationMs": 2054510,
      "idlingDurationMs": 439490,
      "fuelConsumedMl": 1647,
      "fuelConsumedGallons": 0.435,
      "maxSpeedMph": 33.4,
      "averageSpeedMph": 11.6,
      "safetyEvents": []
    },
    {
      "id": "trip_43088084_20250207_5212",
      "vehicleId": "43088084",
      "driverId": "20000038",
      "startMs": 1738969152000,
      "endMs": 1738972268000,
      "startAddress": "60218 Jessica Radial Suite 785",
      "endAddress": "16780 Harris Junction",
      "startCoords": {
        "latitude": 40.758524,
        "longitude": -111.786057
      },
      "endCoords": {
        "latitude": 40.746128,
        "longitude": -111.826411
      },
      "distanceMeters": 18744.6,
      "durationMs": 3116000,
      "drivingDurationMs": 2635602,
      "idlingDurationMs": 480398,
      "fuelConsumedMl": 2385,
      "fuelConsumedGallons": 0.63,
      "maxSpeedMph": 26.7,
      "averageSpeedMph": 13.5,
      "safetyEvents": []
    },
    {
      "id": "trip_43088084_20250208_5286",
      "vehicleId": "43088084",
      "driverId": "20000038",
      "startMs": 1739022381000,
      "endMs": 1739024541000,
      "startAddress": "233 Melissa Harbors",
      "endAddress": "600 Williams Fords Apt. 086",
      "startCoords": {
        "latitude": 40.790012,
        "longitude": -111.817429
      },
      "endCoords": {
        "latitude": 40.755038,
        "longitude": -111.808891
      },
      "distanceMeters": 13233.6,
      "durationMs": 2160000,
      "drivingDurationMs": 1813491,
      "idlingDurationMs": 346509,
      "fuelConsumedMl": 1681,
      "fuelConsumedGallons": 0.444,
      "maxSpeedMph": 32.6,
      "averageSpeedMph": 13.7,
      "safetyEvents": []
    },
    {
      "id": "trip_43088084_20250208_5314",
      "vehicleId": "43088084",
      "driverId": "20000037",
      "startMs": 1739036700000,
      "endMs": 1739038800000,
      "startAddress": "3527 Casey Harbor",
      "endAddress": "4939 Dawn Circles",
      "startCoords": {
        "latitude": 40.701794,
        "longitude": -111.901157
      },
      "endCoords": {
        "latitude": 40.67082,
        "longitude": -111.81298
      },
      "distanceMeters": 13423.3,
      "durationMs": 2100000,
      "drivingDurationMs": 1697594,
      "idlingDurationMs": 402406,
      "fuelConsumedMl": 1707,
      "fuelConsumedGallons": 0.451,
      "maxSpeedMph": 37.7,
      "averageSpeedMph": 14.3,
      "safetyEvents": []
    },
    {
      "id": "trip_43088084_20250208_5345",
      "vehicleId": "43088084",
      "driverId": "20000033",
      "startMs": 1739054354000,
      "endMs": 1739056334000,
      "startAddress": "8087 Farrell Square Apt. 691",
      "endAddress": "45179 Ashley Place Suite 729",
      "startCoords": {
        "latitude": 40.696642,
        "longitude": -111.942425
      },
      "endCoords": {
        "latitude": 40.673489,
        "longitude": -111.933471
      },
      "distanceMeters": 7998.9,
      "durationMs": 1980000,
      "drivingDurationMs": 1497102,
      "idlingDurationMs": 482898,
      "fuelConsumedMl": 1018,
      "fuelConsumedGallons": 0.269,
      "maxSpeedMph": 34.5,
      "averageSpeedMph": 9.0,
      "safetyEvents": []
    },
    {
      "id": "trip_43088084_20250209_5422",
      "vehicleId": "43088084",
      "driverId": "20000033",
      "startMs": 1739125213000,
      "endMs": 1739131897000,
      "startAddress": "021 Frank Corners",
      "endAddress": "237 Andrea Lakes Suite 678",
      "startCoords": {
        "latitude": 40.79669,
        "longitude": -111.879762
      },
      "endCoords": {
        "latitude": 40.697787,
        "longitude": -111.799493
      },
      "distanceMeters": 30722.4,
      "durationMs": 6684000,
      "drivingDurationMs": 5103509,
      "idlingDurationMs": 1580491,
      "fuelConsumedMl": 3907,
      "fuelConsumedGallons": 1.032,
      "maxSpeedMph": 37.0,
      "averageSpeedMph": 10.3,
      "safetyEvents": []
    },
    {
      "id": "trip_43088084_20250210_5463",
      "vehicleId": "43088084",
      "driverId": "20000035",
      "startMs": 1739179091000,
      "endMs": 1739186517000,
      "startAddress": "1587 Jennifer Well",
      "endAddress": "722 Mark Port Apt. 409",
      "startCoords": {
        "latitude": 40.749616,
        "longitude": -111.906565
      },
      "endCoords": {
        "latitude": 40.684815,
        "longitude": -111.916281
      },
      "distanceMeters": 52520.1,
      "durationMs": 7426000,
      "drivingDurationMs": 6355155,
      "idlingDurationMs": 1070845,
      "fuelConsumedMl": 6677,
      "fuelConsumedGallons": 1.764,
      "maxSpeedMph": 26.1,
      "averageSpeedMph": 15.8,
      "safetyEvents": []
    },
    {
      "id": "trip_43088084_20250210_5516",
      "vehicleId": "43088084",
      "driverId": "20000034",
      "startMs": 1739206130000,
      "endMs": 1739207630000,
      "startAddress": "38101 Higgins Creek Suite 341",
      "endAddress": "5123 Martin Falls Suite 428",
      "startCoords": {
        "latitude": 40.796076,
        "longitude": -111.825529
      },
      "endCoords": {
        "latitude": 40.658696,
        "longitude": -111.787246
      },
      "distanceMeters": 6486.3,
      "durationMs": 1500000,
      "drivingDurationMs": 1131089,
      "idlingDurationMs": 368911,
      "fuelConsumedMl": 825,
      "fuelConsumedGallons": 0.218,
      "maxSpeedMph": 27.3,
      "averageSpeedMph": 9.7,
      "safetyEvents": []
    },
    {
      "id": "trip_43088084_20250210_5546",
      "vehicleId": "43088084",
      "driverId": "20000036",
      "startMs": 1739222110000,
      "endMs": 1739224030000,
      "startAddress": "630 Jacob Trafficway Suite 099",
      "endAddress": "010 Aguilar Vista",
      "startCoords": {
        "latitude": 40.671467,
        "longitude": -111.806077
      },
      "endCoords": {
        "latitude": 40.722098,
        "longitude": -111.95111
      },
      "distanceMeters": 13486.1,
      "durationMs": 1920000,
      "drivingDurationMs": 1568687,
      "idlingDurationMs": 351313,
      "fuelConsumedMl": 1715,
      "fuelConsumedGallons": 0.453,
      "maxSpeedMph": 33.2,
      "averageSpeedMph": 15.7,
      "safetyEvents": []
    },
    {
      "id": "trip_43088084_20250211_5593",
      "vehicleId": "43088084",
      "driverId": "20000039",
      "startMs": 1739254555000,
      "endMs": 1739256835000,
      "startAddress": "264 Wilkins Point",
      "endAddress": "808 David Summit Apt. 807",
      "startCoords": {
        "latitude": 40.769654,
        "longitude": -111.820155
      },
      "endCoords": {
        "latitude": 40.757788,
        "longitude": -111.810156
      },
      "distanceMeters": 10930.9,
      "durationMs": 2280000,
      "drivingDurationMs": 1857370,
      "idlingDurationMs": 422630,
      "fuelConsumedMl": 1389,
      "fuelConsumedGallons": 0.367,
      "maxSpeedMph": 37.3,
      "averageSpeedMph": 10.7,
      "safetyEvents": []
    },
    {
      "id": "trip_43088084_20250211_5639",
      "vehicleId": "43088084",
      "driverId": "20000039",
      "startMs": 1739281070000,
      "endMs": 1739287730000,
      "startAddress": "5320 Zachary Forge Suite 409",
      "endAddress": "3441 Booker Plains Apt. 071",
      "startCoords": {
        "latitude": 40.747266,
        "longitude": -111.960191
      },
      "endCoords": {
        "latitude": 40.765172,
        "longitude": -111.955183
      },
      "distanceMeters": 36702.4,
      "durationMs": 6660000,
      "drivingDurationMs": 5929943,
      "idlingDurationMs": 730057,
      "fuelConsumedMl": 4667,
      "fuelConsumedGallons": 1.233,
      "maxSpeedMph": 37.6,
      "averageSpeedMph": 12.3,
      "safetyEvents": []
    },
    {
      "id": "trip_43088084_20250211_5678",
      "vehicleId": "43088084",
      "driverId": "20000035",
      "startMs": 1739300245000,
      "endMs": 1739301505000,
      "startAddress": "77328 Torres Pike",
      "endAddress": "97128 Smith Throughway Suite 542",
      "startCoords": {
        "latitude": 40.689431,
        "longitude": -111.904267
      },
      "endCoords": {
        "latitude": 40.740077,
        "longitude": -111.932285
      },
      "distanceMeters": 5138.6,
      "durationMs": 1260000,
      "drivingDurationMs": 975714,
      "idlingDurationMs": 284286,
      "fuelConsumedMl": 655,
      "fuelConsumedGallons": 0.173,
      "maxSpeedMph": 27.5,
      "averageSpeedMph": 9.1,
      "safetyEvents": []
    },
    {
      "id": "trip_43088084_20250212_5716",
      "vehicleId": "43088084",
      "driverId": "20000037",
      "startMs": 1739321516000,
      "endMs": 1739323376000,
      "startAddress": "29841 Barton Ports Apt. 261",
      "endAddress": "37399 Aaron Mews",
      "startCoords": {
        "latitude": 40.738235,
        "longitude": -111.84018
      },
      "endCoords": {
        "latitude": 40.757246,
        "longitude": -111.781966
      },
      "distanceMeters": 9604.1,
      "durationMs": 1860000,
      "drivingDurationMs": 1631290,
      "idlingDurationMs": 228710,
      "fuelConsumedMl": 1223,
      "fuelConsumedGallons": 0.323,
      "maxSpeedMph": 25.9,
      "averageSpeedMph": 11.6,
      "safetyEvents": []
    },
    {
      "id": "trip_43088084_20250212_5756",
      "vehicleId": "43088084",
      "driverId": "20000039",
      "startMs": 1739345809000,
      "endMs": 1739352576000,
      "startAddress": "147 Kelly Estate",
      "endAddress": "6594 Jeffrey Dale",
      "startCoords": {
        "latitude": 40.753805,
        "longitude": -111.932309
      },
      "endCoords": {
        "latitude": 40.734183,
        "longitude": -111.895657
      },
      "distanceMeters": 30301.1,
      "durationMs": 6767000,
      "drivingDurationMs": 5945932,
      "idlingDurationMs": 821068,
      "fuelConsumedMl": 3854,
      "fuelConsumedGallons": 1.018,
      "maxSpeedMph": 39.1,
      "averageSpeedMph": 10.0,
      "safetyEvents": []
    },
    {
      "id": "trip_43088084_20250212_5808",
      "vehicleId": "43088084",
      "driverId": "20000033",
      "startMs": 1739370192000,
      "endMs": 1739371932000,
      "startAddress": "9266 Carolyn Burg",
      "endAddress": "820 Isaac Inlet",
      "startCoords": {
        "latitude": 40.79062,
        "longitude": -111.875694
      },
      "endCoords": {
        "latitude": 40.763005,
        "longitude": -111.849649
      },
      "distanceMeters": 7967.9,
      "durationMs": 1740000,
      "drivingDurationMs": 1428309,
      "idlingDurationMs": 311691,
      "fuelConsumedMl": 1014,
      "fuelConsumedGallons": 0.268,
      "maxSpeedMph": 39.1,
      "averageSpeedMph": 10.2,
      "safetyEvents": []
    },
    {
      "id": "trip_43088084_20250212_5845",
      "vehicleId": "43088084",
      "driverId": "20000034",
      "startMs": 1739386365000,
      "endMs": 1739388645000,
      "startAddress": "31071 Foster Flat Apt. 902",
      "endAddress": "4830 White Via Apt. 739",
      "startCoords": {
        "latitude": 40.78956,
        "longitude": -111.956124
      },
      "endCoords": {
        "latitude": 40.757799,
        "longitude": -111.959508
      },
      "distanceMeters": 15140.3,
      "durationMs": 2280000,
      "drivingDurationMs": 1742300,
      "idlingDurationMs": 537700,
      "fuelConsumedMl": 1927,
      "fuelConsumedGallons": 0.509,
      "maxSpeedMph": 34.4,
      "averageSpeedMph": 14.9,
      "safetyEvents": []
    },
    {
      "id": "trip_43088084_20250213_5899",
      "vehicleId": "43088084",
      "driverId": "20000038",
      "startMs": 1739420300000,
      "endMs": 1739425652000,
      "startAddress": "27730 Evans Squares Apt. 999",
      "endAddress": "1905 David Garden",
      "startCoords": {
        "latitude": 40.717423,
        "longitude": -111.939928
      },
      "endCoords": {
        "latitude": 40.761502,
        "longitude": -111.947123
      },
      "distanceMeters": 23458.4,
      "durationMs": 5352000,
      "drivingDurationMs": 4359788,
      "idlingDurationMs": 992212,
      "fuelConsumedMl": 2983,
      "fuelConsumedGallons": 0.788,
      "maxSpeedMph": 27.4,
      "averageSpeedMph": 9.8,
      "safetyEvents": []
    },
    {
      "id": "trip_43088084_20250213_5940",
      "vehicleId": "43088084",
      "driverId": "20000037",
      "startMs": 1739441797000,
      "endMs": 1739443657000,
      "startAddress": "89157 John Crest Apt. 729",
      "endAddress": "0581 Donna Meadow",
      "startCoords": {
        "latitude": 40.702415,
        "longitude": -111.929403
      },
      "endCoords": {
        "latitude": 40.740952,
        "longitude": -111.819034
      },
      "distanceMeters": 10370.6,
      "durationMs": 1860000,
      "drivingDurationMs": 1440412,
      "idlingDurationMs": 419588,
      "fuelConsumedMl": 1317,
      "fuelConsumedGallons": 0.348,
      "maxSpeedMph": 31.0,
      "averageSpeedMph": 12.5,
      "safetyEvents": []
    },
    {
      "id": "trip_43088084_20250213_5992",
      "vehicleId": "43088084",
      "driverId": "20000033",
      "startMs": 1739465985000,
      "endMs": 1739474145000,
      "startAddress": "7929 Miller Corners Apt. 710",
      "endAddress": "75624 Tanner Camp",
      "startCoords": {
        "latitude": 40.661933,
        "longitude": -111.831006
      },
      "endCoords": {
        "latitude": 40.685901,
        "longitude": -111.801364
      },
      "distanceMeters": 50563.1,
      "durationMs": 8160000,
      "drivingDurationMs": 6575984,
      "idlingDurationMs": 1584016,
      "fuelConsumedMl": 6428,
      "fuelConsumedGallons": 1.698,
      "maxSpeedMph": 33.2,
      "averageSpeedMph": 13.9,
      "safetyEvents": []
    },
    {
      "id": "trip_43088084_20250213_6030",
      "vehicleId": "43088084",
      "driverId": "20000036",
      "startMs": 1739487711000,
      "endMs": 1739489931000,
      "startAddress": "9420 Martin Mountain",
      "endAddress": "352 Kane Fords Apt. 598",
      "startCoords": {
        "latitude": 40.703129,
        "longitude": -111.95037
      },
      "endCoords": {
        "latitude": 40.792988,
        "longitude": -111.781789
      },
      "distanceMeters": 11582.6,
      "durationMs": 2220000,
      "drivingDurationMs": 1833591,
      "idlingDurationMs": 386409,
      "fuelConsumedMl": 1473,
      "fuelConsumedGallons": 0.389,
      "maxSpeedMph": 34.8,
      "averageSpeedMph": 11.7,
      "safetyEvents": []
    },
    {
      "id": "trip_43088084_20250214_6088",
      "vehicleId": "43088084",
      "driverId": "20000037",
      "startMs": 1739523196000,
      "endMs": 1739537740000,
      "startAddress": "183 Combs Mill",
      "endAddress": "25394 Spencer Stream",
      "startCoords": {
        "latitude": 40.757516,
        "longitude": -111.860695
      },
      "endCoords": {
        "latitude": 40.685119,
        "longitude": -111.916977
      },
      "distanceMeters": 104089.4,
      "durationMs": 14544000,
      "drivingDurationMs": 12902139,
      "idlingDurationMs": 1641861,
      "fuelConsumedMl": 13234,
      "fuelConsumedGallons": 3.496,
      "maxSpeedMph": 37.3,
      "averageSpeedMph": 16.0,
      "safetyEvents": []
    },
    {
      "id": "trip_43088084_20250214_6128",
      "vehicleId": "43088084",
      "driverId": "20000034",
      "startMs": 1739544720000,
      "endMs": 1739547000000,
      "startAddress": "938 Hill Ville Suite 636",
      "endAddress": "38534 Tamara Common Suite 376",
      "startCoords": {
        "latitude": 40.751877,
        "longitude": -111.869018
      },
      "endCoords": {
        "latitude": 40.749402,
        "longitude": -111.909368
      },
      "distanceMeters": 11421.3,
      "durationMs": 2280000,
      "drivingDurationMs": 1813277,
      "idlingDurationMs": 466723,
      "fuelConsumedMl": 1454,
      "fuelConsumedGallons": 0.384,
      "maxSpeedMph": 26.0,
      "averageSpeedMph": 11.2,
      "safetyEvents": []
    },
    {
      "id": "trip_43088084_20250214_6179",
      "vehicleId": "43088084",
      "driverId": "20000037",
      "startMs": 1739573685000,
      "endMs": 1739574945000,
      "startAddress": "328 Nathan Drive Suite 722",
      "endAddress": "513 Amanda Rest",
      "startCoords": {
        "latitude": 40.684052,
        "longitude": -111.844334
      },
      "endCoords": {
        "latitude": 40.731313,
        "longitude": -111.937107
      },
      "distanceMeters": 6018.6,
      "durationMs": 1260000,
      "drivingDurationMs": 1011269,
      "idlingDurationMs": 248731,
      "fuelConsumedMl": 765,
      "fuelConsumedGallons": 0.202,
      "maxSpeedMph": 31.6,
      "averageSpeedMph": 10.7,
      "safetyEvents": []
    },
    {
      "id": "trip_43088084_20250215_6231",
      "vehicleId": "43088084",
      "driverId": "20000039",
      "startMs": 1739603947000,
      "endMs": 1739605267000,
      "startAddress": "13962 Flores Shores Apt. 441",
      "endAddress": "42882 Howell Parkways Apt. 053",
      "startCoords": {
        "latitude": 40.789938,
        "longitude": -111.960507
      },
      "endCoords": {
        "latitude": 40.795213,
        "longitude": -111.935409
      },
      "distanceMeters": 5961.7,
      "durationMs": 1320000,
      "drivingDurationMs": 1086702,
      "idlingDurationMs": 233298,
      "fuelConsumedMl": 757,
      "fuelConsumedGallons": 0.2,
      "maxSpeedMph": 29.7,
      "averageSpeedMph": 10.1,
      "safetyEvents": []
    },
    {
      "id": "trip_43088084_20250215_6278",
      "vehicleId": "43088084",
      "driverId": "20000039",
      "startMs": 1739627298000,
      "endMs": 1739631815000,
      "startAddress": "437 Schultz Mission Apt. 888",
      "endAddress": "34557 Mendez Hollow Apt. 879",
      "startCoords": {
        "latitude": 40.747237,
        "longitude": -111.829453
      },
      "endCoords": {
        "latitude": 40.766013,
        "longitude": -111.828283
      },
      "distanceMeters": 22111.2,
      "durationMs": 4517000,
      "drivingDurationMs": 3653377,
      "idlingDurationMs": 863623,
      "fuelConsumedMl": 2813,
      "fuelConsumedGallons": 0.743,
      "maxSpeedMph": 29.7,
      "averageSpeedMph": 11.0,
      "safetyEvents": []
    },
    {
      "id": "trip_43088084_20250215_6325",
      "vehicleId": "43088084",
      "driverId": "20000034",
      "startMs": 1739653174000,
      "endMs": 1739654854000,
      "startAddress": "839 Mark Spring",
      "endAddress": "550 Jamie Spring Apt. 302",
      "startCoords": {
        "latitude": 40.750829,
        "longitude": -111.782803
      },
      "endCoords": {
        "latitude": 40.736225,
        "longitude": -111.877294
      },
      "distanceMeters": 7954.1,
      "durationMs": 1680000,
      "drivingDurationMs": 1439479,
      "idlingDurationMs": 240521,
      "fuelConsumedMl": 1011,
      "fuelConsumedGallons": 0.267,
      "maxSpeedMph": 31.3,
      "averageSpeedMph": 10.6,
      "safetyEvents": []
    },
    {
      "id": "trip_43088084_20250216_6366",
      "vehicleId": "43088084",
      "driverId": "20000034",
      "startMs": 1739696009000,
      "endMs": 1739697449000,
      "startAddress": "096 Jerry Port Suite 875",
      "endAddress": "2351 Cruz Motorway Suite 664",
      "startCoords": {
        "latitude": 40.75451,
        "longitude": -111.806812
      },
      "endCoords": {
        "latitude": 40.667297,
        "longitude": -111.840859
      },
      "distanceMeters": 6613.3,
      "durationMs": 1440000,
      "drivingDurationMs": 1161422,
      "idlingDurationMs": 278578,
      "fuelConsumedMl": 840,
      "fuelConsumedGallons": 0.222,
      "maxSpeedMph": 38.6,
      "averageSpeedMph": 10.3,
      "safetyEvents": []
    },
    {
      "id": "trip_43088084_20250216_6401",
      "vehicleId": "43088084",
      "driverId": "20000038",
      "startMs": 1739733135000,
      "endMs": 1739735235000,
      "startAddress": "793 Gerald Dale Apt. 361",
      "endAddress": "7397 House Mews Apt. 500",
      "startCoords": {
        "latitude": 40.765179,
        "longitude": -111.841483
      },
      "endCoords": {
        "latitude": 40.794325,
        "longitude": -111.914766
      },
      "distanceMeters": 10831.8,
      "durationMs": 2100000,
      "drivingDurationMs": 1809461,
      "idlingDurationMs": 290539,
      "fuelConsumedMl": 1378,
      "fuelConsumedGallons": 0.364,
      "maxSpeedMph": 28.9,
      "averageSpeedMph": 11.5,
      "safetyEvents": []
    },
    {
      "id": "trip_43088084_20250217_6453",
      "vehicleId": "43088084",
      "driverId": "20000035",
      "startMs": 1739787374000,
      "endMs": 1739789294000,
      "startAddress": "9033 Dustin Falls Apt. 910",
      "endAddress": "4871 Sharon Shores",
      "startCoords": {
        "latitude": 40.678094,
        "longitude": -111.817046
      },
      "endCoords": {
        "latitude": 40.730138,
        "longitude": -111.88727
      },
      "distanceMeters": 11439.6,
      "durationMs": 1920000,
      "drivingDurationMs": 1679700,
      "idlingDurationMs": 240300,
      "fuelConsumedMl": 1454,
      "fuelConsumedGallons": 0.384,
      "maxSpeedMph": 33.7,
      "averageSpeedMph": 13.3,
      "safetyEvents": []
    },
    {
      "id": "trip_43088084_20250217_6498",
      "vehicleId": "43088084",
      "driverId": "20000035",
      "startMs": 1739809800000,
      "endMs": 1739811720000,
      "startAddress": "20760 Bryce Flats Apt. 345",
      "endAddress": "16074 Amy Ramp Apt. 695",
      "startCoords": {
        "latitude": 40.7492,
        "longitude": -111.950385
      },
      "endCoords": {
        "latitude": 40.676678,
        "longitude": -111.924041
      },
      "distanceMeters": 13343.3,
      "durationMs": 1920000,
      "drivingDurationMs": 1538410,
      "idlingDurationMs": 381590,
      "fuelConsumedMl": 1696,
      "fuelConsumedGallons": 0.448,
      "maxSpeedMph": 26.1,
      "averageSpeedMph": 15.5,
      "safetyEvents": []
    },
    {
      "id": "trip_43088084_20250217_6531",
      "vehicleId": "43088084",
      "driverId": "20000034",
      "startMs": 1739829127000,
      "endMs": 1739831287000,
      "startAddress": "504 Hawkins Station",
      "endAddress": "765 Kevin Mills",
      "startCoords": {
        "latitude": 40.748908,
        "longitude": -111.903036
      },
      "endCoords": {
        "latitude": 40.746051,
        "longitude": -111.84064
      },
      "distanceMeters": 13763.6,
      "durationMs": 2160000,
      "drivingDurationMs": 1638667,
      "idlingDurationMs": 521333,
      "fuelConsumedMl": 1749,
      "fuelConsumedGallons": 0.462,
      "maxSpeedMph": 34.5,
      "averageSpeedMph": 14.3,
      "safetyEvents": []
    },
    {
      "id": "trip_43088084_20250218_6592",
      "vehicleId": "43088084",
      "driverId": "20000039",
      "startMs": 1739866918000,
      "endMs": 1739868418000,
      "startAddress": "9757 Perkins Crossroad",
      "endAddress": "0375 Joshua Estates Apt. 859",
      "startCoords": {
        "latitude": 40.748953,
        "longitude": -111.907931
      },
      "endCoords": {
        "latitude": 40.795234,
        "longitude": -111.812196
      },
      "distanceMeters": 7762.8,
      "durationMs": 1500000,
      "drivingDurationMs": 1150190,
      "idlingDurationMs": 349810,
      "fuelConsumedMl": 988,
      "fuelConsumedGallons": 0.261,
      "maxSpeedMph": 26.0,
      "averageSpeedMph": 11.6,
      "safetyEvents": []
    },
    {
      "id": "trip_43088084_20250218_6641",
      "vehicleId": "43088084",
      "driverId": "20000036",
      "startMs": 1739893161000,
      "endMs": 1739908633000,
      "startAddress": "465 Benson Junction Apt. 710",
      "endAddress": "2443 Coffey Station Suite 857",
      "startCoords": {
        "latitude": 40.735181,
        "longitude": -111.874376
      },
      "endCoords": {
        "latitude": 40.674227,
        "longitude": -111.83096
      },
      "distanceMeters": 99220.9,
      "durationMs": 15472000,
      "drivingDurationMs": 12723512,
      "idlingDurationMs": 2748488,
      "fuelConsumedMl": 12617,
      "fuelConsumedGallons": 3.333,
      "maxSpeedMph": 32.9,
      "averageSpeedMph": 14.3,
      "safetyEvents": []
    },
    {
      "id": "trip_43088084_20250218_6692",
      "vehicleId": "43088084",
      "driverId": "20000033",
      "startMs": 1739916898000,
      "endMs": 1739919238000,
      "startAddress": "73136 Newton Grove Suite 090",
      "endAddress": "68929 Donaldson Meadow Apt. 915",
      "startCoords": {
        "latitude": 40.681637,
        "longitude": -111.89517
      },
      "endCoords": {
        "latitude": 40.736894,
        "longitude": -111.894521
      },
      "distanceMeters": 10981.0,
      "durationMs": 2340000,
      "drivingDurationMs": 1920475,
      "idlingDurationMs": 419525,
      "fuelConsumedMl": 1397,
      "fuelConsumedGallons": 0.369,
      "maxSpeedMph": 28.1,
      "averageSpeedMph": 10.5,
      "safetyEvents": []
    },
    {
      "id": "trip_43088084_20250219_6740",
      "vehicleId": "43088084",
      "driverId": "20000037",
      "startMs": 1739953404000,
      "endMs": 1739956399000,
      "startAddress": "3498 Ryan Corner Suite 380",
      "endAddress": "70793 Bradley Estates Suite 241",
      "startCoords": {
        "latitude": 40.717558,
        "longitude": -111.914316
      },
      "endCoords": {
        "latitude": 40.783824,
        "longitude": -111.80531
      },
      "distanceMeters": 13211.0,
      "durationMs": 2995000,
      "drivingDurationMs": 2443219,
      "idlingDurationMs": 551781,
      "fuelConsumedMl": 1681,
      "fuelConsumedGallons": 0.444,
      "maxSpeedMph": 33.9,
      "averageSpeedMph": 9.9,
      "safetyEvents": []
    },
    {
      "id": "trip_43088084_20250219_6796",
      "vehicleId": "43088084",
      "driverId": "20000034",
      "startMs": 1739981906000,
      "endMs": 1739983106000,
      "startAddress": "1608 Hernandez Haven Apt. 079",
      "endAddress": "59865 Wilson Overpass Suite 614",
      "startCoords": {
        "latitude": 40.702292,
        "longitude": -111.859674
      },
      "endCoords": {
        "latitude": 40.750312,
        "longitude": -111.828309
      },
      "distanceMeters": 6540.2,
      "durationMs": 1200000,
      "drivingDurationMs": 935701,
      "idlingDurationMs": 264299,
      "fuelConsumedMl": 833,
      "fuelConsumedGallons": 0.22,
      "maxSpeedMph": 33.1,
      "averageSpeedMph": 12.2,
      "safetyEvents": []
    },
    {
      "id": "trip_43088084_20250219_6835",
      "vehicleId": "43088084",
      "driverId": "20000034",
      "startMs": 1740004384000,
      "endMs": 1740006424000,
      "startAddress": "75461 Kayla Lake Suite 953",
      "endAddress": "1708 Kramer Land",
      "startCoords": {
        "latitude": 40.678474,
        "longitude": -111.914294
      },
      "endCoords": {
        "latitude": 40.741924,
        "longitude": -111.782194
      },
      "distanceMeters": 11520.4,
      "durationMs": 2040000,
      "drivingDurationMs": 1669122,
      "idlingDurationMs": 370878,
      "fuelConsumedMl": 1465,
      "fuelConsumedGallons": 0.387,
      "maxSpeedMph": 26.8,
      "averageSpeedMph": 12.6,
      "safetyEvents": []
    },
    {
      "id": "trip_43088084_20250220_6880",
      "vehicleId": "43088084",
      "driverId": "20000033",
      "startMs": 1740032876000,
      "endMs": 1740034856000,
      "startAddress": "357 Anna Ferry Suite 571",
      "endAddress": "84689 Matthew Underpass Suite 582",
      "startCoords": {
        "latitude": 40.695642,
        "longitude": -111.822511
      },
      "endCoords": {
        "latitude": 40.78009,
        "longitude": -111.938249
      },
      "distanceMeters": 12346.8,
      "durationMs": 1980000,
      "drivingDurationMs": 1509827,
      "idlingDurationMs": 470173,
      "fuelConsumedMl": 1571,
      "fuelConsumedGallons": 0.415,
      "maxSpeedMph": 29.6,
      "averageSpeedMph": 13.9,
      "safetyEvents": []
    },
    {
      "id": "trip_43088084_20250220_6918",
      "vehicleId": "43088084",
      "driverId": "20000034",
      "startMs": 1740050031000,
      "endMs": 1740053631000,
      "startAddress": "587 Bethany Way",
      "endAddress": "92971 Alexandra Trace",
      "startCoords": {
        "latitude": 40.772792,
        "longitude": -111.914298
      },
      "endCoords": {
        "latitude": 40.68264,
        "longitude": -111.910749
      },
      "distanceMeters": 23410.8,
      "durationMs": 3600000,
      "drivingDurationMs": 3059551,
      "idlingDurationMs": 540449,
      "fuelConsumedMl": 2975,
      "fuelConsumedGallons": 0.786,
      "maxSpeedMph": 36.6,
      "averageSpeedMph": 14.5,
      "safetyEvents": []
    },
    {
      "id": "trip_43088084_20250220_6955",
      "vehicleId": "43088084",
      "driverId": "20000034",
      "startMs": 1740064757000,
      "endMs": 1740067337000,
      "startAddress": "2029 Amber Fall Apt. 348",
      "endAddress": "504 Jennifer Summit",
      "startCoords": {
        "latitude": 40.683822,
        "longitude": -111.944444
      },
      "endCoords": {
        "latitude": 40.729791,
        "longitude": -111.817553
      },
      "distanceMeters": 15977.3,
      "durationMs": 2580000,
      "drivingDurationMs": 2079523,
      "idlingDurationMs": 500477,
      "fuelConsumedMl": 2033,
      "fuelConsumedGallons": 0.537,
      "maxSpeedMph": 26.7,
      "averageSpeedMph": 13.9,
      "safetyEvents": []
    },
    {
      "id": "trip_43088084_20250220_6998",
      "vehicleId": "43088084",
      "driverId": "20000037",
      "startMs": 1740084464000,
      "endMs": 1740090676000,
      "startAddress": "19989 Miller Union",
      "endAddress": "56586 Evans Cove",
      "startCoords": {
        "latitude": 40.777648,
        "longitude": -111.958511
      },
      "endCoords": {
        "latitude": 40.694444,
        "longitude": -111.950083
      },
      "distanceMeters": 45882.0,
      "durationMs": 6212000,
      "drivingDurationMs": 5384427,
      "idlingDurationMs": 827573,
      "fuelConsumedMl": 5833,
      "fuelConsumedGallons": 1.541,
      "maxSpeedMph": 34.5,
      "averageSpeedMph": 16.5,
      "safetyEvents": []
    },
    {
      "id": "trip_43088084_20250221_7053",
      "vehicleId": "43088084",
      "driverId": "20000033",
      "startMs": 1740119928000,
      "endMs": 1740128073000,
      "startAddress": "09576 Brown Rapid",
      "endAddress": "9671 Deborah Loaf",
      "startCoords": {
        "latitude": 40.688637,
        "longitude": -111.875807
      },
      "endCoords": {
        "latitude": 40.720506,
        "longitude": -111.78964
      },
      "distanceMeters": 45506.9,
      "durationMs": 8145000,
      "drivingDurationMs": 6512219,
      "idlingDurationMs": 1632781,
      "fuelConsumedMl": 5784,
      "fuelConsumedGallons": 1.528,
      "maxSpeedMph": 33.9,
      "averageSpeedMph": 12.5,
      "safetyEvents": []
    },
    {
      "id": "trip_43088084_20250221_7105",
      "vehicleId": "43088084",
      "driverId": "20000036",
      "startMs": 1740149938000,
      "endMs": 1740155588000,
      "startAddress": "134 Zhang Orchard",
      "endAddress": "2901 Donovan Summit",
      "startCoords": {
        "latitude": 40.771762,
        "longitude": -111.818782
      },
      "endCoords": {
        "latitude": 40.748707,
        "longitude": -111.928468
      },
      "distanceMeters": 29209.3,
      "durationMs": 5650000,
      "drivingDurationMs": 4308072,
      "idlingDurationMs": 1341928,
      "fuelConsumedMl": 3713,
      "fuelConsumedGallons": 0.981,
      "maxSpeedMph": 26.8,
      "averageSpeedMph": 11.6,
      "safetyEvents": []
    },
    {
      "id": "trip_43088084_20250221_7148",
      "vehicleId": "43088084",
      "driverId": "20000037",
      "startMs": 1740167630000,
      "endMs": 1740173778000,
      "startAddress": "356 Davis Greens",
      "endAddress": "2486 Mccann Track Suite 913",
      "startCoords": {
        "latitude": 40.703932,
        "longitude": -111.933728
      },
      "endCoords": {
        "latitude": 40.678797,
        "longitude": -111.94571
      },
      "distanceMeters": 39114.6,
      "durationMs": 6148000,
      "drivingDurationMs": 5258607,
      "idlingDurationMs": 889393,
      "fuelConsumedMl": 4974,
      "fuelConsumedGallons": 1.314,
      "maxSpeedMph": 29.5,
      "averageSpeedMph": 14.2,
      "safetyEvents": []
    },
    {
      "id": "trip_43088084_20250222_7193",
      "vehicleId": "43088084",
      "driverId": "20000033",
      "startMs": 1740196484000,
      "endMs": 1740203448000,
      "startAddress": "704 Carol Prairie Suite 531",
      "endAddress": "76644 Castillo Parkways",
      "startCoords": {
        "latitude": 40.708736,
        "longitude": -111.823231
      },
      "endCoords": {
        "latitude": 40.658189,
        "longitude": -111.894445
      },
      "distanceMeters": 40838.9,
      "durationMs": 6964000,
      "drivingDurationMs": 5838438,
      "idlingDurationMs": 1125562,
      "fuelConsumedMl": 5194,
      "fuelConsumedGallons": 1.372,
      "maxSpeedMph": 39.3,
      "averageSpeedMph": 13.1,
      "safetyEvents": []
    },
    {
      "id": "trip_43088084_20250222_7232",
      "vehicleId": "43088084",
      "driverId": "20000039",
      "startMs": 1740218787000,
      "endMs": 1740222534000,
      "startAddress": "16321 Lisa Islands Suite 882",
      "endAddress": "974 Cortez Greens",
      "startCoords": {
        "latitude": 40.788761,
        "longitude": -111.880412
      },
      "endCoords": {
        "latitude": 40.784941,
        "longitude": -111.841297
      },
      "distanceMeters": 15754.5,
      "durationMs": 3747000,
      "drivingDurationMs": 3006119,
      "idlingDurationMs": 740881,
      "fuelConsumedMl": 2002,
      "fuelConsumedGallons": 0.529,
      "maxSpeedMph": 31.5,
      "averageSpeedMph": 9.4,
      "safetyEvents": []
    },
    {
      "id": "trip_43088084_20250222_7273",
      "vehicleId": "43088084",
      "driverId": "20000036",
      "startMs": 1740244921000,
      "endMs": 1740253283000,
      "startAddress": "03678 Smith Walks Apt. 550",
      "endAddress": "84045 Sara Fall Suite 993",
      "startCoords": {
        "latitude": 40.72827,
        "longitude": -111.872568
      },
      "endCoords": {
        "latitude": 40.694475,
        "longitude": -111.938005
      },
      "distanceMeters": 49425.0,
      "durationMs": 8362000,
      "drivingDurationMs": 6835035,
      "idlingDurationMs": 1526965,
      "fuelConsumedMl": 6284,
      "fuelConsumedGallons": 1.66,
      "maxSpeedMph": 38.0,
      "averageSpeedMph": 13.2,
      "safetyEvents": []
    },
    {
      "id": "trip_43088084_20250222_7303",
      "vehicleId": "43088084",
      "driverId": "20000035",
      "startMs": 1740260572000,
      "endMs": 1740268430000,
      "startAddress": "24305 Phillips Mountains Suite 839",
      "endAddress": "4824 Malone Bypass Suite 960",
      "startCoords": {
        "latitude": 40.792062,
        "longitude": -111.920682
      },
      "endCoords": {
        "latitude": 40.685319,
        "longitude": -111.825097
      },
      "distanceMeters": 46153.5,
      "durationMs": 7858000,
      "drivingDurationMs": 6089994,
      "idlingDurationMs": 1768006,
      "fuelConsumedMl": 5867,
      "fuelConsumedGallons": 1.55,
      "maxSpeedMph": 32.6,
      "averageSpeedMph": 13.1,
      "safetyEvents": []
    },
    {
      "id": "trip_43088084_20250223_7360",
      "vehicleId": "43088084",
      "driverId": "20000036",
      "startMs": 1740305995000,
      "endMs": 1740309680000,
      "startAddress": "573 Patrick Mills Suite 996",
      "endAddress": "94952 Trevor Drive",
      "startCoords": {
        "latitude": 40.796146,
        "longitude": -111.936542
      },
      "endCoords": {
        "latitude": 40.69502,
        "longitude": -111.891366
      },
      "distanceMeters": 23386.7,
      "durationMs": 3685000,
      "drivingDurationMs": 2781668,
      "idlingDurationMs": 903332,
      "fuelConsumedMl": 2975,
      "fuelConsumedGallons": 0.786,
      "maxSpeedMph": 28.1,
      "averageSpeedMph": 14.2,
      "safetyEvents": []
    },
    {
      "id": "trip_43088084_20250223_7396",
      "vehicleId": "43088084",
      "driverId": "20000033",
      "startMs": 1740334123000,
      "endMs": 1740335863000,
      "startAddress": "426 Flores Park",
      "endAddress": "333 Smith Rapid Apt. 538",
      "startCoords": {
        "latitude": 40.690247,
        "longitude": -111.927488
      },
      "endCoords": {
        "latitude": 40.696638,
        "longitude": -111.778284
      },
      "distanceMeters": 9730.1,
      "durationMs": 1740000,
      "drivingDurationMs": 1445659,
      "idlingDurationMs": 294341,
      "fuelConsumedMl": 1238,
      "fuelConsumedGallons": 0.327,
      "maxSpeedMph": 31.5,
      "averageSpeedMph": 12.5,
      "safetyEvents": []
    },
    {
      "id": "trip_43088084_20250224_7454",
      "vehicleId": "43088084",
      "driverId": "20000034",
      "startMs": 1740393995000,
      "endMs": 1740396335000,
      "startAddress": "052 Sawyer Plaza Suite 676",
      "endAddress": "73199 Raymond Haven",
      "startCoords": {
        "latitude": 40.66911,
        "longitude": -111.826223
      },
      "endCoords": {
        "latitude": 40.796852,
        "longitude": -111.799346
      },
      "distanceMeters": 12540.4,
      "durationMs": 2340000,
      "drivingDurationMs": 2044186,
      "idlingDurationMs": 295814,
      "fuelConsumedMl": 1594,
      "fuelConsumedGallons": 0.421,
      "maxSpeedMph": 34.2,
      "averageSpeedMph": 12.0,
      "safetyEvents": []
    },
    {
      "id": "trip_43088084_20250224_7494",
      "vehicleId": "43088084",
      "driverId": "20000039",
      "startMs": 1740415145000,
      "endMs": 1740416525000,
      "startAddress": "4826 Vasquez Ports Suite 552",
      "endAddress": "96813 Nicole Forks",
      "startCoords": {
        "latitude": 40.789812,
        "longitude": -111.84681
      },
      "endCoords": {
        "latitude": 40.732436,
        "longitude": -111.859457
      },
      "distanceMeters": 6292.0,
      "durationMs": 1380000,
      "drivingDurationMs": 1082982,
      "idlingDurationMs": 297018,
      "fuelConsumedMl": 799,
      "fuelConsumedGallons": 0.211,
      "maxSpeedMph": 39.4,
      "averageSpeedMph": 10.2,
      "safetyEvents": []
    },
    {
      "id": "trip_43088084_20250224_7537",
      "vehicleId": "43088084",
      "driverId": "20000037",
      "startMs": 1740438540000,
      "endMs": 1740444575000,
      "startAddress": "5285 Michael Plaza",
      "endAddress": "97518 Ramirez Crossing",
      "startCoords": {
        "latitude": 40.772972,
        "longitude": -111.931985
      },
      "endCoords": {
        "latitude": 40.777415,
        "longitude": -111.811353
      },
      "distanceMeters": 32750.9,
      "durationMs": 6035000,
      "drivingDurationMs": 4781832,
      "idlingDurationMs": 1253168,
      "fuelConsumedMl": 4164,
      "fuelConsumedGallons": 1.1,
      "maxSpeedMph": 36.8,
      "averageSpeedMph": 12.1,
      "safetyEvents": []
    },
    {
      "id": "trip_43088084_20250225_7581",
      "vehicleId": "43088084",
      "driverId": "20000038",
      "startMs": 1740469697000,
      "endMs": 1740471455000,
      "startAddress": "47346 James Mill",
      "endAddress": "4534 Sara Spring Apt. 027",
      "startCoords": {
        "latitude": 40.707799,
        "longitude": -111.925971
      },
      "endCoords": {
        "latitude": 40.701673,
        "longitude": -111.914132
      },
      "distanceMeters": 12473.0,
      "durationMs": 1758000,
      "drivingDurationMs": 1460648,
      "idlingDurationMs": 297352,
      "fuelConsumedMl": 1586,
      "fuelConsumedGallons": 0.419,
      "maxSpeedMph": 39.1,
      "averageSpeedMph": 15.9,
      "safetyEvents": []
    },
    {
      "id": "trip_43088084_20250225_7621",
      "vehicleId": "43088084",
      "driverId": "20000036",
      "startMs": 1740491421000,
      "endMs": 1740493581000,
      "startAddress": "468 Heather Mountains Suite 882",
      "endAddress": "8200 Alicia Islands Suite 769",
      "startCoords": {
        "latitude": 40.759066,
        "longitude": -111.853845
      },
      "endCoords": {
        "latitude": 40.773874,
        "longitude": -111.948664
      },
      "distanceMeters": 10000.0,
      "durationMs": 2160000,
      "drivingDurationMs": 1852188,
      "idlingDurationMs": 307812,
      "fuelConsumedMl": 1272,
      "fuelConsumedGallons": 0.336,
      "maxSpeedMph": 32.2,
      "averageSpeedMph": 10.4,
      "safetyEvents": []
    },
    {
      "id": "trip_43088084_20250226_7688",
      "vehicleId": "43088084",
      "driverId": "20000033",
      "startMs": 1740528671000,
      "endMs": 1740530831000,
      "startAddress": "46132 Nicholas Extensions",
      "endAddress": "509 Ward Parks Apt. 413",
      "startCoords": {
        "latitude": 40.743013,
        "longitude": -111.812222
      },
      "endCoords": {
        "latitude": 40.684478,
        "longitude": -111.898051
      },
      "distanceMeters": 9938.8,
      "durationMs": 2160000,
      "drivingDurationMs": 1781633,
      "idlingDurationMs": 378367,
      "fuelConsumedMl": 1264,
      "fuelConsumedGallons": 0.334,
      "maxSpeedMph": 35.2,
      "averageSpeedMph": 10.3,
      "safetyEvents": []
    },
    {
      "id": "trip_43088084_20250226_7741",
      "vehicleId": "43088084",
      "driverId": "20000037",
      "startMs": 1740559348000,
      "endMs": 1740561328000,
      "startAddress": "9567 Belinda Lakes Apt. 233",
      "endAddress": "1062 George Way Suite 067",
      "startCoords": {
        "latitude": 40.727658,
        "longitude": -111.919463
      },
      "endCoords": {
        "latitude": 40.740834,
        "longitude": -111.846486
      },
      "distanceMeters": 10748.5,
      "durationMs": 1980000,
      "drivingDurationMs": 1498732,
      "idlingDurationMs": 481268,
      "fuelConsumedMl": 1367,
      "fuelConsumedGallons": 0.361,
      "maxSpeedMph": 33.7,
      "averageSpeedMph": 12.1,
      "safetyEvents": []
    },
    {
      "id": "trip_43088084_20250226_7789",
      "vehicleId": "43088084",
      "driverId": "20000039",
      "startMs": 1740585660000,
      "endMs": 1740587700000,
      "startAddress": "65230 Murphy Fords Suite 111",
      "endAddress": "683 Jordan Spur",
      "startCoords": {
        "latitude": 40.680721,
        "longitude": -111.952627
      },
      "endCoords": {
        "latitude": 40.746552,
        "longitude": -111.905486
      },
      "distanceMeters": 9465.7,
      "durationMs": 2040000,
      "drivingDurationMs": 1735505,
      "idlingDurationMs": 304495,
      "fuelConsumedMl": 1204,
      "fuelConsumedGallons": 0.318,
      "maxSpeedMph": 30.8,
      "averageSpeedMph": 10.4,
      "safetyEvents": []
    },
    {
      "id": "trip_43088084_20250227_7863",
      "vehicleId": "43088084",
      "driverId": "20000034",
      "startMs": 1740632025000,
      "endMs": 1740633525000,
      "startAddress": "28104 Kevin Shoals",
      "endAddress": "377 Michael Springs Suite 249",
      "startCoords": {
        "latitude": 40.657536,
        "longitude": -111.799277
      },
      "endCoords": {
        "latitude": 40.799317,
        "longitude": -111.927255
      },
      "distanceMeters": 6593.0,
      "durationMs": 1500000,
      "drivingDurationMs": 1162926,
      "idlingDurationMs": 337074,
      "fuelConsumedMl": 837,
      "fuelConsumedGallons": 0.221,
      "maxSpeedMph": 33.9,
      "averageSpeedMph": 9.8,
      "safetyEvents": []
    },
    {
      "id": "trip_43088084_20250227_7912",
      "vehicleId": "43088084",
      "driverId": "20000036",
      "startMs": 1740656716000,
      "endMs": 1740679412000,
      "startAddress": "7762 Aguilar Ways",
      "endAddress": "269 Powell Lock Apt. 455",
      "startCoords": {
        "latitude": 40.715993,
        "longitude": -111.878519
      },
      "endCoords": {
        "latitude": 40.661847,
        "longitude": -111.785021
      },
      "distanceMeters": 114520.8,
      "durationMs": 22696000,
      "drivingDurationMs": 17677520,
      "idlingDurationMs": 5018480,
      "fuelConsumedMl": 14559,
      "fuelConsumedGallons": 3.846,
      "maxSpeedMph": 35.9,
      "averageSpeedMph": 11.3,
      "safetyEvents": []
    },
    {
      "id": "trip_43088084_20250227_7956",
      "vehicleId": "43088084",
      "driverId": "20000034",
      "startMs": 1740679434000,
      "endMs": 1740690433000,
      "startAddress": "68539 Fritz Fall Suite 495",
      "endAddress": "5125 Brittany Mission",
      "startCoords": {
        "latitude": 40.730967,
        "longitude": -111.775278
      },
      "endCoords": {
        "latitude": 40.671218,
        "longitude": -111.892694
      },
      "distanceMeters": 77655.3,
      "durationMs": 10999000,
      "drivingDurationMs": 8946278,
      "idlingDurationMs": 2052722,
      "fuelConsumedMl": 9872,
      "fuelConsumedGallons": 2.608,
      "maxSpeedMph": 27.1,
      "averageSpeedMph": 15.8,
      "safetyEvents": []
    },
    {
      "id": "trip_43088084_20250228_8001",
      "vehicleId": "43088084",
      "driverId": "20000035",
      "startMs": 1740710500000,
      "endMs": 1740712360000,
      "startAddress": "1211 Brandi Manor",
      "endAddress": "4193 Bailey Gateway",
      "startCoords": {
        "latitude": 40.718476,
        "longitude": -111.891483
      },
      "endCoords": {
        "latitude": 40.71267,
        "longitude": -111.835697
      },
      "distanceMeters": 12918.2,
      "durationMs": 1860000,
      "drivingDurationMs": 1523317,
      "idlingDurationMs": 336683,
      "fuelConsumedMl": 1643,
      "fuelConsumedGallons": 0.434,
      "maxSpeedMph": 31.5,
      "averageSpeedMph": 15.5,
      "safetyEvents": []
    },
    {
      "id": "trip_43088084_20250228_8048",
      "vehicleId": "43088084",
      "driverId": "20000033",
      "startMs": 1740737882000,
      "endMs": 1740739802000,
      "startAddress": "295 Stephanie Branch",
      "endAddress": "772 Coleman Ferry",
      "startCoords": {
        "latitude": 40.788919,
        "longitude": -111.849852
      },
      "endCoords": {
        "latitude": 40.703777,
        "longitude": -111.946277
      },
      "distanceMeters": 13623.8,
      "durationMs": 1920000,
      "drivingDurationMs": 1679894,
      "idlingDurationMs": 240106,
      "fuelConsumedMl": 1734,
      "fuelConsumedGallons": 0.458,
      "maxSpeedMph": 33.8,
      "averageSpeedMph": 15.9,
      "safetyEvents": []
    },
    {
      "id": "trip_43088084_20250228_8090",
      "vehicleId": "43088084",
      "driverId": "20000036",
      "startMs": 1740760957000,
      "endMs": 1740772645000,
      "startAddress": "03880 Jose Glen Suite 593",
      "endAddress": "2828 Rivera Ridges",
      "startCoords": {
        "latitude": 40.698921,
        "longitude": -111.954803
      },
      "endCoords": {
        "latitude": 40.77408,
        "longitude": -111.914981
      },
      "distanceMeters": 52335.2,
      "durationMs": 11688000,
      "drivingDurationMs": 10237858,
      "idlingDurationMs": 1450142,
      "fuelConsumedMl": 6655,
      "fuelConsumedGallons": 1.758,
      "maxSpeedMph": 30.9,
      "averageSpeedMph": 10.0,
      "safetyEvents": []
    }
  ]
}