{
  "vehicleId": "41090742",
  "vehicleName": "DEN-MOTO-04",
  "month": "2025_02",
  "pagination": {
    "endCursor": "trip_41090742_20250228_012",
    "hasNextPage": false
  },
  "trips": [
    {
      "id": "trip_41090742_20250201_001",
      "vehicleId": "41090742",
      "driverId": "20000008",
      "startMs": 1738415580000,
      "endMs": 1738417687869,
      "startAddress": "74959 Ross Drives",
      "endAddress": "24499 Riley Valleys Suite 761",
      "startCoords": {
        "latitude": 39.733499,
        "longitude": -105.00282
      },
      "endCoords": {
        "latitude": 39.720586,
        "longitude": -105.036146
      },
      "distanceMeters": 12459.2,
      "durationMs": 2107870,
      "drivingDurationMs": 1818940,
      "idlingDurationMs": 288930,
      "fuelConsumedMl": 564,
      "fuelConsumedGallons": 0.149,
      "maxSpeedMph": 68.0,
      "averageSpeedMph": 13.2,
      "safetyEvents": [
        {
          "type": "speeding",
          "startMs": 1738417500000,
          "maxSpeedMph": 68.0
        }
      ]
    },
    {
      "id": "trip_41090742_20250201_002",
      "vehicleId": "41090742",
      "driverId": "20000008",
      "startMs": 1738429620000,
      "endMs": 1738430672964,
      "startAddress": "50315 Jessica Ways Suite 245",
      "endAddress": "1068 Wendy Centers Apt. 178",
      "startCoords": {
        "latitude": 39.777309,
        "longitude": -104.967786
      },
      "endCoords": {
        "latitude": 39.71863,
        "longitude": -104.975254
      },
      "distanceMeters": 5758.8,
      "durationMs": 1052964,
      "drivingDurationMs": 844669,
      "idlingDurationMs": 208295,
      "fuelConsumedMl": 261,
      "fuelConsumedGallons": 0.069,
      "maxSpeedMph": 41.8,
      "averageSpeedMph": 12.2,
      "safetyEvents": []
    },
    {
      "id": "trip_41090742_20250201_003",
      "vehicleId": "41090742",
      "driverId": "20000008",
      "startMs": 1738389780000,
      "endMs": 1738391782709,
      "startAddress": "0916 Johnny Route",
      "endAddress": "7461 Andrea Pines Apt. 810",
      "startCoords": {
        "latitude": 39.717707,
        "longitude": -105.028992
      },
      "endCoords": {
        "latitude": 39.818502,
        "longitude": -105.062415
      },
      "distanceMeters": 15335.2,
      "durationMs": 2002709,
      "drivingDurationMs": 1603714,
      "idlingDurationMs": 398996,
      "fuelConsumedMl": 693,
      "fuelConsumedGallons": 0.183,
      "maxSpeedMph": 59.6,
      "averageSpeedMph": 17.1,
      "safetyEvents": []
    },
    {
      "id": "trip_41090742_20250201_004",
      "vehicleId": "41090742",
      "driverId": "20000008",
      "startMs": 1738418280000,
      "endMs": 1738418650739,
      "startAddress": "9266 Carolyn Burg",
      "endAddress": "820 Isaac Inlet",
      "startCoords": {
        "latitude": 39.771548,
        "longitude": -105.083563
      },
      "endCoords": {
        "latitude": 39.746471,
        "longitude": -105.038781
      },
      "distanceMeters": 2388.1,
      "durationMs": 370739,
      "drivingDurationMs": 233841,
      "idlingDurationMs": 136898,
      "fuelConsumedMl": 110,
      "fuelConsumedGallons": 0.029,
      "maxSpeedMph": 50.3,
      "averageSpeedMph": 14.4,
      "safetyEvents": []
    },
    {
      "id": "trip_41090742_20250201_005",
      "vehicleId": "41090742",
      "driverId": "20000008",
      "startMs": 1738393980000,
      "endMs": 1738397455455,
      "startAddress": "13204 Wong Flats Apt. 439",
      "endAddress": "636 Ruiz Tunnel",
      "startCoords": {
        "latitude": 39.800535,
        "longitude": -105.007066
      },
      "endCoords": {
        "latitude": 39.715818,
        "longitude": -104.995431
      },
      "distanceMeters": 24770.9,
      "durationMs": 3475456,
      "drivingDurationMs": 2981930,
      "idlingDurationMs": 493526,
      "fuelConsumedMl": 1120,
      "fuelConsumedGallons": 0.296,
      "maxSpeedMph": 45.2,
      "averageSpeedMph": 15.9,
      "safetyEvents": []
    },
    {
      "id": "trip_41090742_20250201_006",
      "vehicleId": "41090742",
      "driverId": "20000008",
      "startMs": 1738422480000,
      "endMs": 1738423957754,
      "startAddress": "0604 Dawn Lights",
      "endAddress": "04717 Lynn Mill",
      "startCoords": {
        "latitude": 39.776908,
        "longitude": -105.066695
      },
      "endCoords": {
        "latitude": 39.814591,
        "longitude": -105.032277
      },
      "distanceMeters": 8046.7,
      "durationMs": 1477755,
      "drivingDurationMs": 1253608,
      "idlingDurationMs": 224147,
      "fuelConsumedMl": 363,
      "fuelConsumedGallons": 0.096,
      "maxSpeedMph": 68.3,
      "averageSpeedMph": 12.2,
      "safetyEvents": [
        {
          "type": "speeding",
          "startMs": 1738423140000,
          "maxSpeedMph": 68.3
        }
      ]
    },
    {
      "id": "trip_41090742_20250201_007",
      "vehicleId": "41090742",
      "driverId": "20000008",
      "startMs": 1738434660000,
      "endMs": 1738436431308,
      "startAddress": "39445 Williams Wells",
      "endAddress": "2397 Michelle Square",
      "startCoords": {
        "latitude": 39.731022,
        "longitude": -105.068253
      },
      "endCoords": {
        "latitude": 39.768112,
        "longitude": -104.973824
      },
      "distanceMeters": 16009.8,
      "durationMs": 1771309,
      "drivingDurationMs": 1525352,
      "idlingDurationMs": 245957,
      "fuelConsumedMl": 723,
      "fuelConsumedGallons": 0.191,
      "maxSpeedMph": 63.1,
      "averageSpeedMph": 20.2,
      "safetyEvents": []
    },
    {
      "id": "trip_41090742_20250201_008",
      "vehicleId": "41090742",
      "driverId": "20000008",
      "startMs": 1738414080000,
      "endMs": 1738414550051,
      "startAddress": "80194 Angela Valley",
      "endAddress": "263 Jessica View Apt. 288",
      "startCoords": {
        "latitude": 39.824671,
        "longitude": -104.919998
      },
      "endCoords": {
        "latitude": 39.6946,
        "longitude": -104.964086
      },
      "distanceMeters": 3396.0,
      "durationMs": 470052,
      "drivingDurationMs": 330891,
      "idlingDurationMs": 139160,
      "fuelConsumedMl": 155,
      "fuelConsumedGallons": 0.041,
      "maxSpeedMph": 62.5,
      "averageSpeedMph": 16.2,
      "safetyEvents": []
    },
    {
      "id": "trip_41090742_20250201_009",
      "vehicleId": "41090742",
      "driverId": "20000008",
      "startMs": 1738389780000,
      "endMs": 1738393034152,
      "startAddress": "49776 Vincent Crossing",
      "endAddress": "8465 Wilson Locks",
      "startCoords": {
        "latitude": 39.774356,
        "longitude": -105.041669
      },
      "endCoords": {
        "latitude": 39.705247,
        "longitude": -104.920868
      },
      "distanceMeters": 24737.8,
      "durationMs": 3254152,
      "drivingDurationMs": 2819364,
      "idlingDurationMs": 434789,
      "fuelConsumedMl": 1120,
      "fuelConsumedGallons": 0.296,
      "maxSpeedMph": 32.6,
      "averageSpeedMph": 17.0,
      "safetyEvents": []
    },
    {
      "id": "trip_41090742_20250201_010",
      "vehicleId": "41090742",
      "driverId": "20000008",
      "startMs": 1738416600000,
      "endMs": 1738420578806,
      "startAddress": "76419 Victoria Coves",
      "endAddress": "781 Scott Springs",
      "startCoords": {
        "latitude": 39.766963,
        "longitude": -105.019292
      },
      "endCoords": {
        "latitude": 39.714317,
        "longitude": -104.940219
      },
      "distanceMeters": 24897.5,
      "durationMs": 3978807,
      "drivingDurationMs": 3421896,
      "idlingDurationMs": 556911,
      "fuelConsumedMl": 1128,
      "fuelConsumedGallons": 0.298,
      "maxSpeedMph": 52.5,
      "averageSpeedMph": 14.0,
      "safetyEvents": []
    },
    {
      "id": "trip_41090742_20250201_011",
      "vehicleId": "41090742",
      "driverId": "20000008",
      "startMs": 1738429620000,
      "endMs": 1738430867382,
      "startAddress": "0973 Mike Cliffs",
      "endAddress": "607 Robert Cliff Suite 959",
      "startCoords": {
        "latitude": 39.726822,
        "longitude": -104.947393
      },
      "endCoords": {
        "latitude": 39.783143,
        "longitude": -104.976771
      },
      "distanceMeters": 10338.4,
      "durationMs": 1247382,
      "drivingDurationMs": 1041474,
      "idlingDurationMs": 205908,
      "fuelConsumedMl": 469,
      "fuelConsumedGallons": 0.124,
      "maxSpeedMph": 71.4,
      "averageSpeedMph": 18.5,
      "safetyEvents": [
        {
          "type": "speeding",
          "startMs": 1738429980000,
          "maxSpeedMph": 71.4
        }
      ]
    },
    {
      "id": "trip_41090742_20250203_001",
      "vehicleId": "41090742",
      "driverId": "20000019",
      "startMs": 1738605360000,
      "endMs": 1738607840326,
      "startAddress": "73298 William Hill Apt. 731",
      "endAddress": "4398 Linda Canyon",
      "startCoords": {
        "latitude": 39.818447,
        "longitude": -104.926478
      },
      "endCoords": {
        "latitude": 39.733699,
        "longitude": -104.93604
      },
      "distanceMeters": 19095.9,
      "durationMs": 2480326,
      "drivingDurationMs": 2003753,
      "idlingDurationMs": 476573,
      "fuelConsumedMl": 863,
      "fuelConsumedGallons": 0.228,
      "maxSpeedMph": 47.7,
      "averageSpeedMph": 17.2,
      "safetyEvents": []
    },
    {
      "id": "trip_41090742_20250203_002",
      "vehicleId": "41090742",
      "driverId": "20000019",
      "startMs": 1738587720000,
      "endMs": 1738590706786,
      "startAddress": "404 Cindy Forge",
      "endAddress": "11488 Potter Green",
      "startCoords": {
        "latitude": 39.821873,
        "longitude": -104.922189
      },
      "endCoords": {
        "latitude": 39.79897,
        "longitude": -104.970687
      },
      "distanceMeters": 20935.1,
      "durationMs": 2986787,
      "drivingDurationMs": 2736457,
      "idlingDurationMs": 250330,
      "fuelConsumedMl": 946,
      "fuelConsumedGallons": 0.25,
      "maxSpeedMph": 58.8,
      "averageSpeedMph": 15.7,
      "safetyEvents": []
    },
    {
      "id": "trip_41090742_20250203_003",
      "vehicleId": "41090742",
      "driverId": "20000019",
      "startMs": 1738565100000,
      "endMs": 1738568389381,
      "startAddress": "013 Jamie Field Apt. 534",
      "endAddress": "07411 Lindsey Tunnel",
      "startCoords": {
        "latitude": 39.769551,
        "longitude": -105.010353
      },
      "endCoords": {
        "latitude": 39.77236,
        "longitude": -105.041383
      },
      "distanceMeters": 23427.3,
      "durationMs": 3289382,
      "drivingDurationMs": 2750844,
      "idlingDurationMs": 538538,
      "fuelConsumedMl": 1060,
      "fuelConsumedGallons": 0.28,
      "maxSpeedMph": 46.7,
      "averageSpeedMph": 15.9,
      "safetyEvents": []
    },
    {
      "id": "trip_41090742_20250203_004",
      "vehicleId": "41090742",
      "driverId": "20000019",
      "startMs": 1738603200000,
      "endMs": 1738605429443,
      "startAddress": "428 King Center",
      "endAddress": "529 Munoz Dale",
      "startCoords": {
        "latitude": 39.730467,
        "longitude": -105.068467
      },
      "endCoords": {
        "latitude": 39.813846,
        "longitude": -105.086359
      },
      "distanceMeters": 18744.2,
      "durationMs": 2229443,
      "drivingDurationMs": 1866697,
      "idlingDurationMs": 362746,
      "fuelConsumedMl": 848,
      "fuelConsumedGallons": 0.224,
      "maxSpeedMph": 32.0,
      "averageSpeedMph": 18.8,
      "safetyEvents": []
    },
    {
      "id": "trip_41090742_20250203_005",
      "vehicleId": "41090742",
      "driverId": "20000019",
      "startMs": 1738588560000,
      "endMs": 1738590562872,
      "startAddress": "9275 Jordan Crescent",
      "endAddress": "404 Bentley Greens",
      "startCoords": {
        "latitude": 39.685023,
        "longitude": -105.008771
      },
      "endCoords": {
        "latitude": 39.77236,
        "longitude": -104.991232
      },
      "distanceMeters": 16435.1,
      "durationMs": 2002873,
      "drivingDurationMs": 1661416,
      "idlingDurationMs": 341456,
      "fuelConsumedMl": 742,
      "fuelConsumedGallons": 0.196,
      "maxSpeedMph": 33.5,
      "averageSpeedMph": 18.4,
      "safetyEvents": []
    },
    {
      "id": "trip_41090742_20250203_006",
      "vehicleId": "41090742",
      "driverId": "20000019",
      "startMs": 1738584120000,
      "endMs": 1738584592126,
      "startAddress": "0257 Thomas Locks Apt. 146",
      "endAddress": "44569 Willis Circles",
      "startCoords": {
        "latitude": 39.697168,
        "longitude": -105.019556
      },
      "endCoords": {
        "latitude": 39.8124,
        "longitude": -105.015109
      },
      "distanceMeters": 3130.9,
      "durationMs": 472127,
      "drivingDurationMs": 336839,
      "idlingDurationMs": 135288,
      "fuelConsumedMl": 140,
      "fuelConsumedGallons": 0.037,
      "maxSpeedMph": 58.1,
      "averageSpeedMph": 14.8,
      "safetyEvents": []
    },
    {
      "id": "trip_41090742_20250203_007",
      "vehicleId": "41090742",
      "driverId": "20000019",
      "startMs": 1738602720000,
      "endMs": 1738605105553,
      "startAddress": "914 Kevin Valleys Apt. 867",
      "endAddress": "06254 Taylor Fort Apt. 218",
      "startCoords": {
        "latitude": 39.785198,
        "longitude": -105.075868
      },
      "endCoords": {
        "latitude": 39.724378,
        "longitude": -105.024249
      },
      "distanceMeters": 15230.0,
      "durationMs": 2385554,
      "drivingDurationMs": 2065597,
      "idlingDurationMs": 319957,
      "fuelConsumedMl": 689,
      "fuelConsumedGallons": 0.182,
      "maxSpeedMph": 67.3,
      "averageSpeedMph": 14.3,
      "safetyEvents": [
        {
          "type": "speeding",
          "startMs": 1738604760000,
          "maxSpeedMph": 67.3
        }
      ]
    },
    {
      "id": "trip_41090742_20250203_008",
      "vehicleId": "41090742",
      "driverId": "20000019",
      "startMs": 1738606980000,
      "endMs": 1738609181354,
      "startAddress": "99643 Terrence Plaza",
      "endAddress": "81690 Ward Landing",
      "startCoords": {
        "latitude": 39.70104,
        "longitude": -104.950977
      },
      "endCoords": {
        "latitude": 39.816833,
        "longitude": -105.082269
      },
      "distanceMeters": 16245.9,
      "durationMs": 2201355,
      "drivingDurationMs": 1762294,
      "idlingDurationMs": 439061,
      "fuelConsumedMl": 734,
      "fuelConsumedGallons": 0.194,
      "maxSpeedMph": 60.2,
      "averageSpeedMph": 16.5,
      "safetyEvents": []
    },
    {
      "id": "trip_41090742_20250203_009",
      "vehicleId": "41090742",
      "driverId": "20000019",
      "startMs": 1738582680000,
      "endMs": 1738584479187,
      "startAddress": "88184 Schwartz Mission",
      "endAddress": "9859 Martinez Neck Suite 860",
      "startCoords": {
        "latitude": 39.702201,
        "longitude": -104.929636
      },
      "endCoords": {
        "latitude": 39.804724,
        "longitude": -104.943868
      },
      "distanceMeters": 16237.2,
      "durationMs": 1799188,
      "drivingDurationMs": 1545272,
      "idlingDurationMs": 253916,
      "fuelConsumedMl": 734,
      "fuelConsumedGallons": 0.194,
      "maxSpeedMph": 28.8,
      "averageSpeedMph": 20.2,
      "safetyEvents": []
    },
    {
      "id": "trip_41090742_20250203_010",
      "vehicleId": "41090742",
      "driverId": "20000019",
      "startMs": 1738572360000,
      "endMs": 1738574474400,
      "startAddress": "066 Coleman Forks Apt. 066",
      "endAddress": "569 Nicholas Shore Apt. 753",
      "startCoords": {
        "latitude": 39.687361,
        "longitude": -104.999599
      },
      "endCoords": {
        "latitude": 39.688552,
        "longitude": -105.045006
      },
      "distanceMeters": 17971.3,
      "durationMs": 2114401,
      "drivingDurationMs": 1918004,
      "idlingDurationMs": 196396,
      "fuelConsumedMl": 814,
      "fuelConsumedGallons": 0.215,
      "maxSpeedMph": 32.3,
      "averageSpeedMph": 19.0,
      "safetyEvents": []
    },
    {
      "id": "trip_41090742_20250203_011",
      "vehicleId": "41090742",
      "driverId": "20000019",
      "startMs": 1738570620000,
      "endMs": 1738571960662,
      "startAddress": "3559 Patrick Loaf",
      "endAddress": "936 Jennifer Branch Apt. 171",
      "startCoords": {
        "latitude": 39.777798,
        "longitude": -104.914351
      },
      "endCoords": {
        "latitude": 39.747981,
        "longitude": -105.08672
      },
      "distanceMeters": 11436.6,
      "durationMs": 1340663,
      "drivingDurationMs": 1118888,
      "idlingDurationMs": 221775,
      "fuelConsumedMl": 519,
      "fuelConsumedGallons": 0.137,
      "maxSpeedMph": 55.5,
      "averageSpeedMph": 19.1,
      "safetyEvents": []
    },
    {
      "id": "trip_41090742_20250204_001",
      "vehicleId": "41090742",
      "driverId": "20000004",
      "startMs": 1738653900000,
      "endMs": 1738654897601,
      "startAddress": "04369 Taylor Crossing",
      "endAddress": "897 Andrea Row Apt. 967",
      "startCoords": {
        "latitude": 39.69862,
        "longitude": -105.051216
      },
      "endCoords": {
        "latitude": 39.792192,
        "longitude": -104.960771
      },
      "distanceMeters": 6511.5,
      "durationMs": 997601,
      "drivingDurationMs": 816750,
      "idlingDurationMs": 180851,
      "fuelConsumedMl": 295,
      "fuelConsumedGallons": 0.078,
      "maxSpeedMph": 28.4,
      "averageSpeedMph": 14.6,
      "safetyEvents": []
    },
    {
      "id": "trip_41090742_20250204_002",
      "vehicleId": "41090742",
      "driverId": "20000004",
      "startMs": 1738659300000,
      "endMs": 1738661411144,
      "startAddress": "3636 Matthew Common Suite 600",
      "endAddress": "2927 Eric Brook Suite 278",
      "startCoords": {
        "latitude": 39.812463,
        "longitude": -104.991942
      },
      "endCoords": {
        "latitude": 39.742516,
        "longitude": -104.939698
      },
      "distanceMeters": 20098.2,
      "durationMs": 2111144,
      "drivingDurationMs": 1924547,
      "idlingDurationMs": 186597,
      "fuelConsumedMl": 908,
      "fuelConsumedGallons": 0.24,
      "maxSpeedMph": 63.5,
      "averageSpeedMph": 21.3,
      "safetyEvents": []
    },
    {
      "id": "trip_41090742_20250204_003",
      "vehicleId": "41090742",
      "driverId": "20000004",
      "startMs": 1738687860000,
      "endMs": 1738689048527,
      "startAddress": "07695 Stephanie Brooks Apt. 901",
      "endAddress": "3476 Bennett Falls",
      "startCoords": {
        "latitude": 39.698996,
        "longitude": -104.974995
      },
      "endCoords": {
        "latitude": 39.721617,
        "longitude": -105.034714
      },
      "distanceMeters": 8635.4,
      "durationMs": 1188528,
      "drivingDurationMs": 983220,
      "idlingDurationMs": 205307,
      "fuelConsumedMl": 390,
      "fuelConsumedGallons": 0.103,
      "maxSpeedMph": 66.2,
      "averageSpeedMph": 16.3,
      "safetyEvents": [
        {
          "type": "speeding",
          "startMs": 1738687980000,
          "maxSpeedMph": 66.2
        }
      ]
    },
    {
      "id": "trip_41090742_20250204_004",
      "vehicleId": "41090742",
      "driverId": "20000004",
      "startMs": 1738689780000,
      "endMs": 1738691967751,
      "startAddress": "94470 Scott Forest Apt. 736",
      "endAddress": "89014 Turner Glen",
      "startCoords": {
        "latitude": 39.712234,
        "longitude": -105.026999
      },
      "endCoords": {
        "latitude": 39.743595,
        "longitude": -104.986246
      },
      "distanceMeters": 13398.3,
      "durationMs": 2187752,
      "drivingDurationMs": 1955843,
      "idlingDurationMs": 231909,
      "fuelConsumedMl": 606,
      "fuelConsumedGallons": 0.16,
      "maxSpeedMph": 60.2,
      "averageSpeedMph": 13.7,
      "safetyEvents": []
    },
    {
      "id": "trip_41090742_20250204_005",
      "vehicleId": "41090742",
      "driverId": "20000004",
      "startMs": 1738667520000,
      "endMs": 1738669786517,
      "startAddress": "98621 Cynthia Pike",
      "endAddress": "37005 Graves Squares",
      "startCoords": {
        "latitude": 39.771407,
        "longitude": -105.072145
      },
      "endCoords": {
        "latitude": 39.813987,
        "longitude": -104.983256
      },
      "distanceMeters": 14163.9,
      "durationMs": 2266518,
      "drivingDurationMs": 1983185,
      "idlingDurationMs": 283333,
      "fuelConsumedMl": 640,
      "fuelConsumedGallons": 0.169,
      "maxSpeedMph": 33.5,
      "averageSpeedMph": 14.0,
      "safetyEvents": []
    },
    {
      "id": "trip_41090742_20250204_006",
      "vehicleId": "41090742",
      "driverId": "20000004",
      "startMs": 1738659960000,
      "endMs": 1738661850390,
      "startAddress": "32842 Debra Cliff Suite 291",
      "endAddress": "1023 Jeffrey Knoll",
      "startCoords": {
        "latitude": 39.764349,
        "longitude": -105.01884
      },
      "endCoords": {
        "latitude": 39.757609,
        "longitude": -104.951692
      },
      "distanceMeters": 14509.7,
      "durationMs": 1890390,
      "drivingDurationMs": 1667843,
      "idlingDurationMs": 222547,
      "fuelConsumedMl": 655,
      "fuelConsumedGallons": 0.173,
      "maxSpeedMph": 50.8,
      "averageSpeedMph": 17.2,
      "safetyEvents": []
    },
    {
      "id": "trip_41090742_20250204_007",
      "vehicleId": "41090742",
      "driverId": "20000004",
      "startMs": 1738682640000,
      "endMs": 1738685677196,
      "startAddress": "808 Gillespie Fort Apt. 538",
      "endAddress": "903 Sergio Radial",
      "startCoords": {
        "latitude": 39.772091,
        "longitude": -105.01562
      },
      "endCoords": {
        "latitude": 39.758775,
        "longitude": -105.081584
      },
      "distanceMeters": 22393.1,
      "durationMs": 3037196,
      "drivingDurationMs": 2754298,
      "idlingDurationMs": 282898,
      "fuelConsumedMl": 1014,
      "fuelConsumedGallons": 0.268,
      "maxSpeedMph": 58.3,
      "averageSpeedMph": 16.5,
      "safetyEvents": []
    },
    {
      "id": "trip_41090742_20250204_008",
      "vehicleId": "41090742",
      "driverId": "20000004",
      "startMs": 1738678800000,
      "endMs": 1738681503887,
      "startAddress": "626 Clark Fields Apt. 659",
      "endAddress": "98182 Erin Avenue",
      "startCoords": {
        "latitude": 39.818832,
        "longitude": -104.926929
      },
      "endCoords": {
        "latitude": 39.715198,
        "longitude": -104.958184
      },
      "distanceMeters": 18995.2,
      "durationMs": 2703888,
      "drivingDurationMs": 2166055,
      "idlingDurationMs": 537833,
      "fuelConsumedMl": 859,
      "fuelConsumedGallons": 0.227,
      "maxSpeedMph": 47.2,
      "averageSpeedMph": 15.7,
      "safetyEvents": []
    },
    {
      "id": "trip_41090742_20250204_009",
      "vehicleId": "41090742",
      "driverId": "20000004",
      "startMs": 1738685940000,
      "endMs": 1738687953997,
      "startAddress": "1002 Ashley Ferry Suite 848",
      "endAddress": "05724 Stein Plaza Apt. 768",
      "startCoords": {
        "latitude": 39.81655,
        "longitude": -104.989581
      },
      "endCoords": {
        "latitude": 39.701742,
        "longitude": -105.02564
      },
      "distanceMeters": 14091.3,
      "durationMs": 2013998,
      "drivingDurationMs": 1644902,
      "idlingDurationMs": 369096,
      "fuelConsumedMl": 636,
      "fuelConsumedGallons": 0.168,
      "maxSpeedMph": 60.9,
      "averageSpeedMph": 15.7,
      "safetyEvents": []
    },
    {
      "id": "trip_41090742_20250204_010",
      "vehicleId": "41090742",
      "driverId": "20000004",
      "startMs": 1738654860000,
      "endMs": 1738655563666,
      "startAddress": "14038 Latoya Cliffs Suite 635",
      "endAddress": "8947 Hurst Heights Apt. 457",
      "startCoords": {
        "latitude": 39.816776,
        "longitude": -105.064439
      },
      "endCoords": {
        "latitude": 39.68442,
        "longitude": -105.060156
      },
      "distanceMeters": 4134.6,
      "durationMs": 703666,
      "drivingDurationMs": 560563,
      "idlingDurationMs": 143103,
      "fuelConsumedMl": 185,
      "fuelConsumedGallons": 0.049,
      "maxSpeedMph": 57.1,
      "averageSpeedMph": 13.1,
      "safetyEvents": []
    },
    {
      "id": "trip_41090742_20250205_001",
      "vehicleId": "41090742",
      "driverId": null,
      "startMs": 1738740600000,
      "endMs": 1738741758311,
      "startAddress": "7698 Rodriguez Squares Suite 040",
      "endAddress": "1375 Klein Green",
      "startCoords": {
        "latitude": 39.747841,
        "longitude": -105.081207
      },
      "endCoords": {
        "latitude": 39.813376,
        "longitude": -105.036694
      },
      "distanceMeters": 5910.5,
      "durationMs": 1158312,
      "drivingDurationMs": 941148,
      "idlingDurationMs": 217164,
      "fuelConsumedMl": 269,
      "fuelConsumedGallons": 0.071,
      "maxSpeedMph": 40.7,
      "averageSpeedMph": 11.4,
      "safetyEvents": []
    },
    {
      "id": "trip_41090742_20250205_002",
      "vehicleId": "41090742",
      "driverId": "20000016",
      "startMs": 1738740120000,
      "endMs": 1738741243262,
      "startAddress": "21143 Justin Via",
      "endAddress": "3528 Brown Throughway",
      "startCoords": {
        "latitude": 39.754333,
        "longitude": -104.998829
      },
      "endCoords": {
        "latitude": 39.759105,
        "longitude": -105.009314
      },
      "distanceMeters": 5911.1,
      "durationMs": 1123263,
      "drivingDurationMs": 906294,
      "idlingDurationMs": 216968,
      "fuelConsumedMl": 269,
      "fuelConsumedGallons": 0.071,
      "maxSpeedMph": 63.9,
      "averageSpeedMph": 11.8,
      "safetyEvents": []
    },
    {
      "id": "trip_41090742_20250205_003",
      "vehicleId": "41090742",
      "driverId": "20000016",
      "startMs": 1738743720000,
      "endMs": 1738746312781,
      "startAddress": "3078 Brian Brooks",
      "endAddress": "57910 Zachary Cliffs",
      "startCoords": {
        "latitude": 39.744665,
        "longitude": -104.985525
      },
      "endCoords": {
        "latitude": 39.741184,
        "longitude": -104.901797
      },
      "distanceMeters": 22554.3,
      "durationMs": 2592782,
      "drivingDurationMs": 2162164,
      "idlingDurationMs": 430618,
      "fuelConsumedMl": 1022,
      "fuelConsumedGallons": 0.27,
      "maxSpeedMph": 32.0,
      "averageSpeedMph": 19.5,
      "safetyEvents": []
    },
    {
      "id": "trip_41090742_20250205_004",
      "vehicleId": "41090742",
      "driverId": "20000016",
      "startMs": 1738759200000,
      "endMs": 1738761388459,
      "startAddress": "3661 Day Villages",
      "endAddress": "56117 Katrina River",
      "startCoords": {
        "latitude": 39.684486,
        "longitude": -104.947003
      },
      "endCoords": {
        "latitude": 39.817867,
        "longitude": -105.057597
      },
      "distanceMeters": 17282.6,
      "durationMs": 2188459,
      "drivingDurationMs": 1922932,
      "idlingDurationMs": 265527,
      "fuelConsumedMl": 784,
      "fuelConsumedGallons": 0.207,
      "maxSpeedMph": 42.3,
      "averageSpeedMph": 17.7,
      "safetyEvents": []
    },
    {
      "id": "trip_41090742_20250205_005",
      "vehicleId": "41090742",
      "driverId": "20000016",
      "startMs": 1738754040000,
      "endMs": 1738755398888,
      "startAddress": "6801 Beard Shoals",
      "endAddress": "9417 Johnston Track Apt. 654",
      "startCoords": {
        "latitude": 39.770895,
        "longitude": -104.982552
      },
      "endCoords": {
        "latitude": 39.799536,
        "longitude": -104.988218
      },
      "distanceMeters": 10881.9,
      "durationMs": 1358889,
      "drivingDurationMs": 1116301,
      "idlingDurationMs": 242588,
      "fuelConsumedMl": 492,
      "fuelConsumedGallons": 0.13,
      "maxSpeedMph": 59.8,
      "averageSpeedMph": 17.9,
      "safetyEvents": []
    },
    {
      "id": "trip_41090742_20250205_006",
      "vehicleId": "41090742",
      "driverId": "20000016",
      "startMs": 1738760640000,
      "endMs": 1738764457491,
      "startAddress": "7615 Scott Fords",
      "endAddress": "39232 Scott Track",
      "startCoords": {
        "latitude": 39.734285,
        "longitude": -105.033333
      },
      "endCoords": {
        "latitude": 39.823797,
        "longitude": -105.043965
      },
      "distanceMeters": 20639.2,
      "durationMs": 3817491,
      "drivingDurationMs": 3205530,
      "idlingDurationMs": 611961,
      "fuelConsumedMl": 935,
      "fuelConsumedGallons": 0.247,
      "maxSpeedMph": 68.3,
      "averageSpeedMph": 12.1,
      "safetyEvents": [
        {
          "type": "speeding",
          "startMs": 1738761180000,
          "maxSpeedMph": 68.3
        }
      ]
    },
    {
      "id": "trip_41090742_20250205_007",
      "vehicleId": "41090742",
      "driverId": "20000016",
      "startMs": 1738741440000,
      "endMs": 1738742093625,
      "startAddress": "5240 Williams Route",
      "endAddress": "6095 Larson Causeway",
      "startCoords": {
        "latitude": 39.729857,
        "longitude": -104.997343
      },
      "endCoords": {
        "latitude": 39.810549,
        "longitude": -104.939147
      },
      "distanceMeters": 5251.6,
      "durationMs": 653626,
      "drivingDurationMs": 512330,
      "idlingDurationMs": 141296,
      "fuelConsumedMl": 238,
      "fuelConsumedGallons": 0.063,
      "maxSpeedMph": 47.2,
      "averageSpeedMph": 18.0,
      "safetyEvents": []
    },
    {
      "id": "trip_41090742_20250205_008",
      "vehicleId": "41090742",
      "driverId": "20000016",
      "startMs": 1738749420000,
      "endMs": 1738751972806,
      "startAddress": "7912 Nicole Brooks Suite 460",
      "endAddress": "4296 Michael Circle Suite 778",
      "startCoords": {
        "latitude": 39.752038,
        "longitude": -104.953401
      },
      "endCoords": {
        "latitude": 39.686338,
        "longitude": -105.080195
      },
      "distanceMeters": 20429.8,
      "durationMs": 2552807,
      "drivingDurationMs": 2167683,
      "idlingDurationMs": 385123,
      "fuelConsumedMl": 924,
      "fuelConsumedGallons": 0.244,
      "maxSpeedMph": 28.9,
      "averageSpeedMph": 17.9,
      "safetyEvents": []
    },
    {
      "id": "trip_41090742_20250205_009",
      "vehicleId": "41090742",
      "driverId": "20000016",
      "startMs": 1738746840000,
      "endMs": 1738749483208,
      "startAddress": "8972 Lindsey Port",
      "endAddress": "021 Cheyenne Port Apt. 048",
      "startCoords": {
        "latitude": 39.786947,
        "longitude": -105.057444
      },
      "endCoords": {
        "latitude": 39.750441,
        "longitude": -105.005066
      },
      "distanceMeters": 21061.6,
      "durationMs": 2643208,
      "drivingDurationMs": 2414232,
      "idlingDurationMs": 228976,
      "fuelConsumedMl": 954,
      "fuelConsumedGallons": 0.252,
      "maxSpeedMph": 31.1,
      "averageSpeedMph": 17.8,
      "safetyEvents": []
    },
    {
      "id": "trip_41090742_20250205_010",
      "vehicleId": "41090742",
      "driverId": "20000016",
      "startMs": 1738780020000,
      "endMs": 1738781014219,
      "startAddress": "652 Rhonda Hill Suite 551",
      "endAddress": "230 Anthony Squares Apt. 376",
      "startCoords": {
        "latitude": 39.729895,
        "longitude": -105.004873
      },
      "endCoords": {
        "latitude": 39.805312,
        "longitude": -104.965628
      },
      "distanceMeters": 7919.7,
      "durationMs": 994220,
      "drivingDurationMs": 801974,
      "idlingDurationMs": 192245,
      "fuelConsumedMl": 360,
      "fuelConsumedGallons": 0.095,
      "maxSpeedMph": 61.4,
      "averageSpeedMph": 17.8,
      "safetyEvents": []
    },
    {
      "id": "trip_41090742_20250205_011",
      "vehicleId": "41090742",
      "driverId": "20000016",
      "startMs": 1738749600000,
      "endMs": 1738750972003,
      "startAddress": "781 Myers Groves",
      "endAddress": "679 Karen Plain Apt. 114",
      "startCoords": {
        "latitude": 39.764153,
        "longitude": -105.047269
      },
      "endCoords": {
        "latitude": 39.82625,
        "longitude": -105.034863
      },
      "distanceMeters": 10813.8,
      "durationMs": 1372004,
      "drivingDurationMs": 1149896,
      "idlingDurationMs": 222108,
      "fuelConsumedMl": 488,
      "fuelConsumedGallons": 0.129,
      "maxSpeedMph": 29.9,
      "averageSpeedMph": 17.6,
      "safetyEvents": []
    },
    {
      "id": "trip_41090742_20250205_012",
      "vehicleId": "41090742",
      "driverId": "20000016",
      "startMs": 1738765920000,
      "endMs": 1738769203625,
      "startAddress": "1926 Tammy Neck",
      "endAddress": "756 Katie Forges",
      "startCoords": {
        "latitude": 39.694497,
        "longitude": -104.902387
      },
      "endCoords": {
        "latitude": 39.7597,
        "longitude": -104.984965
      },
      "distanceMeters": 21810.0,
      "durationMs": 3283626,
      "drivingDurationMs": 2865857,
      "idlingDurationMs": 417768,
      "fuelConsumedMl": 988,
      "fuelConsumedGallons": 0.261,
      "maxSpeedMph": 39.7,
      "averageSpeedMph": 14.9,
      "safetyEvents": []
    },
    {
      "id": "trip_41090742_20250205_013",
      "vehicleId": "41090742",
      "driverId": "20000016",
      "startMs": 1738743600000,
      "endMs": 1738745952347,
      "startAddress": "9327 Bond Curve",
      "endAddress": "4979 Kylie Mills",
      "startCoords": {
        "latitude": 39.740289,
        "longitude": -105.001163
      },
      "endCoords": {
        "latitude": 39.71909,
        "longitude": -104.943571
      },
      "distanceMeters": 14442.4,
      "durationMs": 2352347,
      "drivingDurationMs": 2088397,
      "idlingDurationMs": 263950,
      "fuelConsumedMl": 655,
      "fuelConsumedGallons": 0.173,
      "maxSpeedMph": 57.1,
      "averageSpeedMph": 13.7,
      "safetyEvents": []
    },
    {
      "id": "trip_41090742_20250205_014",
      "vehicleId": "41090742",
      "driverId": "20000016",
      "startMs": 1738759680000,
      "endMs": 1738760352498,
      "startAddress": "064 Miller Shoal",
      "endAddress": "47706 Butler Expressway",
      "startCoords": {
        "latitude": 39.79334,
        "longitude": -104.987144
      },
      "endCoords": {
        "latitude": 39.696188,
        "longitude": -105.077753
      },
      "distanceMeters": 4302.4,
      "durationMs": 672498,
      "drivingDurationMs": 522200,
      "idlingDurationMs": 150299,
      "fuelConsumedMl": 193,
      "fuelConsumedGallons": 0.051,
      "maxSpeedMph": 52.8,
      "averageSpeedMph": 14.3,
      "safetyEvents": []
    },
    {
      "id": "trip_41090742_20250205_015",
      "vehicleId": "41090742",
      "driverId": "20000016",
      "startMs": 1738757580000,
      "endMs": 1738758337304,
      "startAddress": "339 Billy Walks Suite 535",
      "endAddress": "55750 Raymond Stream Apt. 694",
      "startCoords": {
        "latitude": 39.687755,
        "longitude": -104.940498
      },
      "endCoords": {
        "latitude": 39.701663,
        "longitude": -105.086828
      },
      "distanceMeters": 4475.5,
      "durationMs": 757304,
      "drivingDurationMs": 595814,
      "idlingDurationMs": 161491,
      "fuelConsumedMl": 201,
      "fuelConsumedGallons": 0.053,
      "maxSpeedMph": 60.4,
      "averageSpeedMph": 13.2,
      "safetyEvents": []
    },
    {
      "id": "trip_41090742_20250205_016",
      "vehicleId": "41090742",
      "driverId": "20000016",
      "startMs": 1738751520000,
      "endMs": 1738753306191,
      "startAddress": "812 Day Cliff",
      "endAddress": "338 Chad Corners Apt. 915",
      "startCoords": {
        "latitude": 39.819176,
        "longitude": -105.042273
      },
      "endCoords": {
        "latitude": 39.807233,
        "longitude": -104.98299
      },
      "distanceMeters": 11866.9,
      "durationMs": 1786191,
      "drivingDurationMs": 1449125,
      "idlingDurationMs": 337066,
      "fuelConsumedMl": 538,
      "fuelConsumedGallons": 0.142,
      "maxSpeedMph": 47.1,
      "averageSpeedMph": 14.9,
      "safetyEvents": []
    },
    {
      "id": "trip_41090742_20250205_017",
      "vehicleId": "41090742",
      "driverId": "20000016",
      "startMs": 1738778760000,
      "endMs": 1738779415381,
      "startAddress": "03000 David Center Suite 642",
      "endAddress": "80512 Melissa Plaza Apt. 907",
      "startCoords": {
        "latitude": 39.787679,
        "longitude": -104.974453
      },
      "endCoords": {
        "latitude": 39.700594,
        "longitude": -105.015842
      },
      "distanceMeters": 3308.4,
      "durationMs": 655381,
      "drivingDurationMs": 478171,
      "idlingDurationMs": 177211,
      "fuelConsumedMl": 151,
      "fuelConsumedGallons": 0.04,
      "maxSpeedMph": 32.7,
      "averageSpeedMph": 11.3,
      "safetyEvents": []
    },
    {
      "id": "trip_41090742_20250205_018",
      "vehicleId": "41090742",
      "driverId": "20000016",
      "startMs": 1738756560000,
      "endMs": 1738756867220,
      "startAddress": "0285 Nathan Land Suite 809",
      "endAddress": "862 Jeffrey Ramp",
      "startCoords": {
        "latitude": 39.750442,
        "longitude": -105.051402
      },
      "endCoords": {
        "latitude": 39.758814,
        "longitude": -104.967037
      },
      "distanceMeters": 2522.1,
      "durationMs": 307220,
      "drivingDurationMs": 242151,
      "idlingDurationMs": 65069,
      "fuelConsumedMl": 114,
      "fuelConsumedGallons": 0.03,
      "maxSpeedMph": 50.5,
      "averageSpeedMph": 18.4,
      "safetyEvents": []
    },
    {
      "id": "trip_41090742_20250206_001",
      "vehicleId": "41090742",
      "driverId": "20000014",
      "startMs": 1738824900000,
      "endMs": 1738825718806,
      "startAddress": "11038 Herbert Square",
      "endAddress": "0680 Katie Radial Apt. 511",
      "startCoords": {
        "latitude": 39.817189,
        "longitude": -104.937157
      },
      "endCoords": {
        "latitude": 39.755873,
        "longitude": -105.080598
      },
      "distanceMeters": 6760.9,
      "durationMs": 818806,
      "drivingDurationMs": 652278,
      "idlingDurationMs": 166528,
      "fuelConsumedMl": 307,
      "fuelConsumedGallons": 0.081,
      "maxSpeedMph": 52.8,
      "averageSpeedMph": 18.5,
      "safetyEvents": []
    },
    {
      "id": "trip_41090742_20250206_002",
      "vehicleId": "41090742",
      "driverId": "20000014",
      "startMs": 1738836780000,
      "endMs": 1738840078700,
      "startAddress": "17584 Martinez Fords",
      "endAddress": "24587 Weaver Landing Suite 692",
      "startCoords": {
        "latitude": 39.767601,
        "longitude": -105.007854
      },
      "endCoords": {
        "latitude": 39.784982,
        "longitude": -104.926815
      },
      "distanceMeters": 22837.4,
      "durationMs": 3298700,
      "drivingDurationMs": 2723144,
      "idlingDurationMs": 575556,
      "fuelConsumedMl": 1033,
      "fuelConsumedGallons": 0.273,
      "maxSpeedMph": 60.6,
      "averageSpeedMph": 15.5,
      "safetyEvents": []
    },
    {
      "id": "trip_41090742_20250206_003",
      "vehicleId": "41090742",
      "driverId": "20000014",
      "startMs": 1738852980000,
      "endMs": 1738853457524,
      "startAddress": "85440 Daniel Estate Suite 116",
      "endAddress": "414 Shawn Court Suite 385",
      "startCoords": {
        "latitude": 39.74004,
        "longitude": -105.08227
      },
      "endCoords": {
        "latitude": 39.778677,
        "longitude": -104.911076
      },
      "distanceMeters": 2694.5,
      "durationMs": 477524,
      "drivingDurationMs": 321881,
      "idlingDurationMs": 155643,
      "fuelConsumedMl": 121,
      "fuelConsumedGallons": 0.032,
      "maxSpeedMph": 65.4,
      "averageSpeedMph": 12.6,
      "safetyEvents": [
        {
          "type": "speeding",
          "startMs": 1738853160000,
          "maxSpeedMph": 65.4
        }
      ]
    },
    {
      "id": "trip_41090742_20250206_004",
      "vehicleId": "41090742",
      "driverId": "20000014",
      "startMs": 1738839660000,
      "endMs": 1738841940693,
      "startAddress": "260 Russell Tunnel",
      "endAddress": "97429 Brittney Vista",
      "startCoords": {
        "latitude": 39.81178,
        "longitude": -105.043308
      },
      "endCoords": {
        "latitude": 39.751171,
        "longitude": -105.019617
      },
      "distanceMeters": 13452.7,
      "durationMs": 2280694,
      "drivingDurationMs": 1882819,
      "idlingDurationMs": 397875,
      "fuelConsumedMl": 609,
      "fuelConsumedGallons": 0.161,
      "maxSpeedMph": 52.1,
      "averageSpeedMph": 13.2,
      "safetyEvents": []
    },
    {
      "id": "trip_41090742_20250206_005",
      "vehicleId": "41090742",
      "driverId": "20000014",
      "startMs": 1738833720000,
      "endMs": 1738835762866,
      "startAddress": "64506 Gary Roads",
      "endAddress": "66991 Hendrix Stream",
      "startCoords": {
        "latitude": 39.729148,
        "longitude": -104.915413
      },
      "endCoords": {
        "latitude": 39.814028,
        "longitude": -105.041785
      },
      "distanceMeters": 15686.4,
      "durationMs": 2042867,
      "drivingDurationMs": 1705834,
      "idlingDurationMs": 337033,
      "fuelConsumedMl": 708,
      "fuelConsumedGallons": 0.187,
      "maxSpeedMph": 53.1,
      "averageSpeedMph": 17.2,
      "safetyEvents": []
    },
    {
      "id": "trip_41090742_20250206_006",
      "vehicleId": "41090742",
      "driverId": "20000014",
      "startMs": 1738835880000,
      "endMs": 1738836883078,
      "startAddress": "62821 Ellis Expressway",
      "endAddress": "508 Robert Ports Apt. 529",
      "startCoords": {
        "latitude": 39.806448,
        "longitude": -105.026086
      },
      "endCoords": {
        "latitude": 39.686484,
        "longitude": -104.979319
      },
      "distanceMeters": 5900.4,
      "durationMs": 1003079,
      "drivingDurationMs": 809105,
      "idlingDurationMs": 193973,
      "fuelConsumedMl": 269,
      "fuelConsumedGallons": 0.071,
      "maxSpeedMph": 38.9,
      "averageSpeedMph": 13.2,
      "safetyEvents": []
    },
    {
      "id": "trip_41090742_20250206_007",
      "vehicleId": "41090742",
      "driverId": null,
      "startMs": 1738853340000,
      "endMs": 1738854706696,
      "startAddress": "3133 Williamson Plaza",
      "endAddress": "42858 Aaron Radial Apt. 477",
      "startCoords": {
        "latitude": 39.730421,
        "longitude": -105.03769
      },
      "endCoords": {
        "latitude": 39.79152,
        "longitude": -104.962743
      },
      "distanceMeters": 8675.2,
      "durationMs": 1366696,
      "drivingDurationMs": 1162567,
      "idlingDurationMs": 204129,
      "fuelConsumedMl": 394,
      "fuelConsumedGallons": 0.104,
      "maxSpeedMph": 50.8,
      "averageSpeedMph": 14.2,
      "safetyEvents": []
    },
    {
      "id": "trip_41090742_20250206_008",
      "vehicleId": "41090742",
      "driverId": "20000014",
      "startMs": 1738830600000,
      "endMs": 1738835403874,
      "startAddress": "89380 Robinson Parkways Apt. 286",
      "endAddress": "14836 Breanna Crest Suite 563",
      "startCoords": {
        "latitude": 39.763281,
        "longitude": -104.90138
      },
      "endCoords": {
        "latitude": 39.823283,
        "longitude": -104.935139
      },
      "distanceMeters": 24426.0,
      "durationMs": 4803875,
      "drivingDurationMs": 3983140,
      "idlingDurationMs": 820735,
      "fuelConsumedMl": 1105,
      "fuelConsumedGallons": 0.292,
      "maxSpeedMph": 44.6,
      "averageSpeedMph": 11.4,
      "safetyEvents": []
    },
    {
      "id": "trip_41090742_20250206_009",
      "vehicleId": "41090742",
      "driverId": "20000014",
      "startMs": 1738866900000,
      "endMs": 1738869609357,
      "startAddress": "22439 Cole Vista",
      "endAddress": "86295 Justin Shores Suite 108",
      "startCoords": {
        "latitude": 39.735145,
        "longitude": -105.028233
      },
      "endCoords": {
        "latitude": 39.704979,
        "longitude": -104.943411
      },
      "distanceMeters": 17862.5,
      "durationMs": 2709358,
      "drivingDurationMs": 2294192,
      "idlingDurationMs": 415166,
      "fuelConsumedMl": 806,
      "fuelConsumedGallons": 0.213,
      "maxSpeedMph": 45.5,
      "averageSpeedMph": 14.7,
      "safetyEvents": []
    },
    {
      "id": "trip_41090742_20250206_010",
      "vehicleId": "41090742",
      "driverId": "20000014",
      "startMs": 1738824420000,
      "endMs": 1738825084381,
      "startAddress": "2898 Daniel Park",
      "endAddress": "79684 Michael Meadows",
      "startCoords": {
        "latitude": 39.822743,
        "longitude": -104.93728
      },
      "endCoords": {
        "latitude": 39.809166,
        "longitude": -104.951329
      },
      "distanceMeters": 4192.2,
      "durationMs": 664381,
      "drivingDurationMs": 495803,
      "idlingDurationMs": 168578,
      "fuelConsumedMl": 189,
      "fuelConsumedGallons": 0.05,
      "maxSpeedMph": 30.5,
      "averageSpeedMph": 14.1,
      "safetyEvents": []
    },
    {
      "id": "trip_41090742_20250206_011",
      "vehicleId": "41090742",
      "driverId": "20000014",
      "startMs": 1738824600000,
      "endMs": 1738826631302,
      "startAddress": "5070 Joshua Meadows Apt. 092",
      "endAddress": "1461 Wesley Avenue Apt. 608",
      "startCoords": {
        "latitude": 39.732276,
        "longitude": -105.024789
      },
      "endCoords": {
        "latitude": 39.773819,
        "longitude": -104.930177
      },
      "distanceMeters": 18072.2,
      "durationMs": 2031302,
      "drivingDurationMs": 1767384,
      "idlingDurationMs": 263919,
      "fuelConsumedMl": 818,
      "fuelConsumedGallons": 0.216,
      "maxSpeedMph": 41.5,
      "averageSpeedMph": 19.9,
      "safetyEvents": []
    },
    {
      "id": "trip_41090742_20250206_012",
      "vehicleId": "41090742",
      "driverId": "20000014",
      "startMs": 1738832280000,
      "endMs": 1738833135699,
      "startAddress": "3408 Michael Road Suite 750",
      "endAddress": "356 Robertson Fork Suite 597",
      "startCoords": {
        "latitude": 39.771345,
        "longitude": -105.064197
      },
      "endCoords": {
        "latitude": 39.775687,
        "longitude": -104.983246
      },
      "distanceMeters": 7074.7,
      "durationMs": 855700,
      "drivingDurationMs": 679892,
      "idlingDurationMs": 175808,
      "fuelConsumedMl": 322,
      "fuelConsumedGallons": 0.085,
      "maxSpeedMph": 70.8,
      "averageSpeedMph": 18.5,
      "safetyEvents": [
        {
          "type": "speeding",
          "startMs": 1738832520000,
          "maxSpeedMph": 70.8
        }
      ]
    },
    {
      "id": "trip_41090742_20250206_013",
      "vehicleId": "41090742",
      "driverId": null,
      "startMs": 1738866120000,
      "endMs": 1738869810044,
      "startAddress": "5234 Christine Falls",
      "endAddress": "4931 Flores Pass Apt. 126",
      "startCoords": {
        "latitude": 39.69945,
        "longitude": -105.064871
      },
      "endCoords": {
        "latitude": 39.687311,
        "longitude": -105.081179
      },
      "distanceMeters": 19759.3,
      "durationMs": 3690044,
      "drivingDurationMs": 3088919,
      "idlingDurationMs": 601126,
      "fuelConsumedMl": 893,
      "fuelConsumedGallons": 0.236,
      "maxSpeedMph": 31.7,
      "averageSpeedMph": 12.0,
      "safetyEvents": []
    },
    {
      "id": "trip_41090742_20250207_001",
      "vehicleId": "41090742",
      "driverId": "20000013",
      "startMs": 1738923360000,
      "endMs": 1738923965094,
      "startAddress": "70299 Cynthia Ports Suite 913",
      "endAddress": "8578 Mitchell Mill Suite 472",
      "startCoords": {
        "latitude": 39.805652,
        "longitude": -104.989626
      },
      "endCoords": {
        "latitude": 39.77837,
        "longitude": -104.984906
      },
      "distanceMeters": 3875.0,
      "durationMs": 605094,
      "drivingDurationMs": 452163,
      "idlingDurationMs": 152931,
      "fuelConsumedMl": 174,
      "fuelConsumedGallons": 0.046,
      "maxSpeedMph": 53.5,
      "averageSpeedMph": 14.3,
      "safetyEvents": []
    },
    {
      "id": "trip_41090742_20250207_002",
      "vehicleId": "41090742",
      "driverId": "20000013",
      "startMs": 1738929420000,
      "endMs": 1738931636080,
      "startAddress": "926 Jones Meadows",
      "endAddress": "018 Emily Ranch Apt. 667",
      "startCoords": {
        "latitude": 39.697746,
        "longitude": -104.98491
      },
      "endCoords": {
        "latitude": 39.803382,
        "longitude": -105.041793
      },
      "distanceMeters": 16810.1,
      "durationMs": 2216080,
      "drivingDurationMs": 1790988,
      "idlingDurationMs": 425092,
      "fuelConsumedMl": 761,
      "fuelConsumedGallons": 0.201,
      "maxSpeedMph": 58.1,
      "averageSpeedMph": 17.0,
      "safetyEvents": []
    },
    {
      "id": "trip_41090742_20250207_003",
      "vehicleId": "41090742",
      "driverId": "20000013",
      "startMs": 1738940460000,
      "endMs": 1738943958486,
      "startAddress": "392 Johns Rapids",
      "endAddress": "023 Murray Shoals Suite 851",
      "startCoords": {
        "latitude": 39.80096,
        "longitude": -104.91371
      },
      "endCoords": {
        "latitude": 39.819294,
        "longitude": -105.086519
      },
      "distanceMeters": 19150.4,
      "durationMs": 3498486,
      "drivingDurationMs": 2863503,
      "idlingDurationMs": 634983,
      "fuelConsumedMl": 867,
      "fuelConsumedGallons": 0.229,
      "maxSpeedMph": 42.4,
      "averageSpeedMph": 12.2,
      "safetyEvents": []
    },
    {
      "id": "trip_41090742_20250207_004",
      "vehicleId": "41090742",
      "driverId": "20000013",
      "startMs": 1738921440000,
      "endMs": 1738923550012,
      "startAddress": "35523 Andrew Course Apt. 619",
      "endAddress": "5733 Roth Terrace",
      "startCoords": {
        "latitude": 39.75135,
        "longitude": -105.033319
      },
      "endCoords": {
        "latitude": 39.717312,
        "longitude": -105.071348
      },
      "distanceMeters": 11440.5,
      "durationMs": 2110013,
      "drivingDurationMs": 1745466,
      "idlingDurationMs": 364547,
      "fuelConsumedMl": 519,
      "fuelConsumedGallons": 0.137,
      "maxSpeedMph": 58.9,
      "averageSpeedMph": 12.1,
      "safetyEvents": []
    },
    {
      "id": "trip_41090742_20250207_005",
      "vehicleId": "41090742",
      "driverId": "20000013",
      "startMs": 1738914840000,
      "endMs": 1738915287924,
      "startAddress": "5502 Andrea Forges",
      "endAddress": "251 Schneider Walks Suite 064",
      "startCoords": {
        "latitude": 39.699843,
        "longitude": -105.069765
      },
      "endCoords": {
        "latitude": 39.710983,
        "longitude": -105.006958
      },
      "distanceMeters": 2356.7,
      "durationMs": 447925,
      "drivingDurationMs": 282026,
      "idlingDurationMs": 165899,
      "fuelConsumedMl": 106,
      "fuelConsumedGallons": 0.028,
      "maxSpeedMph": 66.3,
      "averageSpeedMph": 11.8,
      "safetyEvents": [
        {
          "type": "speeding",
          "startMs": 1738915020000,
          "maxSpeedMph": 66.3
        }
      ]
    },
    {
      "id": "trip_41090742_20250207_006",
      "vehicleId": "41090742",
      "driverId": "20000013",
      "startMs": 1738938900000,
      "endMs": 1738941084363,
      "startAddress": "268 Samuel Route",
      "endAddress": "6259 Ashley Islands Apt. 414",
      "startCoords": {
        "latitude": 39.737433,
        "longitude": -104.946706
      },
      "endCoords": {
        "latitude": 39.770894,
        "longitude": -104.944791
      },
      "distanceMeters": 17789.9,
      "durationMs": 2184363,
      "drivingDurationMs": 1895812,
      "idlingDurationMs": 288551,
      "fuelConsumedMl": 806,
      "fuelConsumedGallons": 0.213,
      "maxSpeedMph": 62.6,
      "averageSpeedMph": 18.2,
      "safetyEvents": []
    },
    {
      "id": "trip_41090742_20250207_007",
      "vehicleId": "41090742",
      "driverId": "20000013",
      "startMs": 1738933560000,
      "endMs": 1738935911829,
      "startAddress": "03129 Roman Course",
      "endAddress": "645 Perez Park Apt. 846",
      "startCoords": {
        "latitude": 39.685067,
        "longitude": -104.961461
      },
      "endCoords": {
        "latitude": 39.742317,
        "longitude": -104.899969
      },
      "distanceMeters": 15092.5,
      "durationMs": 2351829,
      "drivingDurationMs": 1970460,
      "idlingDurationMs": 381369,
      "fuelConsumedMl": 681,
      "fuelConsumedGallons": 0.18,
      "maxSpeedMph": 56.7,
      "averageSpeedMph": 14.4,
      "safetyEvents": []
    },
    {
      "id": "trip_41090742_20250207_008",
      "vehicleId": "41090742",
      "driverId": "20000013",
      "startMs": 1738942380000,
      "endMs": 1738942951503,
      "startAddress": "9716 Peterson Trafficway",
      "endAddress": "747 Hebert Ramp Apt. 423",
      "startCoords": {
        "latitude": 39.71388,
        "longitude": -104.947451
      },
      "endCoords": {
        "latitude": 39.817318,
        "longitude": -104.944943
      },
      "distanceMeters": 3066.7,
      "durationMs": 571504,
      "drivingDurationMs": 436967,
      "idlingDurationMs": 134537,
      "fuelConsumedMl": 140,
      "fuelConsumedGallons": 0.037,
      "maxSpeedMph": 47.5,
      "averageSpeedMph": 12.0,
      "safetyEvents": []
    },
    {
      "id": "trip_41090742_20250207_009",
      "vehicleId": "41090742",
      "driverId": "20000013",
      "startMs": 1738931040000,
      "endMs": 1738932206594,
      "startAddress": "593 Joseph Common Apt. 962",
      "endAddress": "661 Jason Rapid",
      "startCoords": {
        "latitude": 39.804399,
        "longitude": -104.985104
      },
      "endCoords": {
        "latitude": 39.713852,
        "longitude": -104.977299
      },
      "distanceMeters": 6091.8,
      "durationMs": 1166595,
      "drivingDurationMs": 982128,
      "idlingDurationMs": 184467,
      "fuelConsumedMl": 276,
      "fuelConsumedGallons": 0.073,
      "maxSpeedMph": 48.1,
      "averageSpeedMph": 11.7,
      "safetyEvents": []
    },
    {
      "id": "trip_41090742_20250207_010",
      "vehicleId": "41090742",
      "driverId": "20000013",
      "startMs": 1738944240000,
      "endMs": 1738946962430,
      "startAddress": "31960 Maria Pass Apt. 939",
      "endAddress": "0114 Cindy Flats Apt. 306",
      "startCoords": {
        "latitude": 39.732578,
        "longitude": -104.959156
      },
      "endCoords": {
        "latitude": 39.70894,
        "longitude": -104.95713
      },
      "distanceMeters": 17104.9,
      "durationMs": 2722430,
      "drivingDurationMs": 2237756,
      "idlingDurationMs": 484674,
      "fuelConsumedMl": 772,
      "fuelConsumedGallons": 0.204,
      "maxSpeedMph": 49.4,
      "averageSpeedMph": 14.1,
      "safetyEvents": []
    },
    {
      "id": "trip_41090742_20250207_011",
      "vehicleId": "41090742",
      "driverId": null,
      "startMs": 1738911180000,
      "endMs": 1738913836030,
      "startAddress": "6032 Freeman Ranch",
      "endAddress": "8998 Rodriguez Fords",
      "startCoords": {
        "latitude": 39.769178,
        "longitude": -105.038166
      },
      "endCoords": {
        "latitude": 39.780697,
        "longitude": -104.928025
      },
      "distanceMeters": 18459.5,
      "durationMs": 2656031,
      "drivingDurationMs": 2222376,
      "idlingDurationMs": 433655,
      "fuelConsumedMl": 837,
      "fuelConsumedGallons": 0.221,
      "maxSpeedMph": 62.1,
      "averageSpeedMph": 15.5,
      "safetyEvents": []
    },
    {
      "id": "trip_41090742_20250208_001",
      "vehicleId": "41090742",
      "driverId": "20000007",
      "startMs": 1739033700000,
      "endMs": 1739034238017,
      "startAddress": "61212 Foster Mill",
      "endAddress": "2390 Maldonado Creek Apt. 307",
      "startCoords": {
        "latitude": 39.732515,
        "longitude": -104.968694
      },
      "endCoords": {
        "latitude": 39.763785,
        "longitude": -105.068413
      },
      "distanceMeters": 2863.6,
      "durationMs": 538018,
      "drivingDurationMs": 416732,
      "idlingDurationMs": 121286,
      "fuelConsumedMl": 129,
      "fuelConsumedGallons": 0.034,
      "maxSpeedMph": 62.8,
      "averageSpeedMph": 11.9,
      "safetyEvents": []
    },
    {
      "id": "trip_41090742_20250208_002",
      "vehicleId": "41090742",
      "driverId": "20000007",
      "startMs": 1739008860000,
      "endMs": 1739011770039,
      "startAddress": "18538 Rogers Mall Apt. 996",
      "endAddress": "5496 Timothy Corners Suite 212",
      "startCoords": {
        "latitude": 39.81365,
        "longitude": -105.012289
      },
      "endCoords": {
        "latitude": 39.760307,
        "longitude": -104.982426
      },
      "distanceMeters": 17559.2,
      "durationMs": 2910040,
      "drivingDurationMs": 2350904,
      "idlingDurationMs": 559136,
      "fuelConsumedMl": 795,
      "fuelConsumedGallons": 0.21,
      "maxSpeedMph": 39.5,
      "averageSpeedMph": 13.5,
      "safetyEvents": []
    },
    {
      "id": "trip_41090742_20250208_003",
      "vehicleId": "41090742",
      "driverId": "20000007",
      "startMs": 1739002140000,
      "endMs": 1739004556950,
      "startAddress": "370 Parker Viaduct",
      "endAddress": "2695 Susan Views Suite 458",
      "startCoords": {
        "latitude": 39.774493,
        "longitude": -104.926091
      },
      "endCoords": {
        "latitude": 39.753676,
        "longitude": -105.079114
      },
      "distanceMeters": 13899.0,
      "durationMs": 2416950,
      "drivingDurationMs": 2212464,
      "idlingDurationMs": 204486,
      "fuelConsumedMl": 628,
      "fuelConsumedGallons": 0.166,
      "maxSpeedMph": 41.5,
      "averageSpeedMph": 12.9,
      "safetyEvents": []
    },
    {
      "id": "trip_41090742_20250208_004",
      "vehicleId": "41090742",
      "driverId": "20000007",
      "startMs": 1739033880000,
      "endMs": 1739036265933,
      "startAddress": "73448 Henderson Plaza",
      "endAddress": "2150 Wells Fords Apt. 715",
      "startCoords": {
        "latitude": 39.731634,
        "longitude": -104.905845
      },
      "endCoords": {
        "latitude": 39.722532,
        "longitude": -105.006551
      },
      "distanceMeters": 17137.8,
      "durationMs": 2385933,
      "drivingDurationMs": 1919307,
      "idlingDurationMs": 466626,
      "fuelConsumedMl": 776,
      "fuelConsumedGallons": 0.205,
      "maxSpeedMph": 37.7,
      "averageSpeedMph": 16.1,
      "safetyEvents": []
    },
    {
      "id": "trip_41090742_20250208_005",
      "vehicleId": "41090742",
      "driverId": null,
      "startMs": 1738999920000,
      "endMs": 1739002760165,
      "startAddress": "367 Noble Haven Suite 315",
      "endAddress": "895 Werner Stream Apt. 103",
      "startCoords": {
        "latitude": 39.683968,
        "longitude": -104.963765
      },
      "endCoords": {
        "latitude": 39.765272,
        "longitude": -104.902363
      },
      "distanceMeters": 15850.7,
      "durationMs": 2840165,
      "drivingDurationMs": 2323411,
      "idlingDurationMs": 516754,
      "fuelConsumedMl": 715,
      "fuelConsumedGallons": 0.189,
      "maxSpeedMph": 68.7,
      "averageSpeedMph": 12.5,
      "safetyEvents": [
        {
          "type": "speeding",
          "startMs": 1739000640000,
          "maxSpeedMph": 68.7
        }
      ]
    },
    {
      "id": "trip_41090742_20250208_006",
      "vehicleId": "41090742",
      "driverId": "20000007",
      "startMs": 1738999260000,
      "endMs": 1739000142657,
      "startAddress": "10365 Karen Camp Suite 835",
      "endAddress": "4931 Victoria Causeway Suite 214",
      "startCoords": {
        "latitude": 39.687119,
        "longitude": -105.009301
      },
      "endCoords": {
        "latitude": 39.786032,
        "longitude": -104.953496
      },
      "distanceMeters": 6360.8,
      "durationMs": 882658,
      "drivingDurationMs": 705186,
      "idlingDurationMs": 177472,
      "fuelConsumedMl": 288,
      "fuelConsumedGallons": 0.076,
      "maxSpeedMph": 28.7,
      "averageSpeedMph": 16.1,
      "safetyEvents": []
    },
    {
      "id": "trip_41090742_20250208_007",
      "vehicleId": "41090742",
      "driverId": "20000007",
      "startMs": 1739011740000,
      "endMs": 1739013391140,
      "startAddress": "792 Benson Tunnel Suite 993",
      "endAddress": "26788 Stacy Land Apt. 473",
      "startCoords": {
        "latitude": 39.74796,
        "longitude": -104.929806
      },
      "endCoords": {
        "latitude": 39.761172,
        "longitude": -104.980823
      },
      "distanceMeters": 13584.0,
      "durationMs": 1651141,
      "drivingDurationMs": 1328019,
      "idlingDurationMs": 323121,
      "fuelConsumedMl": 613,
      "fuelConsumedGallons": 0.162,
      "maxSpeedMph": 33.4,
      "averageSpeedMph": 18.4,
      "safetyEvents": []
    },
    {
      "id": "trip_41090742_20250208_008",
      "vehicleId": "41090742",
      "driverId": "20000007",
      "startMs": 1739007780000,
      "endMs": 1739009766841,
      "startAddress": "332 Thornton Vista Suite 487",
      "endAddress": "02281 Yvette Falls Apt. 333",
      "startCoords": {
        "latitude": 39.73528,
        "longitude": -104.967051
      },
      "endCoords": {
        "latitude": 39.803157,
        "longitude": -104.99154
      },
      "distanceMeters": 16521.6,
      "durationMs": 1986842,
      "drivingDurationMs": 1611001,
      "idlingDurationMs": 375841,
      "fuelConsumedMl": 746,
      "fuelConsumedGallons": 0.197,
      "maxSpeedMph": 66.8,
      "averageSpeedMph": 18.6,
      "safetyEvents": [
        {
          "type": "speeding",
          "startMs": 1739009340000,
          "maxSpeedMph": 66.8
        }
      ]
    },
    {
      "id": "trip_41090742_20250208_009",
      "vehicleId": "41090742",
      "driverId": "20000007",
      "startMs": 1739007840000,
      "endMs": 1739008315378,
      "startAddress": "1879 Katherine Forges Apt. 720",
      "endAddress": "81071 Martin Shoals",
      "startCoords": {
        "latitude": 39.785267,
        "longitude": -105.034385
      },
      "endCoords": {
        "latitude": 39.730308,
        "longitude": -105.000628
      },
      "distanceMeters": 2027.7,
      "durationMs": 475379,
      "drivingDurationMs": 309337,
      "idlingDurationMs": 166041,
      "fuelConsumedMl": 91,
      "fuelConsumedGallons": 0.024,
      "maxSpeedMph": 48.2,
      "averageSpeedMph": 9.5,
      "safetyEvents": []
    },
    {
      "id": "trip_41090742_20250208_010",
      "vehicleId": "41090742",
      "driverId": "20000007",
      "startMs": 1739023440000,
      "endMs": 1739024654215,
      "startAddress": "18212 Lisa Estate Suite 881",
      "endAddress": "27358 Rodriguez Corner Suite 679",
      "startCoords": {
        "latitude": 39.813298,
        "longitude": -104.980934
      },
      "endCoords": {
        "latitude": 39.803164,
        "longitude": -104.985432
      },
      "distanceMeters": 6752.8,
      "durationMs": 1214216,
      "drivingDurationMs": 1020362,
      "idlingDurationMs": 193854,
      "fuelConsumedMl": 307,
      "fuelConsumedGallons": 0.081,
      "maxSpeedMph": 54.2,
      "averageSpeedMph": 12.4,
      "safetyEvents": []
    },
    {
      "id": "trip_41090742_20250208_011",
      "vehicleId": "41090742",
      "driverId": "20000007",
      "startMs": 1739013180000,
      "endMs": 1739015263172,
      "startAddress": "294 Janet Passage",
      "endAddress": "506 Sandra Stream",
      "startCoords": {
        "latitude": 39.809343,
        "longitude": -105.016634
      },
      "endCoords": {
        "latitude": 39.825082,
        "longitude": -105.05287
      },
      "distanceMeters": 11562.6,
      "durationMs": 2083172,
      "drivingDurationMs": 1792122,
      "idlingDurationMs": 291050,
      "fuelConsumedMl": 522,
      "fuelConsumedGallons": 0.138,
      "maxSpeedMph": 29.2,
      "averageSpeedMph": 12.4,
      "safetyEvents": []
    },
    {
      "id": "trip_41090742_20250210_001",
      "vehicleId": "41090742",
      "driverId": "20000020",
      "startMs": 1739170860000,
      "endMs": 1739174803490,
      "startAddress": "04955 Wright Crossing",
      "endAddress": "26296 Nicholas Inlet",
      "startCoords": {
        "latitude": 39.820552,
        "longitude": -105.080073
      },
      "endCoords": {
        "latitude": 39.761897,
        "longitude": -104.912103
      },
      "distanceMeters": 22772.0,
      "durationMs": 3943490,
      "drivingDurationMs": 3181540,
      "idlingDurationMs": 761950,
      "fuelConsumedMl": 1030,
      "fuelConsumedGallons": 0.272,
      "maxSpeedMph": 47.0,
      "averageSpeedMph": 12.9,
      "safetyEvents": []
    },
    {
      "id": "trip_41090742_20250210_002",
      "vehicleId": "41090742",
      "driverId": "20000020",
      "startMs": 1739178840000,
      "endMs": 1739180688283,
      "startAddress": "39701 Steven Drives",
      "endAddress": "4288 Bush Neck Apt. 763",
      "startCoords": {
        "latitude": 39.77593,
        "longitude": -104.971565
      },
      "endCoords": {
        "latitude": 39.790948,
        "longitude": -105.074456
      },
      "distanceMeters": 13260.0,
      "durationMs": 1848283,
      "drivingDurationMs": 1514197,
      "idlingDurationMs": 334086,
      "fuelConsumedMl": 598,
      "fuelConsumedGallons": 0.158,
      "maxSpeedMph": 47.8,
      "averageSpeedMph": 16.0,
      "safetyEvents": []
    },
    {
      "id": "trip_41090742_20250210_003",
      "vehicleId": "41090742",
      "driverId": "20000020",
      "startMs": 1739188560000,
      "endMs": 1739190359523,
      "startAddress": "3704 Wolf Tunnel",
      "endAddress": "4058 Oliver Track",
      "startCoords": {
        "latitude": 39.758259,
        "longitude": -104.99121
      },
      "endCoords": {
        "latitude": 39.758837,
        "longitude": -104.985924
      },
      "distanceMeters": 13972.5,
      "durationMs": 1799523,
      "drivingDurationMs": 1578750,
      "idlingDurationMs": 220773,
      "fuelConsumedMl": 632,
      "fuelConsumedGallons": 0.167,
      "maxSpeedMph": 42.3,
      "averageSpeedMph": 17.4,
      "safetyEvents": []
    },
    {
      "id": "trip_41090742_20250210_004",
      "vehicleId": "41090742",
      "driverId": "20000020",
      "startMs": 1739195040000,
      "endMs": 1739196303844,
      "startAddress": "50450 Cooper Roads",
      "endAddress": "70910 Alexandra Tunnel",
      "startCoords": {
        "latitude": 39.7612,
        "longitude": -104.999646
      },
      "endCoords": {
        "latitude": 39.808926,
        "longitude": -104.907076
      },
      "distanceMeters": 7246.9,
      "durationMs": 1263845,
      "drivingDurationMs": 1045144,
      "idlingDurationMs": 218701,
      "fuelConsumedMl": 329,
      "fuelConsumedGallons": 0.087,
      "maxSpeedMph": 66.6,
      "averageSpeedMph": 12.8,
      "safetyEvents": [
        {
          "type": "speeding",
          "startMs": 1739195520000,
          "maxSpeedMph": 66.6
        }
      ]
    },
    {
      "id": "trip_41090742_20250210_005",
      "vehicleId": "41090742",
      "driverId": "20000020",
      "startMs": 1739184480000,
      "endMs": 1739185245779,
      "startAddress": "14077 Hill Rapid",
      "endAddress": "8953 Johnson Stream Suite 674",
      "startCoords": {
        "latitude": 39.780284,
        "longitude": -104.939205
      },
      "endCoords": {
        "latitude": 39.695256,
        "longitude": -104.953247
      },
      "distanceMeters": 4364.8,
      "durationMs": 765780,
      "drivingDurationMs": 603123,
      "idlingDurationMs": 162657,
      "fuelConsumedMl": 197,
      "fuelConsumedGallons": 0.052,
      "maxSpeedMph": 71.1,
      "averageSpeedMph": 12.8,
      "safetyEvents": [
        {
          "type": "speeding",
          "startMs": 1739185080000,
          "maxSpeedMph": 71.1
        }
      ]
    },
    {
      "id": "trip_41090742_20250210_006",
      "vehicleId": "41090742",
      "driverId": "20000020",
      "startMs": 1739208360000,
      "endMs": 1739209540673,
      "startAddress": "5985 Williams Valley Suite 071",
      "endAddress": "02038 Vazquez Rue Suite 930",
      "startCoords": {
        "latitude": 39.74549,
        "longitude": -104.993495
      },
      "endCoords": {
        "latitude": 39.7489,
        "longitude": -105.054786
      },
      "distanceMeters": 6288.0,
      "durationMs": 1180673,
      "drivingDurationMs": 950936,
      "idlingDurationMs": 229737,
      "fuelConsumedMl": 284,
      "fuelConsumedGallons": 0.075,
      "maxSpeedMph": 38.5,
      "averageSpeedMph": 11.9,
      "safetyEvents": []
    },
    {
      "id": "trip_41090742_20250211_001",
      "vehicleId": "41090742",
      "driverId": "20000012",
      "startMs": 1739272560000,
      "endMs": 1739273732369,
      "startAddress": "414 Christopher Expressway Apt. 362",
      "endAddress": "157 Quinn Canyon Apt. 812",
      "startCoords": {
        "latitude": 39.765915,
        "longitude": -105.035967
      },
      "endCoords": {
        "latitude": 39.824131,
        "longitude": -104.90089
      },
      "distanceMeters": 9689.9,
      "durationMs": 1172369,
      "drivingDurationMs": 983411,
      "idlingDurationMs": 188958,
      "fuelConsumedMl": 439,
      "fuelConsumedGallons": 0.116,
      "maxSpeedMph": 35.7,
      "averageSpeedMph": 18.5,
      "safetyEvents": []
    },
    {
      "id": "trip_41090742_20250211_002",
      "vehicleId": "41090742",
      "driverId": "20000012",
      "startMs": 1739253960000,
      "endMs": 1739256587909,
      "startAddress": "9637 Boone Creek Suite 277",
      "endAddress": "3045 Horton Cove Suite 506",
      "startCoords": {
        "latitude": 39.694493,
        "longitude": -105.073409
      },
      "endCoords": {
        "latitude": 39.685869,
        "longitude": -105.06051
      },
      "distanceMeters": 21061.3,
      "durationMs": 2627910,
      "drivingDurationMs": 2343482,
      "idlingDurationMs": 284428,
      "fuelConsumedMl": 954,
      "fuelConsumedGallons": 0.252,
      "maxSpeedMph": 59.5,
      "averageSpeedMph": 17.9,
      "safetyEvents": []
    },
    {
      "id": "trip_41090742_20250211_003",
      "vehicleId": "41090742",
      "driverId": "20000012",
      "startMs": 1739281740000,
      "endMs": 1739282516501,
      "startAddress": "900 Adkins Gateway Apt. 192",
      "endAddress": "036 Jeffery Manor Apt. 595",
      "startCoords": {
        "latitude": 39.720847,
        "longitude": -104.919596
      },
      "endCoords": {
        "latitude": 39.781994,
        "longitude": -105.005929
      },
      "distanceMeters": 6112.7,
      "durationMs": 776501,
      "drivingDurationMs": 598181,
      "idlingDurationMs": 178320,
      "fuelConsumedMl": 276,
      "fuelConsumedGallons": 0.073,
      "maxSpeedMph": 71.5,
      "averageSpeedMph": 17.6,
      "safetyEvents": [
        {
          "type": "speeding",
          "startMs": 1739282280000,
          "maxSpeedMph": 71.5
        }
      ]
    },
    {
      "id": "trip_41090742_20250211_004",
      "vehicleId": "41090742",
      "driverId": "20000012",
      "startMs": 1739262420000,
      "endMs": 1739263186552,
      "startAddress": "24748 Jessica Village Suite 636",
      "endAddress": "620 Wright Rapids",
      "startCoords": {
        "latitude": 39.698121,
        "longitude": -105.002605
      },
      "endCoords": {
        "latitude": 39.812465,
        "longitude": -105.057522
      },
      "distanceMeters": 4020.5,
      "durationMs": 766552,
      "drivingDurationMs": 596103,
      "idlingDurationMs": 170449,
      "fuelConsumedMl": 182,
      "fuelConsumedGallons": 0.048,
      "maxSpeedMph": 37.3,
      "averageSpeedMph": 11.7,
      "safetyEvents": []
    },
    {
      "id": "trip_41090742_20250211_005",
      "vehicleId": "41090742",
      "driverId": "20000012",
      "startMs": 1739255700000,
      "endMs": 1739258457438,
      "startAddress": "58061 Jones Unions",
      "endAddress": "747 Stephen Ports Suite 207",
      "startCoords": {
        "latitude": 39.724415,
        "longitude": -104.901782
      },
      "endCoords": {
        "latitude": 39.73393,
        "longitude": -104.942804
      },
      "distanceMeters": 16116.5,
      "durationMs": 2757438,
      "drivingDurationMs": 2514806,
      "idlingDurationMs": 242632,
      "fuelConsumedMl": 731,
      "fuelConsumedGallons": 0.193,
      "maxSpeedMph": 56.2,
      "averageSpeedMph": 13.1,
      "safetyEvents": []
    },
    {
      "id": "trip_41090742_20250211_006",
      "vehicleId": "41090742",
      "driverId": "20000012",
      "startMs": 1739258940000,
      "endMs": 1739261552961,
      "startAddress": "76885 Heather Island Apt. 413",
      "endAddress": "94426 Conner Ports",
      "startCoords": {
        "latitude": 39.7568,
        "longitude": -105.049647
      },
      "endCoords": {
        "latitude": 39.771914,
        "longitude": -105.024921
      },
      "distanceMeters": 19150.9,
      "durationMs": 2612961,
      "drivingDurationMs": 2332502,
      "idlingDurationMs": 280459,
      "fuelConsumedMl": 867,
      "fuelConsumedGallons": 0.229,
      "maxSpeedMph": 33.9,
      "averageSpeedMph": 16.4,
      "safetyEvents": []
    },
    {
      "id": "trip_41090742_20250211_007",
      "vehicleId": "41090742",
      "driverId": "20000012",
      "startMs": 1739273700000,
      "endMs": 1739274942313,
      "startAddress": "2690 Peters Prairie Suite 914",
      "endAddress": "1374 Dixon Fall Apt. 859",
      "startCoords": {
        "latitude": 39.785511,
        "longitude": -104.955829
      },
      "endCoords": {
        "latitude": 39.79733,
        "longitude": -104.988446
      },
      "distanceMeters": 7811.3,
      "durationMs": 1242313,
      "drivingDurationMs": 1001092,
      "idlingDurationMs": 241222,
      "fuelConsumedMl": 352,
      "fuelConsumedGallons": 0.093,
      "maxSpeedMph": 62.9,
      "averageSpeedMph": 14.1,
      "safetyEvents": []
    },
    {
      "id": "trip_41090742_20250211_008",
      "vehicleId": "41090742",
      "driverId": "20000012",
      "startMs": 1739271420000,
      "endMs": 1739274583586,
      "startAddress": "12264 Christopher Pine Apt. 262",
      "endAddress": "333 Heidi Inlet Apt. 892",
      "startCoords": {
        "latitude": 39.712341,
        "longitude": -104.916754
      },
      "endCoords": {
        "latitude": 39.791133,
        "longitude": -104.980778
      },
      "distanceMeters": 23992.9,
      "durationMs": 3163586,
      "drivingDurationMs": 2671220,
      "idlingDurationMs": 492367,
      "fuelConsumedMl": 1086,
      "fuelConsumedGallons": 0.287,
      "maxSpeedMph": 41.9,
      "averageSpeedMph": 17.0,
      "safetyEvents": []
    },
    {
      "id": "trip_41090742_20250211_009",
      "vehicleId": "41090742",
      "driverId": "20000012",
      "startMs": 1739260500000,
      "endMs": 1739262814025,
      "startAddress": "4817 Sarah Greens Apt. 687",
      "endAddress": "492 Kenneth Harbors",
      "startCoords": {
        "latitude": 39.794622,
        "longitude": -104.976851
      },
      "endCoords": {
        "latitude": 39.781282,
        "longitude": -104.968516
      },
      "distanceMeters": 14237.8,
      "durationMs": 2314026,
      "drivingDurationMs": 1857294,
      "idlingDurationMs": 456732,
      "fuelConsumedMl": 644,
      "fuelConsumedGallons": 0.17,
      "maxSpeedMph": 71.9,
      "averageSpeedMph": 13.8,
      "safetyEvents": [
        {
          "type": "speeding",
          "startMs": 1739261640000,
          "maxSpeedMph": 71.9
        }
      ]
    },
    {
      "id": "trip_41090742_20250211_010",
      "vehicleId": "41090742",
      "driverId": "20000012",
      "startMs": 1739280420000,
      "endMs": 1739282585947,
      "startAddress": "0991 Taylor Manor",
      "endAddress": "4917 Melton Knolls Apt. 922",
      "startCoords": {
        "latitude": 39.763107,
        "longitude": -105.011211
      },
      "endCoords": {
        "latitude": 39.729811,
        "longitude": -104.927363
      },
      "distanceMeters": 16460.3,
      "durationMs": 2165948,
      "drivingDurationMs": 1849471,
      "idlingDurationMs": 316477,
      "fuelConsumedMl": 746,
      "fuelConsumedGallons": 0.197,
      "maxSpeedMph": 51.9,
      "averageSpeedMph": 17.0,
      "safetyEvents": []
    },
    {
      "id": "trip_41090742_20250211_011",
      "vehicleId": "41090742",
      "driverId": "20000012",
      "startMs": 1739261460000,
      "endMs": 1739262013396,
      "startAddress": "30026 Veronica Square Suite 956",
      "endAddress": "97785 Williams Junctions Apt. 101",
      "startCoords": {
        "latitude": 39.716104,
        "longitude": -105.020066
      },
      "endCoords": {
        "latitude": 39.822048,
        "longitude": -104.936649
      },
      "distanceMeters": 4576.8,
      "durationMs": 553397,
      "drivingDurationMs": 434665,
      "idlingDurationMs": 118732,
      "fuelConsumedMl": 208,
      "fuelConsumedGallons": 0.055,
      "maxSpeedMph": 53.4,
      "averageSpeedMph": 18.5,
      "safetyEvents": []
    },
    {
      "id": "trip_41090742_20250212_001",
      "vehicleId": "41090742",
      "driverId": "20000012",
      "startMs": 1739367120000,
      "endMs": 1739368714081,
      "startAddress": "31457 Christopher Rapid",
      "endAddress": "47827 Wall Manors",
      "startCoords": {
        "latitude": 39.788942,
        "longitude": -105.00169
      },
      "endCoords": {
        "latitude": 39.752788,
        "longitude": -105.022971
      },
      "distanceMeters": 14065.5,
      "durationMs": 1594082,
      "drivingDurationMs": 1368365,
      "idlingDurationMs": 225717,
      "fuelConsumedMl": 636,
      "fuelConsumedGallons": 0.168,
      "maxSpeedMph": 63.8,
      "averageSpeedMph": 19.7,
      "safetyEvents": []
    },
    {
      "id": "trip_41090742_20250212_002",
      "vehicleId": "41090742",
      "driverId": "20000012",
      "startMs": 1739372280000,
      "endMs": 1739373907714,
      "startAddress": "679 Luis Lakes Suite 065",
      "endAddress": "13655 Petty Square",
      "startCoords": {
        "latitude": 39.739424,
        "longitude": -104.936843
      },
      "endCoords": {
        "latitude": 39.803439,
        "longitude": -105.030619
      },
      "distanceMeters": 12511.2,
      "durationMs": 1627714,
      "drivingDurationMs": 1393906,
      "idlingDurationMs": 233808,
      "fuelConsumedMl": 568,
      "fuelConsumedGallons": 0.15,
      "maxSpeedMph": 45.0,
      "averageSpeedMph": 17.2,
      "safetyEvents": []
    },
    {
      "id": "trip_41090742_20250212_003",
      "vehicleId": "41090742",
      "driverId": "20000012",
      "startMs": 1739356260000,
      "endMs": 1739357949436,
      "startAddress": "5310 Giles Spurs",
      "endAddress": "25208 Bell Crescent Apt. 272",
      "startCoords": {
        "latitude": 39.766469,
        "longitude": -104.921584
      },
      "endCoords": {
        "latitude": 39.823477,
        "longitude": -104.922389
      },
      "distanceMeters": 12563.6,
      "durationMs": 1689436,
      "drivingDurationMs": 1465631,
      "idlingDurationMs": 223805,
      "fuelConsumedMl": 568,
      "fuelConsumedGallons": 0.15,
      "maxSpeedMph": 31.6,
      "averageSpeedMph": 16.6,
      "safetyEvents": []
    },
    {
      "id": "trip_41090742_20250212_004",
      "vehicleId": "41090742",
      "driverId": "20000012",
      "startMs": 1739358900000,
      "endMs": 1739359436767,
      "startAddress": "1922 Valerie Points Apt. 108",
      "endAddress": "01183 Miguel Courts Apt. 065",
      "startCoords": {
        "latitude": 39.69128,
        "longitude": -104.993958
      },
      "endCoords": {
        "latitude": 39.814448,
        "longitude": -104.907028
      },
      "distanceMeters": 3433.6,
      "durationMs": 536768,
      "drivingDurationMs": 381582,
      "idlingDurationMs": 155186,
      "fuelConsumedMl": 155,
      "fuelConsumedGallons": 0.041,
      "maxSpeedMph": 42.3,
      "averageSpeedMph": 14.3,
      "safetyEvents": []
    },
    {
      "id": "trip_41090742_20250212_005",
      "vehicleId": "41090742",
      "driverId": "20000012",
      "startMs": 1739377860000,
      "endMs": 1739381324082,
      "startAddress": "88469 Johnny Alley",
      "endAddress": "05479 Clark Oval Suite 539",
      "startCoords": {
        "latitude": 39.767135,
        "longitude": -104.980813
      },
      "endCoords": {
        "latitude": 39.805254,
        "longitude": -105.071779
      },
      "distanceMeters": 22092.6,
      "durationMs": 3464083,
      "drivingDurationMs": 3131227,
      "idlingDurationMs": 332856,
      "fuelConsumedMl": 999,
      "fuelConsumedGallons": 0.264,
      "maxSpeedMph": 64.7,
      "averageSpeedMph": 14.3,
      "safetyEvents": []
    },
    {
      "id": "trip_41090742_20250212_006",
      "vehicleId": "41090742",
      "driverId": "20000012",
      "startMs": 1739376480000,
      "endMs": 1739378311518,
      "startAddress": "4951 Michele Mills",
      "endAddress": "47157 Rodriguez Unions Apt. 465",
      "startCoords": {
        "latitude": 39.770688,
        "longitude": -104.94823
      },
      "endCoords": {
        "latitude": 39.717168,
        "longitude": -105.004536
      },
      "distanceMeters": 14106.3,
      "durationMs": 1831519,
      "drivingDurationMs": 1479749,
      "idlingDurationMs": 351770,
      "fuelConsumedMl": 640,
      "fuelConsumedGallons": 0.169,
      "maxSpeedMph": 57.1,
      "averageSpeedMph": 17.2,
      "safetyEvents": []
    },
    {
      "id": "trip_41090742_20250212_007",
      "vehicleId": "41090742",
      "driverId": "20000012",
      "startMs": 1739358120000,
      "endMs": 1739359415595,
      "startAddress": "03872 Brennan Plains",
      "endAddress": "3541 Rodriguez Rue Suite 166",
      "startCoords": {
        "latitude": 39.727681,
        "longitude": -104.936227
      },
      "endCoords": {
        "latitude": 39.701442,
        "longitude": -104.92736
      },
      "distanceMeters": 8011.1,
      "durationMs": 1295596,
      "drivingDurationMs": 1054990,
      "idlingDurationMs": 240606,
      "fuelConsumedMl": 363,
      "fuelConsumedGallons": 0.096,
      "maxSpeedMph": 62.4,
      "averageSpeedMph": 13.8,
      "safetyEvents": []
    },
    {
      "id": "trip_41090742_20250212_008",
      "vehicleId": "41090742",
      "driverId": "20000012",
      "startMs": 1739366340000,
      "endMs": 1739370617012,
      "startAddress": "252 Megan Mill",
      "endAddress": "96554 Collins Path",
      "startCoords": {
        "latitude": 39.697917,
        "longitude": -104.900879
      },
      "endCoords": {
        "latitude": 39.770216,
        "longitude": -104.944528
      },
      "distanceMeters": 22559.4,
      "durationMs": 4277013,
      "drivingDurationMs": 3610355,
      "idlingDurationMs": 666658,
      "fuelConsumedMl": 1022,
      "fuelConsumedGallons": 0.27,
      "maxSpeedMph": 56.4,
      "averageSpeedMph": 11.8,
      "safetyEvents": []
    },
    {
      "id": "trip_41090742_20250212_009",
      "vehicleId": "41090742",
      "driverId": "20000012",
      "startMs": 1739351040000,
      "endMs": 1739354501471,
      "startAddress": "5432 Kaitlyn Roads",
      "endAddress": "402 Allen Plain Suite 381",
      "startCoords": {
        "latitude": 39.747681,
        "longitude": -104.934132
      },
      "endCoords": {
        "latitude": 39.7416,
        "longitude": -105.040224
      },
      "distanceMeters": 21811.3,
      "durationMs": 3461471,
      "drivingDurationMs": 2809838,
      "idlingDurationMs": 651633,
      "fuelConsumedMl": 988,
      "fuelConsumedGallons": 0.261,
      "maxSpeedMph": 58.5,
      "averageSpeedMph": 14.1,
      "safetyEvents": []
    },
    {
      "id": "trip_41090742_20250212_010",
      "vehicleId": "41090742",
      "driverId": "20000012",
      "startMs": 1739367240000,
      "endMs": 1739368401189,
      "startAddress": "112 Boyle Corners Suite 994",
      "endAddress": "493 Alvarez Route Suite 605",
      "startCoords": {
        "latitude": 39.772011,
        "longitude": -104.945263
      },
      "endCoords": {
        "latitude": 39.738333,
        "longitude": -104.925487
      },
      "distanceMeters": 9505.2,
      "durationMs": 1161190,
      "drivingDurationMs": 948496,
      "idlingDurationMs": 212694,
      "fuelConsumedMl": 432,
      "fuelConsumedGallons": 0.114,
      "maxSpeedMph": 60.0,
      "averageSpeedMph": 18.3,
      "safetyEvents": []
    },
    {
      "id": "trip_41090742_20250212_011",
      "vehicleId": "41090742",
      "driverId": "20000012",
      "startMs": 1739382540000,
      "endMs": 1739386017738,
      "startAddress": "21995 Erin Mission",
      "endAddress": "75058 Evans Corner",
      "startCoords": {
        "latitude": 39.754091,
        "longitude": -105.038458
      },
      "endCoords": {
        "latitude": 39.821676,
        "longitude": -105.020879
      },
      "distanceMeters": 18484.2,
      "durationMs": 3477738,
      "drivingDurationMs": 2977886,
      "idlingDurationMs": 499852,
      "fuelConsumedMl": 837,
      "fuelConsumedGallons": 0.221,
      "maxSpeedMph": 58.7,
      "averageSpeedMph": 11.9,
      "safetyEvents": []
    },
    {
      "id": "trip_41090742_20250212_012",
      "vehicleId": "41090742",
      "driverId": "20000012",
      "startMs": 1739382300000,
      "endMs": 1739383358506,
      "startAddress": "13542 Jordan Islands Apt. 714",
      "endAddress": "493 Kayla Junctions",
      "startCoords": {
        "latitude": 39.824892,
        "longitude": -104.934406
      },
      "endCoords": {
        "latitude": 39.808244,
        "longitude": -104.959064
      },
      "distanceMeters": 9131.6,
      "durationMs": 1058507,
      "drivingDurationMs": 876773,
      "idlingDurationMs": 181734,
      "fuelConsumedMl": 413,
      "fuelConsumedGallons": 0.109,
      "maxSpeedMph": 59.9,
      "averageSpeedMph": 19.3,
      "safetyEvents": []
    },
    {
      "id": "trip_41090742_20250212_013",
      "vehicleId": "41090742",
      "driverId": "20000012",
      "startMs": 1739354340000,
      "endMs": 1739356979312,
      "startAddress": "66556 Dunn Valley Suite 249",
      "endAddress": "952 Billy Freeway",
      "startCoords": {
        "latitude": 39.77107,
        "longitude": -105.034778
      },
      "endCoords": {
        "latitude": 39.747856,
        "longitude": -104.991513
      },
      "distanceMeters": 20432.3,
      "durationMs": 2639312,
      "drivingDurationMs": 2214866,
      "idlingDurationMs": 424446,
      "fuelConsumedMl": 924,
      "fuelConsumedGallons": 0.244,
      "maxSpeedMph": 60.3,
      "averageSpeedMph": 17.3,
      "safetyEvents": []
    },
    {
      "id": "trip_41090742_20250212_014",
      "vehicleId": "41090742",
      "driverId": "20000012",
      "startMs": 1739381400000,
      "endMs": 1739382460837,
      "startAddress": "8059 Paula Court",
      "endAddress": "278 Campbell Ridges Apt. 645",
      "startCoords": {
        "latitude": 39.709542,
        "longitude": -104.971732
      },
      "endCoords": {
        "latitude": 39.709667,
        "longitude": -105.071446
      },
      "distanceMeters": 7212.5,
      "durationMs": 1060838,
      "drivingDurationMs": 855593,
      "idlingDurationMs": 205244,
      "fuelConsumedMl": 326,
      "fuelConsumedGallons": 0.086,
      "maxSpeedMph": 55.6,
      "averageSpeedMph": 15.2,
      "safetyEvents": []
    },
    {
      "id": "trip_41090742_20250212_015",
      "vehicleId": "41090742",
      "driverId": "20000012",
      "startMs": 1739358300000,
      "endMs": 1739359507501,
      "startAddress": "256 Kelly Key",
      "endAddress": "61041 Michael Canyon",
      "startCoords": {
        "latitude": 39.781097,
        "longitude": -105.068506
      },
      "endCoords": {
        "latitude": 39.775663,
        "longitude": -105.006193
      },
      "distanceMeters": 7550.0,
      "durationMs": 1207502,
      "drivingDurationMs": 1024366,
      "idlingDurationMs": 183135,
      "fuelConsumedMl": 341,
      "fuelConsumedGallons": 0.09,
      "maxSpeedMph": 48.4,
      "averageSpeedMph": 14.0,
      "safetyEvents": []
    },
    {
      "id": "trip_41090742_20250212_016",
      "vehicleId": "41090742",
      "driverId": "20000012",
      "startMs": 1739344080000,
      "endMs": 1739345313308,
      "startAddress": "0383 Bond Isle Suite 310",
      "endAddress": "02550 Tonya Walk",
      "startCoords": {
        "latitude": 39.700758,
        "longitude": -104.9767
      },
      "endCoords": {
        "latitude": 39.732948,
        "longitude": -104.989362
      },
      "distanceMeters": 9381.8,
      "durationMs": 1233308,
      "drivingDurationMs": 997059,
      "idlingDurationMs": 236249,
      "fuelConsumedMl": 424,
      "fuelConsumedGallons": 0.112,
      "maxSpeedMph": 61.2,
      "averageSpeedMph": 17.0,
      "safetyEvents": []
    },
    {
      "id": "trip_41090742_20250212_017",
      "vehicleId": "41090742",
      "driverId": "20000012",
      "startMs": 1739346180000,
      "endMs": 1739349096334,
      "startAddress": "684 Gibson Island",
      "endAddress": "58707 Chelsea Circle",
      "startCoords": {
        "latitude": 39.76976,
        "longitude": -104.967776
      },
      "endCoords": {
        "latitude": 39.796653,
        "longitude": -105.02855
      },
      "distanceMeters": 18429.5,
      "durationMs": 2916334,
      "drivingDurationMs": 2520280,
      "idlingDurationMs": 396054,
      "fuelConsumedMl": 833,
      "fuelConsumedGallons": 0.22,
      "maxSpeedMph": 63.1,
      "averageSpeedMph": 14.1,
      "safetyEvents": []
    },
    {
      "id": "trip_41090742_20250212_018",
      "vehicleId": "41090742",
      "driverId": "20000012",
      "startMs": 1739367360000,
      "endMs": 1739368335756,
      "startAddress": "858 Michael Land Apt. 915",
      "endAddress": "9591 Brian Shoal",
      "startCoords": {
        "latitude": 39.703759,
        "longitude": -105.060613
      },
      "endCoords": {
        "latitude": 39.750036,
        "longitude": -105.032472
      },
      "distanceMeters": 6789.0,
      "durationMs": 975757,
      "drivingDurationMs": 789591,
      "idlingDurationMs": 186165,
      "fuelConsumedMl": 307,
      "fuelConsumedGallons": 0.081,
      "maxSpeedMph": 66.4,
      "averageSpeedMph": 15.6,
      "safetyEvents": [
        {
          "type": "speeding",
          "startMs": 1739367900000,
          "maxSpeedMph": 66.4
        }
      ]
    },
    {
      "id": "trip_41090742_20250213_001",
      "vehicleId": "41090742",
      "driverId": "20000018",
      "startMs": 1739454180000,
      "endMs": 1739456695769,
      "startAddress": "7062 Grimes Isle Apt. 123",
      "endAddress": "36445 Conley Road",
      "startCoords": {
        "latitude": 39.701818,
        "longitude": -104.914021
      },
      "endCoords": {
        "latitude": 39.798558,
        "longitude": -104.985734
      },
      "distanceMeters": 13432.3,
      "durationMs": 2515769,
      "drivingDurationMs": 2021957,
      "idlingDurationMs": 493812,
      "fuelConsumedMl": 609,
      "fuelConsumedGallons": 0.161,
      "maxSpeedMph": 47.1,
      "averageSpeedMph": 11.9,
      "safetyEvents": []
    },
    {
      "id": "trip_41090742_20250213_002",
      "vehicleId": "41090742",
      "driverId": "20000018",
      "startMs": 1739467920000,
      "endMs": 1739471183606,
      "startAddress": "8230 Edwin Vista Suite 395",
      "endAddress": "9214 Jones Pike",
      "startCoords": {
        "latitude": 39.777981,
        "longitude": -104.916317
      },
      "endCoords": {
        "latitude": 39.824029,
        "longitude": -105.012412
      },
      "distanceMeters": 23171.4,
      "durationMs": 3263607,
      "drivingDurationMs": 2878883,
      "idlingDurationMs": 384723,
      "fuelConsumedMl": 1049,
      "fuelConsumedGallons": 0.277,
      "maxSpeedMph": 36.5,
      "averageSpeedMph": 15.9,
      "safetyEvents": []
    },
    {
      "id": "trip_41090742_20250213_003",
      "vehicleId": "41090742",
      "driverId": "20000018",
      "startMs": 1739428080000,
      "endMs": 1739428937019,
      "startAddress": "750 Hatfield Valley",
      "endAddress": "88643 Joshua Meadows",
      "startCoords": {
        "latitude": 39.7493,
        "longitude": -105.046947
      },
      "endCoords": {
        "latitude": 39.79811,
        "longitude": -104.982912
      },
      "distanceMeters": 5780.4,
      "durationMs": 857020,
      "drivingDurationMs": 678366,
      "idlingDurationMs": 178654,
      "fuelConsumedMl": 261,
      "fuelConsumedGallons": 0.069,
      "maxSpeedMph": 61.3,
      "averageSpeedMph": 15.1,
      "safetyEvents": []
    },
    {
      "id": "trip_41090742_20250213_004",
      "vehicleId": "41090742",
      "driverId": "20000018",
      "startMs": 1739436180000,
      "endMs": 1739439666306,
      "startAddress": "98942 Aaron Curve Apt. 559",
      "endAddress": "462 Parrish Trafficway",
      "startCoords": {
        "latitude": 39.764239,
        "longitude": -104.945554
      },
      "endCoords": {
        "latitude": 39.748463,
        "longitude": -105.058103
      },
      "distanceMeters": 19047.9,
      "durationMs": 3486306,
      "drivingDurationMs": 2891651,
      "idlingDurationMs": 594655,
      "fuelConsumedMl": 863,
      "fuelConsumedGallons": 0.228,
      "maxSpeedMph": 31.3,
      "averageSpeedMph": 12.2,
      "safetyEvents": []
    },
    {
      "id": "trip_41090742_20250213_005",
      "vehicleId": "41090742",
      "driverId": "20000018",
      "startMs": 1739452680000,
      "endMs": 1739455500698,
      "startAddress": "4468 Miller Mountains Suite 495",
      "endAddress": "6743 Joseph Freeway Suite 609",
      "startCoords": {
        "latitude": 39.823746,
        "longitude": -105.062242
      },
      "endCoords": {
        "latitude": 39.72262,
        "longitude": -105.017066
      },
      "distanceMeters": 24118.6,
      "durationMs": 2820698,
      "drivingDurationMs": 2295571,
      "idlingDurationMs": 525128,
      "fuelConsumedMl": 1090,
      "fuelConsumedGallons": 0.288,
      "maxSpeedMph": 70.6,
      "averageSpeedMph": 19.1,
      "safetyEvents": [
        {
          "type": "speeding",
          "startMs": 1739455260000,
          "maxSpeedMph": 70.6
        }
      ]
    },
    {
      "id": "trip_41090742_20250213_006",
      "vehicleId": "41090742",
      "driverId": "20000018",
      "startMs": 1739439540000,
      "endMs": 1739441066551,
      "startAddress": "97752 Stephen Track",
      "endAddress": "6685 Armstrong Meadows",
      "startCoords": {
        "latitude": 39.703322,
        "longitude": -105.010317
      },
      "endCoords": {
        "latitude": 39.698522,
        "longitude": -104.996921
      },
      "distanceMeters": 11260.0,
      "durationMs": 1526551,
      "drivingDurationMs": 1246924,
      "idlingDurationMs": 279627,
      "fuelConsumedMl": 511,
      "fuelConsumedGallons": 0.135,
      "maxSpeedMph": 57.5,
      "averageSpeedMph": 16.5,
      "safetyEvents": []
    },
    {
      "id": "trip_41090742_20250213_007",
      "vehicleId": "41090742",
      "driverId": "20000018",
      "startMs": 1739460300000,
      "endMs": 1739461425017,
      "startAddress": "721 Gina Drive Apt. 602",
      "endAddress": "6410 Michael Lakes Apt. 683",
      "startCoords": {
        "latitude": 39.7935,
        "longitude": -104.97088
      },
      "endCoords": {
        "latitude": 39.721012,
        "longitude": -105.036864
      },
      "distanceMeters": 6531.0,
      "durationMs": 1125017,
      "drivingDurationMs": 935225,
      "idlingDurationMs": 189792,
      "fuelConsumedMl": 295,
      "fuelConsumedGallons": 0.078,
      "maxSpeedMph": 40.7,
      "averageSpeedMph": 13.0,
      "safetyEvents": []
    },
    {
      "id": "trip_41090742_20250213_008",
      "vehicleId": "41090742",
      "driverId": "20000018",
      "startMs": 1739449740000,
      "endMs": 1739452669816,
      "startAddress": "71109 Troy Knolls Apt. 378",
      "endAddress": "6247 Holt Rue Apt. 084",
      "startCoords": {
        "latitude": 39.812191,
        "longitude": -104.928056
      },
      "endCoords": {
        "latitude": 39.755396,
        "longitude": -104.94699
      },
      "distanceMeters": 17863.2,
      "durationMs": 2929816,
      "drivingDurationMs": 2461817,
      "idlingDurationMs": 467999,
      "fuelConsumedMl": 806,
      "fuelConsumedGallons": 0.213,
      "maxSpeedMph": 62.7,
      "averageSpeedMph": 13.6,
      "safetyEvents": []
    },
    {
      "id": "trip_41090742_20250213_009",
      "vehicleId": "41090742",
      "driverId": "20000018",
      "startMs": 1739461320000,
      "endMs": 1739462574941,
      "startAddress": "1741 Brittany Trail",
      "endAddress": "637 Miller Tunnel",
      "startCoords": {
        "latitude": 39.719759,
        "longitude": -104.903653
      },
      "endCoords": {
        "latitude": 39.68653,
        "longitude": -104.938716
      },
      "distanceMeters": 8598.0,
      "durationMs": 1254942,
      "drivingDurationMs": 1026102,
      "idlingDurationMs": 228839,
      "fuelConsumedMl": 390,
      "fuelConsumedGallons": 0.103,
      "maxSpeedMph": 41.5,
      "averageSpeedMph": 15.3,
      "safetyEvents": []
    },
    {
      "id": "trip_41090742_20250213_010",
      "vehicleId": "41090742",
      "driverId": "20000018",
      "startMs": 1739457480000,
      "endMs": 1739460040531,
      "startAddress": "81980 Theresa Skyway",
      "endAddress": "8515 Brown Ways Apt. 877",
      "startCoords": {
        "latitude": 39.726032,
        "longitude": -104.934198
      },
      "endCoords": {
        "latitude": 39.714754,
        "longitude": -104.951895
      },
      "distanceMeters": 19298.3,
      "durationMs": 2560532,
      "drivingDurationMs": 2255323,
      "idlingDurationMs": 305209,
      "fuelConsumedMl": 874,
      "fuelConsumedGallons": 0.231,
      "maxSpeedMph": 30.3,
      "averageSpeedMph": 16.9,
      "safetyEvents": []
    },
    {
      "id": "trip_41090742_20250213_011",
      "vehicleId": "41090742",
      "driverId": "20000018",
      "startMs": 1739446860000,
      "endMs": 1739448828782,
      "startAddress": "92049 Smith Divide Suite 401",
      "endAddress": "82828 Arellano Union",
      "startCoords": {
        "latitude": 39.690583,
        "longitude": -105.02133
      },
      "endCoords": {
        "latitude": 39.813426,
        "longitude": -105.023726
      },
      "distanceMeters": 10822.0,
      "durationMs": 1968782,
      "drivingDurationMs": 1582580,
      "idlingDurationMs": 386202,
      "fuelConsumedMl": 488,
      "fuelConsumedGallons": 0.129,
      "maxSpeedMph": 61.9,
      "averageSpeedMph": 12.3,
      "safetyEvents": []
    },
    {
      "id": "trip_41090742_20250213_012",
      "vehicleId": "41090742",
      "driverId": "20000018",
      "startMs": 1739444700000,
      "endMs": 1739445838028,
      "startAddress": "53283 Jenkins Mountain Suite 694",
      "endAddress": "10805 Martinez Squares Suite 704",
      "startCoords": {
        "latitude": 39.706629,
        "longitude": -105.06885
      },
      "endCoords": {
        "latitude": 39.82566,
        "longitude": -104.949232
      },