{
  "vehicleId": "46232361",
  "vehicleName": "DEN-VAN-08",
  "month": "2025_02",
  "pagination": {
    "endCursor": "trip_46232361_20250228_8116",
    "hasNextPage": false
  },
  "trips": [
    {
      "id": "trip_46232361_20250201_4254",
      "vehicleId": "46232361",
      "driverId": "20000004",
      "startMs": 1738378187000,
      "endMs": 1738381067000,
      "startAddress": "61713 Travis Creek Suite 711",
      "endAddress": "3069 Ricky Villages Suite 131",
      "startCoords": {
        "latitude": 39.702724,
        "longitude": -104.916266
      },
      "endCoords": {
        "latitude": 39.694008,
        "longitude": -104.927548
      },
      "distanceMeters": 14776.7,
      "durationMs": 2880000,
      "drivingDurationMs": 2161299,
      "idlingDurationMs": 718701,
      "fuelConsumedMl": 1878,
      "fuelConsumedGallons": 0.496,
      "maxSpeedMph": 31.9,
      "averageSpeedMph": 11.5,
      "safetyEvents": []
    },
    {
      "id": "trip_46232361_20250201_4279",
      "vehicleId": "46232361",
      "driverId": "20000012",
      "startMs": 1738395520000,
      "endMs": 1738397680000,
      "startAddress": "82469 Davis Loop Suite 513",
      "endAddress": "77315 Laura Village",
      "startCoords": {
        "latitude": 39.81455,
        "longitude": -105.085709
      },
      "endCoords": {
        "latitude": 39.720723,
        "longitude": -104.990792
      },
      "distanceMeters": 12582.1,
      "durationMs": 2160000,
      "drivingDurationMs": 1839195,
      "idlingDurationMs": 320805,
      "fuelConsumedMl": 1601,
      "fuelConsumedGallons": 0.423,
      "maxSpeedMph": 36.1,
      "averageSpeedMph": 13.0,
      "safetyEvents": []
    },
    {
      "id": "trip_46232361_20250201_4307",
      "vehicleId": "46232361",
      "driverId": "20000011",
      "startMs": 1738409993000,
      "endMs": 1738412153000,
      "startAddress": "02120 Powell Extension Suite 739",
      "endAddress": "948 Sara Pike Suite 464",
      "startCoords": {
        "latitude": 39.783977,
        "longitude": -104.9708
      },
      "endCoords": {
        "latitude": 39.719411,
        "longitude": -104.90285
      },
      "distanceMeters": 12478.6,
      "durationMs": 2160000,
      "drivingDurationMs": 1633666,
      "idlingDurationMs": 526334,
      "fuelConsumedMl": 1586,
      "fuelConsumedGallons": 0.419,
      "maxSpeedMph": 39.4,
      "averageSpeedMph": 12.9,
      "safetyEvents": []
    },
    {
      "id": "trip_46232361_20250201_4338",
      "vehicleId": "46232361",
      "driverId": "20000008",
      "startMs": 1738427310000,
      "endMs": 1738436991000,
      "startAddress": "624 Amanda Square",
      "endAddress": "80386 Williams Way",
      "startCoords": {
        "latitude": 39.714985,
        "longitude": -105.062091
      },
      "endCoords": {
        "latitude": 39.77865,
        "longitude": -105.02554
      },
      "distanceMeters": 38403.1,
      "durationMs": 9681000,
      "drivingDurationMs": 7426474,
      "idlingDurationMs": 2254526,
      "fuelConsumedMl": 4883,
      "fuelConsumedGallons": 1.29,
      "maxSpeedMph": 35.4,
      "averageSpeedMph": 8.9,
      "safetyEvents": []
    },
    {
      "id": "trip_46232361_20250201_4365",
      "vehicleId": "46232361",
      "driverId": "20000001",
      "startMs": 1738442114000,
      "endMs": 1738446920000,
      "startAddress": "4697 Houston Roads",
      "endAddress": "366 Green Knoll Suite 218",
      "startCoords": {
        "latitude": 39.708473,
        "longitude": -104.974677
      },
      "endCoords": {
        "latitude": 39.820818,
        "longitude": -104.915756
      },
      "distanceMeters": 26770.9,
      "durationMs": 4806000,
      "drivingDurationMs": 4092606,
      "idlingDurationMs": 713394,
      "fuelConsumedMl": 3403,
      "fuelConsumedGallons": 0.899,
      "maxSpeedMph": 28.6,
      "averageSpeedMph": 12.5,
      "safetyEvents": []
    },
    {
      "id": "trip_46232361_20250202_4391",
      "vehicleId": "46232361",
      "driverId": "20000020",
      "startMs": 1738463439000,
      "endMs": 1738465419000,
      "startAddress": "0800 Williamson Springs Suite 622",
      "endAddress": "41981 Kimberly Drive Suite 078",
      "startCoords": {
        "latitude": 39.714623,
        "longitude": -104.90294
      },
      "endCoords": {
        "latitude": 39.704141,
        "longitude": -105.063012
      },
      "distanceMeters": 14428.5,
      "durationMs": 1980000,
      "drivingDurationMs": 1681993,
      "idlingDurationMs": 298007,
      "fuelConsumedMl": 1836,
      "fuelConsumedGallons": 0.485,
      "maxSpeedMph": 31.8,
      "averageSpeedMph": 16.3,
      "safetyEvents": []
    },
    {
      "id": "trip_46232361_20250202_4415",
      "vehicleId": "46232361",
      "driverId": "20000012",
      "startMs": 1738485048000,
      "endMs": 1738490020000,
      "startAddress": "648 Brianna Parkways",
      "endAddress": "13955 Hall Centers Suite 416",
      "startCoords": {
        "latitude": 39.827253,
        "longitude": -105.02763
      },
      "endCoords": {
        "latitude": 39.80889,
        "longitude": -104.915647
      },
      "distanceMeters": 26126.2,
      "durationMs": 4972000,
      "drivingDurationMs": 4177206,
      "idlingDurationMs": 794794,
      "fuelConsumedMl": 3324,
      "fuelConsumedGallons": 0.878,
      "maxSpeedMph": 27.0,
      "averageSpeedMph": 11.8,
      "safetyEvents": []
    },
    {
      "id": "trip_46232361_20250202_4438",
      "vehicleId": "46232361",
      "driverId": "20000013",
      "startMs": 1738502773000,
      "endMs": 1738504993000,
      "startAddress": "23195 Eric Square",
      "endAddress": "8789 Williams Mills Suite 674",
      "startCoords": {
        "latitude": 39.754098,
        "longitude": -104.973136
      },
      "endCoords": {
        "latitude": 39.801326,
        "longitude": -105.081521
      },
      "distanceMeters": 9676.3,
      "durationMs": 2220000,
      "drivingDurationMs": 1839506,
      "idlingDurationMs": 380494,
      "fuelConsumedMl": 1230,
      "fuelConsumedGallons": 0.325,
      "maxSpeedMph": 39.6,
      "averageSpeedMph": 9.8,
      "safetyEvents": []
    },
    {
      "id": "trip_46232361_20250202_4463",
      "vehicleId": "46232361",
      "driverId": "20000001",
      "startMs": 1738522373000,
      "endMs": 1738523693000,
      "startAddress": "113 Allen Spring Suite 762",
      "endAddress": "18357 Chung Trail Suite 087",
      "startCoords": {
        "latitude": 39.795612,
        "longitude": -104.985942
      },
      "endCoords": {
        "latitude": 39.688692,
        "longitude": -104.921798
      },
      "distanceMeters": 6165.9,
      "durationMs": 1320000,
      "drivingDurationMs": 1087065,
      "idlingDurationMs": 232935,
      "fuelConsumedMl": 784,
      "fuelConsumedGallons": 0.207,
      "maxSpeedMph": 26.1,
      "averageSpeedMph": 10.4,
      "safetyEvents": []
    },
    {
      "id": "trip_46232361_20250203_4500",
      "vehicleId": "46232361",
      "driverId": "20000006",
      "startMs": 1738569779000,
      "endMs": 1738582677000,
      "startAddress": "042 Sanders Plaza",
      "endAddress": "37972 Nguyen Glen Suite 814",
      "startCoords": {
        "latitude": 39.768682,
        "longitude": -105.076099
      },
      "endCoords": {
        "latitude": 39.76567,
        "longitude": -105.0801
      },
      "distanceMeters": 56292.1,
      "durationMs": 12898000,
      "drivingDurationMs": 10325664,
      "idlingDurationMs": 2572336,
      "fuelConsumedMl": 7158,
      "fuelConsumedGallons": 1.891,
      "maxSpeedMph": 35.2,
      "averageSpeedMph": 9.8,
      "safetyEvents": []
    },
    {
      "id": "trip_46232361_20250203_4530",
      "vehicleId": "46232361",
      "driverId": "20000010",
      "startMs": 1738585794000,
      "endMs": 1738587474000,
      "startAddress": "869 Alexander Ports",
      "endAddress": "86561 Smith Throughway Apt. 544",
      "startCoords": {
        "latitude": 39.82508,
        "longitude": -105.066459
      },
      "endCoords": {
        "latitude": 39.686218,
        "longitude": -105.067789
      },
      "distanceMeters": 7233.9,
      "durationMs": 1680000,
      "drivingDurationMs": 1436341,
      "idlingDurationMs": 243659,
      "fuelConsumedMl": 920,
      "fuelConsumedGallons": 0.243,
      "maxSpeedMph": 30.7,
      "averageSpeedMph": 9.6,
      "safetyEvents": []
    },
    {
      "id": "trip_46232361_20250203_4554",
      "vehicleId": "46232361",
      "driverId": "20000010",
      "startMs": 1738597658000,
      "endMs": 1738608464000,
      "startAddress": "206 Brown Mission",
      "endAddress": "24190 Lewis Drive",
      "startCoords": {
        "latitude": 39.788297,
        "longitude": -104.968546
      },
      "endCoords": {
        "latitude": 39.755142,
        "longitude": -105.03629
      },
      "distanceMeters": 63782.7,
      "durationMs": 10806000,
      "drivingDurationMs": 9209607,
      "idlingDurationMs": 1596393,
      "fuelConsumedMl": 8108,
      "fuelConsumedGallons": 2.142,
      "maxSpeedMph": 27.7,
      "averageSpeedMph": 13.2,
      "safetyEvents": []
    },
    {
      "id": "trip_46232361_20250203_4583",
      "vehicleId": "46232361",
      "driverId": "20000004",
      "startMs": 1738611490000,
      "endMs": 1738619706000,
      "startAddress": "4202 Adams Hollow Apt. 859",
      "endAddress": "52924 Heather Turnpike Apt. 425",
      "startCoords": {
        "latitude": 39.799878,
        "longitude": -104.995666
      },
      "endCoords": {
        "latitude": 39.802397,
        "longitude": -105.022522
      },
      "distanceMeters": 54732.7,
      "durationMs": 8216000,
      "drivingDurationMs": 6338746,
      "idlingDurationMs": 1877254,
      "fuelConsumedMl": 6958,
      "fuelConsumedGallons": 1.838,
      "maxSpeedMph": 30.7,
      "averageSpeedMph": 14.9,
      "safetyEvents": []
    },
    {
      "id": "trip_46232361_20250204_4613",
      "vehicleId": "46232361",
      "driverId": "20000006",
      "startMs": 1738627402000,
      "endMs": 1738629382000,
      "startAddress": "1381 White Springs",
      "endAddress": "87340 Ricky Orchard",
      "startCoords": {
        "latitude": 39.773979,
        "longitude": -104.933498
      },
      "endCoords": {
        "latitude": 39.791227,
        "longitude": -104.921057
      },
      "distanceMeters": 12340.6,
      "durationMs": 1980000,
      "drivingDurationMs": 1546647,
      "idlingDurationMs": 433353,
      "fuelConsumedMl": 1567,
      "fuelConsumedGallons": 0.414,
      "maxSpeedMph": 33.9,
      "averageSpeedMph": 13.9,
      "safetyEvents": []
    },
    {
      "id": "trip_46232361_20250204_4640",
      "vehicleId": "46232361",
      "driverId": "20000001",
      "startMs": 1738642964000,
      "endMs": 1738644884000,
      "startAddress": "03052 Smith Glen",
      "endAddress": "184 Mack Station Suite 380",
      "startCoords": {
        "latitude": 39.698315,
        "longitude": -104.914847
      },
      "endCoords": {
        "latitude": 39.793435,
        "longitude": -104.906872
      },
      "distanceMeters": 8482.5,
      "durationMs": 1920000,
      "drivingDurationMs": 1481732,
      "idlingDurationMs": 438268,
      "fuelConsumedMl": 1079,
      "fuelConsumedGallons": 0.285,
      "maxSpeedMph": 36.6,
      "averageSpeedMph": 9.9,
      "safetyEvents": []
    },
    {
      "id": "trip_46232361_20250204_4669",
      "vehicleId": "46232361",
      "driverId": "20000018",
      "startMs": 1738660114000,
      "endMs": 1738661974000,
      "startAddress": "5284 Erickson Islands",
      "endAddress": "4391 Michael Alley Suite 568",
      "startCoords": {
        "latitude": 39.789439,
        "longitude": -104.924118
      },
      "endCoords": {
        "latitude": 39.691037,
        "longitude": -105.054876
      },
      "distanceMeters": 11856.5,
      "durationMs": 1860000,
      "drivingDurationMs": 1543980,
      "idlingDurationMs": 316020,
      "fuelConsumedMl": 1507,
      "fuelConsumedGallons": 0.398,
      "maxSpeedMph": 28.6,
      "averageSpeedMph": 14.3,
      "safetyEvents": []
    },
    {
      "id": "trip_46232361_20250204_4697",
      "vehicleId": "46232361",
      "driverId": "20000007",
      "startMs": 1738675031000,
      "endMs": 1738679812000,
      "startAddress": "840 Amy Island",
      "endAddress": "596 Hernandez Springs",
      "startCoords": {
        "latitude": 39.752551,
        "longitude": -104.99372
      },
      "endCoords": {
        "latitude": 39.699555,
        "longitude": -105.014626
      },
      "distanceMeters": 30016.5,
      "durationMs": 4781000,
      "drivingDurationMs": 3822904,
      "idlingDurationMs": 958096,
      "fuelConsumedMl": 3816,
      "fuelConsumedGallons": 1.008,
      "maxSpeedMph": 27.0,
      "averageSpeedMph": 14.0,
      "safetyEvents": []
    },
    {
      "id": "trip_46232361_20250204_4726",
      "vehicleId": "46232361",
      "driverId": "20000016",
      "startMs": 1738687179000,
      "endMs": 1738689219000,
      "startAddress": "416 Benjamin Creek Suite 915",
      "endAddress": "14305 Wilson Brook Suite 050",
      "startCoords": {
        "latitude": 39.748304,
        "longitude": -105.047777
      },
      "endCoords": {
        "latitude": 39.740591,
        "longitude": -104.905356
      },
      "distanceMeters": 14030.6,
      "durationMs": 2040000,
      "drivingDurationMs": 1627431,
      "idlingDurationMs": 412569,
      "fuelConsumedMl": 1783,
      "fuelConsumedGallons": 0.471,
      "maxSpeedMph": 30.8,
      "averageSpeedMph": 15.4,
      "safetyEvents": []
    },
    {
      "id": "trip_46232361_20250204_4753",
      "vehicleId": "46232361",
      "driverId": "20000008",
      "startMs": 1738707703000,
      "endMs": 1738724420000,
      "startAddress": "53912 Mary Green",
      "endAddress": "806 Kristen Lock",
      "startCoords": {
        "latitude": 39.781678,
        "longitude": -104.996112
      },
      "endCoords": {
        "latitude": 39.780097,
        "longitude": -105.044469
      },
      "distanceMeters": 74613.1,
      "durationMs": 16717000,
      "drivingDurationMs": 12620736,
      "idlingDurationMs": 4096264,
      "fuelConsumedMl": 9486,
      "fuelConsumedGallons": 2.506,
      "maxSpeedMph": 28.8,
      "averageSpeedMph": 10.0,
      "safetyEvents": []
    },
    {
      "id": "trip_46232361_20250205_4782",
      "vehicleId": "46232361",
      "driverId": "20000016",
      "startMs": 1738731477000,
      "endMs": 1738733037000,
      "startAddress": "6652 Gordon Gateway",
      "endAddress": "4401 Mckinney Locks",
      "startCoords": {
        "latitude": 39.767952,
        "longitude": -104.995926
      },
      "endCoords": {
        "latitude": 39.762808,
        "longitude": -105.046195
      },
      "distanceMeters": 8417.1,
      "durationMs": 1560000,
      "drivingDurationMs": 1398590,
      "idlingDurationMs": 161410,
      "fuelConsumedMl": 1071,
      "fuelConsumedGallons": 0.283,
      "maxSpeedMph": 30.4,
      "averageSpeedMph": 12.1,
      "safetyEvents": []
    },
    {
      "id": "trip_46232361_20250205_4809",
      "vehicleId": "46232361",
      "driverId": "20000013",
      "startMs": 1738751219000,
      "endMs": 1738762127000,
      "startAddress": "28783 Romero Cliffs Suite 714",
      "endAddress": "97090 Mark Tunnel Suite 297",
      "startCoords": {
        "latitude": 39.795008,
        "longitude": -105.05275
      },
      "endCoords": {
        "latitude": 39.792364,
        "longitude": -105.061982
      },
      "distanceMeters": 49592.8,
      "durationMs": 10908000,
      "drivingDurationMs": 9023677,
      "idlingDurationMs": 1884323,
      "fuelConsumedMl": 6306,
      "fuelConsumedGallons": 1.666,
      "maxSpeedMph": 27.7,
      "averageSpeedMph": 10.2,
      "safetyEvents": []
    },
    {
      "id": "trip_46232361_20250205_4840",
      "vehicleId": "46232361",
      "driverId": "20000003",
      "startMs": 1738766813000,
      "endMs": 1738774816000,
      "startAddress": "0865 Jessica Cliff",
      "endAddress": "0806 Anna Fork",
      "startCoords": {
        "latitude": 39.730388,
        "longitude": -105.080663
      },
      "endCoords": {
        "latitude": 39.745335,
        "longitude": -104.998057
      },
      "distanceMeters": 48662.1,
      "durationMs": 8003000,
      "drivingDurationMs": 7176042,
      "idlingDurationMs": 826958,
      "fuelConsumedMl": 6185,
      "fuelConsumedGallons": 1.634,
      "maxSpeedMph": 39.7,
      "averageSpeedMph": 13.6,
      "safetyEvents": []
    },
    {
      "id": "trip_46232361_20250205_4867",
      "vehicleId": "46232361",
      "driverId": "20000003",
      "startMs": 1738779478000,
      "endMs": 1738781518000,
      "startAddress": "29593 Wong Groves",
      "endAddress": "05614 Laura Tunnel Apt. 488",
      "startCoords": {
        "latitude": 39.825606,
        "longitude": -105.001348
      },
      "endCoords": {
        "latitude": 39.711348,
        "longitude": -105.068942
      },
      "distanceMeters": 14141.9,
      "durationMs": 2040000,
      "drivingDurationMs": 1595030,
      "idlingDurationMs": 444970,
      "fuelConsumedMl": 1798,
      "fuelConsumedGallons": 0.475,
      "maxSpeedMph": 33.1,
      "averageSpeedMph": 15.5,
      "safetyEvents": []
    },
    {
      "id": "trip_46232361_20250205_4898",
      "vehicleId": "46232361",
      "driverId": "20000020",
      "startMs": 1738796300000,
      "endMs": 1738798520000,
      "startAddress": "1458 Jeremy Flats Suite 287",
      "endAddress": "30773 Castaneda Forest",
      "startCoords": {
        "latitude": 39.802992,
        "longitude": -104.959968
      },
      "endCoords": {
        "latitude": 39.808604,
        "longitude": -105.0837
      },
      "distanceMeters": 10796.2,
      "durationMs": 2220000,
      "drivingDurationMs": 1840684,
      "idlingDurationMs": 379316,
      "fuelConsumedMl": 1374,
      "fuelConsumedGallons": 0.363,
      "maxSpeedMph": 34.7,
      "averageSpeedMph": 10.9,
      "safetyEvents": []
    },
    {
      "id": "trip_46232361_20250206_4924",
      "vehicleId": "46232361",
      "driverId": "20000012",
      "startMs": 1738817288000,
      "endMs": 1738819268000,
      "startAddress": "44159 Whitney Isle Apt. 981",
      "endAddress": "9696 Newman Forest",
      "startCoords": {
        "latitude": 39.735803,
        "longitude": -105.041669
      },
      "endCoords": {
        "latitude": 39.793668,
        "longitude": -104.9502
      },
      "distanceMeters": 10457.5,
      "durationMs": 1980000,
      "drivingDurationMs": 1544300,
      "idlingDurationMs": 435700,
      "fuelConsumedMl": 1329,
      "fuelConsumedGallons": 0.351,
      "maxSpeedMph": 37.7,
      "averageSpeedMph": 11.8,
      "safetyEvents": []
    },
    {
      "id": "trip_46232361_20250206_4952",
      "vehicleId": "46232361",
      "driverId": "20000003",
      "startMs": 1738829997000,
      "endMs": 1738831857000,
      "startAddress": "7588 Martinez Fort",
      "endAddress": "3934 Guzman Center Apt. 288",
      "startCoords": {
        "latitude": 39.770367,
        "longitude": -104.994485
      },
      "endCoords": {
        "latitude": 39.784514,
        "longitude": -105.018866
      },
      "distanceMeters": 11479.4,
      "durationMs": 1860000,
      "drivingDurationMs": 1452119,
      "idlingDurationMs": 407881,
      "fuelConsumedMl": 1461,
      "fuelConsumedGallons": 0.386,
      "maxSpeedMph": 30.2,
      "averageSpeedMph": 13.8,
      "safetyEvents": []
    },
    {
      "id": "trip_46232361_20250206_4979",
      "vehicleId": "46232361",
      "driverId": "20000008",
      "startMs": 1738842747000,
      "endMs": 1738849922000,
      "startAddress": "110 Lin Mall Apt. 587",
      "endAddress": "6316 Diane Plaza Suite 405",
      "startCoords": {
        "latitude": 39.818004,
        "longitude": -105.035221
      },
      "endCoords": {
        "latitude": 39.70727,
        "longitude": -104.990046
      },
      "distanceMeters": 50885.9,
      "durationMs": 7175000,
      "drivingDurationMs": 6010355,
      "idlingDurationMs": 1164645,
      "fuelConsumedMl": 6469,
      "fuelConsumedGallons": 1.709,
      "maxSpeedMph": 32.9,
      "averageSpeedMph": 15.9,
      "safetyEvents": []
    },
    {
      "id": "trip_46232361_20250206_5007",
      "vehicleId": "46232361",
      "driverId": "20000014",
      "startMs": 1738856646000,
      "endMs": 1738860569000,
      "startAddress": "5753 Lauren Row Apt. 017",
      "endAddress": "06583 Suarez Mission",
      "startCoords": {
        "latitude": 39.784293,
        "longitude": -104.983689
      },
      "endCoords": {
        "latitude": 39.806396,
        "longitude": -105.008944
      },
      "distanceMeters": 27174.8,
      "durationMs": 3923000,
      "drivingDurationMs": 3224887,
      "idlingDurationMs": 698113,
      "fuelConsumedMl": 3456,
      "fuelConsumedGallons": 0.913,
      "maxSpeedMph": 27.3,
      "averageSpeedMph": 15.5,
      "safetyEvents": []
    },
    {
      "id": "trip_46232361_20250206_5033",
      "vehicleId": "46232361",
      "driverId": "20000001",
      "startMs": 1738867921000,
      "endMs": 1738879652000,
      "startAddress": "140 Zachary Creek",
      "endAddress": "422 Sandy Radial Suite 053",
      "startCoords": {
        "latitude": 39.791479,
        "longitude": -105.079748
      },
      "endCoords": {
        "latitude": 39.765139,
        "longitude": -104.995476
      },
      "distanceMeters": 48701.2,
      "durationMs": 11731000,
      "drivingDurationMs": 9216335,
      "idlingDurationMs": 2514665,
      "fuelConsumedMl": 6193,
      "fuelConsumedGallons": 1.636,
      "maxSpeedMph": 32.6,
      "averageSpeedMph": 9.3,
      "safetyEvents": []
    },
    {
      "id": "trip_46232361_20250207_5064",
      "vehicleId": "46232361",
      "driverId": "20000013",
      "startMs": 1738887974000,
      "endMs": 1738889954000,
      "startAddress": "04381 Davis Circles Suite 556",
      "endAddress": "4577 Brandon Point Apt. 508",
      "startCoords": {
        "latitude": 39.77972,
        "longitude": -105.083879
      },
      "endCoords": {
        "latitude": 39.713671,
        "longitude": -104.991982
      },
      "distanceMeters": 9296.1,
      "durationMs": 1980000,
      "drivingDurationMs": 1722871,
      "idlingDurationMs": 257129,
      "fuelConsumedMl": 1181,
      "fuelConsumedGallons": 0.312,
      "maxSpeedMph": 32.4,
      "averageSpeedMph": 10.5,
      "safetyEvents": []
    },
    {
      "id": "trip_46232361_20250207_5093",
      "vehicleId": "46232361",
      "driverId": "20000018",
      "startMs": 1738907819000,
      "endMs": 1738911826000,
      "startAddress": "350 Janet Roads Apt. 065",
      "endAddress": "892 Norma View Apt. 792",
      "startCoords": {
        "latitude": 39.707095,
        "longitude": -104.934113
      },
      "endCoords": {
        "latitude": 39.797326,
        "longitude": -105.037708
      },
      "distanceMeters": 23388.3,
      "durationMs": 4007000,
      "drivingDurationMs": 3346471,
      "idlingDurationMs": 660529,
      "fuelConsumedMl": 2975,
      "fuelConsumedGallons": 0.786,
      "maxSpeedMph": 31.9,
      "averageSpeedMph": 13.1,
      "safetyEvents": []
    },
    {
      "id": "trip_46232361_20250207_5118",
      "vehicleId": "46232361",
      "driverId": "20000016",
      "startMs": 1738919946000,
      "endMs": 1738921626000,
      "startAddress": "3457 Sanders Views Apt. 482",
      "endAddress": "7893 Hobbs Glen",
      "startCoords": {
        "latitude": 39.686039,
        "longitude": -104.942114
      },
      "endCoords": {
        "latitude": 39.760918,
        "longitude": -104.928883
      },
      "distanceMeters": 10041.5,
      "durationMs": 1680000,
      "drivingDurationMs": 1353968,
      "idlingDurationMs": 326032,
      "fuelConsumedMl": 1276,
      "fuelConsumedGallons": 0.337,
      "maxSpeedMph": 32.9,
      "averageSpeedMph": 13.4,
      "safetyEvents": []
    },
    {
      "id": "trip_46232361_20250207_5147",
      "vehicleId": "46232361",
      "driverId": "20000007",
      "startMs": 1738935082000,
      "endMs": 1738962898000,
      "startAddress": "742 John Lake",
      "endAddress": "91393 Jacob Trail",
      "startCoords": {
        "latitude": 39.710115,
        "longitude": -104.919498
      },
      "endCoords": {
        "latitude": 39.823844,
        "longitude": -104.956872
      },
      "distanceMeters": 156229.2,
      "durationMs": 27816000,
      "drivingDurationMs": 22852523,
      "idlingDurationMs": 4963477,
      "fuelConsumedMl": 19862,
      "fuelConsumedGallons": 5.247,
      "maxSpeedMph": 31.6,
      "averageSpeedMph": 12.6,
      "safetyEvents": []
    },
    {
      "id": "trip_46232361_20250207_5207",
      "vehicleId": "46232361",
      "driverId": "20000011",
      "startMs": 1738963751000,
      "endMs": 1738967326000,
      "startAddress": "423 Hoover Fords",
      "endAddress": "65641 Patrick Drives",
      "startCoords": {
        "latitude": 39.725447,
        "longitude": -104.980572
      },
      "endCoords": {
        "latitude": 39.692526,
        "longitude": -104.906469
      },
      "distanceMeters": 17664.3,
      "durationMs": 3575000,
      "drivingDurationMs": 3163447,
      "idlingDurationMs": 411553,
      "fuelConsumedMl": 2245,
      "fuelConsumedGallons": 0.593,
      "maxSpeedMph": 37.7,
      "averageSpeedMph": 11.1,
      "safetyEvents": []
    },
    {
      "id": "trip_46232361_20250208_5232",
      "vehicleId": "46232361",
      "driverId": "20000018",
      "startMs": 1738982002000,
      "endMs": 1738987083000,
      "startAddress": "9500 Jackson Garden Apt. 951",
      "endAddress": "801 Cordova Ford Apt. 222",
      "startCoords": {
        "latitude": 39.68683,
        "longitude": -105.078268
      },
      "endCoords": {
        "latitude": 39.74391,
        "longitude": -104.984768
      },
      "distanceMeters": 35743.1,
      "durationMs": 5081000,
      "drivingDurationMs": 4030052,
      "idlingDurationMs": 1050948,
      "fuelConsumedMl": 4546,
      "fuelConsumedGallons": 1.201,
      "maxSpeedMph": 36.8,
      "averageSpeedMph": 15.7,
      "safetyEvents": []
    },
    {
      "id": "trip_46232361_20250208_5257",
      "vehicleId": "46232361",
      "driverId": "20000001",
      "startMs": 1739004607000,
      "endMs": 1739006527000,
      "startAddress": "592 Krystal Crest",
      "endAddress": "81618 Regina Forest",
      "startCoords": {
        "latitude": 39.79946,
        "longitude": -104.956397
      },
      "endCoords": {
        "latitude": 39.705098,
        "longitude": -104.944606
      },
      "distanceMeters": 9318.8,
      "durationMs": 1920000,
      "drivingDurationMs": 1618175,
      "idlingDurationMs": 301825,
      "fuelConsumedMl": 1185,
      "fuelConsumedGallons": 0.313,
      "maxSpeedMph": 26.3,
      "averageSpeedMph": 10.9,
      "safetyEvents": []
    },
    {
      "id": "trip_46232361_20250208_5284",
      "vehicleId": "46232361",
      "driverId": "20000002",
      "startMs": 1739021147000,
      "endMs": 1739023547000,
      "startAddress": "349 Sandra Stravenue",
      "endAddress": "255 Lance Route",
      "startCoords": {
        "latitude": 39.788204,
        "longitude": -104.923107
      },
      "endCoords": {
        "latitude": 39.729033,
        "longitude": -104.976194
      },
      "distanceMeters": 10786.0,
      "durationMs": 2400000,
      "drivingDurationMs": 1992745,
      "idlingDurationMs": 407255,
      "fuelConsumedMl": 1370,
      "fuelConsumedGallons": 0.362,
      "maxSpeedMph": 27.5,
      "averageSpeedMph": 10.1,
      "safetyEvents": []
    },
    {
      "id": "trip_46232361_20250208_5320",
      "vehicleId": "46232361",
      "driverId": "20000016",
      "startMs": 1739039952000,
      "endMs": 1739043291000,
      "startAddress": "108 Young Views",
      "endAddress": "13213 Barbara Cliff",
      "startCoords": {
        "latitude": 39.755442,
        "longitude": -105.001688
      },
      "endCoords": {
        "latitude": 39.823321,
        "longitude": -105.031813
      },
      "distanceMeters": 16758.5,
      "durationMs": 3339000,
      "drivingDurationMs": 2992937,
      "idlingDurationMs": 346063,
      "fuelConsumedMl": 2131,
      "fuelConsumedGallons": 0.563,
      "maxSpeedMph": 38.0,
      "averageSpeedMph": 11.2,
      "safetyEvents": []
    },
    {
      "id": "trip_46232361_20250209_5353",
      "vehicleId": "46232361",
      "driverId": "20000007",
      "startMs": 1739061928000,
      "endMs": 1739068217000,
      "startAddress": "5255 Richard Streets Apt. 809",
      "endAddress": "5141 Lonnie Pines",
      "startCoords": {
        "latitude": 39.753896,
        "longitude": -104.959917
      },
      "endCoords": {
        "latitude": 39.764329,
        "longitude": -105.027637
      },
      "distanceMeters": 28828.4,
      "durationMs": 6289000,
      "drivingDurationMs": 5506129,
      "idlingDurationMs": 782871,
      "fuelConsumedMl": 3664,
      "fuelConsumedGallons": 0.968,
      "maxSpeedMph": 25.9,
      "averageSpeedMph": 10.3,
      "safetyEvents": []
    },
    {
      "id": "trip_46232361_20250209_5378",
      "vehicleId": "46232361",
      "driverId": "20000003",
      "startMs": 1739085168000,
      "endMs": 1739087448000,
      "startAddress": "953 Morris Walks Suite 059",
      "endAddress": "93093 Bryant Burg",
      "startCoords": {
        "latitude": 39.695247,
        "longitude": -105.030486
      },
      "endCoords": {
        "latitude": 39.757611,
        "longitude": -105.074554
      },
      "distanceMeters": 10715.9,
      "durationMs": 2280000,
      "drivingDurationMs": 1763778,
      "idlingDurationMs": 516222,
      "fuelConsumedMl": 1363,
      "fuelConsumedGallons": 0.36,
      "maxSpeedMph": 32.9,
      "averageSpeedMph": 10.5,
      "safetyEvents": []
    },
    {
      "id": "trip_46232361_20250209_5402",
      "vehicleId": "46232361",
      "driverId": "20000005",
      "startMs": 1739107518000,
      "endMs": 1739109138000,
      "startAddress": "3760 Matthew Ranch",
      "endAddress": "5160 Christopher Squares Suite 938",
      "startCoords": {
        "latitude": 39.766908,
        "longitude": -104.996677
      },
      "endCoords": {
        "latitude": 39.769808,
        "longitude": -105.045513
      },
      "distanceMeters": 11982.3,
      "durationMs": 1620000,
      "drivingDurationMs": 1352684,
      "idlingDurationMs": 267316,
      "fuelConsumedMl": 1522,
      "fuelConsumedGallons": 0.402,
      "maxSpeedMph": 39.7,
      "averageSpeedMph": 16.5,
      "safetyEvents": []
    },
    {
      "id": "trip_46232361_20250209_5428",
      "vehicleId": "46232361",
      "driverId": "20000005",
      "startMs": 1739129897000,
      "endMs": 1739132117000,
      "startAddress": "108 Tapia Key",
      "endAddress": "423 Kyle Ways Suite 454",
      "startCoords": {
        "latitude": 39.731297,
        "longitude": -104.974087
      },
      "endCoords": {
        "latitude": 39.735713,
        "longitude": -104.975253
      },
      "distanceMeters": 10441.0,
      "durationMs": 2220000,
      "drivingDurationMs": 1878559,
      "idlingDurationMs": 341441,
      "fuelConsumedMl": 1329,
      "fuelConsumedGallons": 0.351,
      "maxSpeedMph": 31.0,
      "averageSpeedMph": 10.5,
      "safetyEvents": []
    },
    {
      "id": "trip_46232361_20250210_5459",
      "vehicleId": "46232361",
      "driverId": "20000014",
      "startMs": 1739178109000,
      "endMs": 1739195608000,
      "startAddress": "933 Carlos Mews Suite 503",
      "endAddress": "052 Jacobson Centers",
      "startCoords": {
        "latitude": 39.770849,
        "longitude": -105.065531
      },
      "endCoords": {
        "latitude": 39.7189,
        "longitude": -105.026854
      },
      "distanceMeters": 105301.8,
      "durationMs": 17499000,
      "drivingDurationMs": 13660690,
      "idlingDurationMs": 3838310,
      "fuelConsumedMl": 13389,
      "fuelConsumedGallons": 3.537,
      "maxSpeedMph": 27.7,
      "averageSpeedMph": 13.5,
      "safetyEvents": []
    },
    {
      "id": "trip_46232361_20250210_5496",
      "vehicleId": "46232361",
      "driverId": "20000009",
      "startMs": 1739196086000,
      "endMs": 1739200082000,
      "startAddress": "388 Steven Ports Suite 310",
      "endAddress": "34354 Jonathan Underpass",
      "startCoords": {
        "latitude": 39.802308,
        "longitude": -105.023723
      },
      "endCoords": {
        "latitude": 39.794953,
        "longitude": -104.902152
      },
      "distanceMeters": 18510.0,
      "durationMs": 3996000,
      "drivingDurationMs": 3201638,
      "idlingDurationMs": 794362,
      "fuelConsumedMl": 2355,
      "fuelConsumedGallons": 0.622,
      "maxSpeedMph": 34.8,
      "averageSpeedMph": 10.4,
      "safetyEvents": []
    },
    {
      "id": "trip_46232361_20250210_5524",
      "vehicleId": "46232361",
      "driverId": "20000017",
      "startMs": 1739210913000,
      "endMs": 1739212653000,
      "startAddress": "3756 Ortiz Lodge Apt. 512",
      "endAddress": "024 Leonard Spur",
      "startCoords": {
        "latitude": 39.713626,
        "longitude": -104.904753
      },
      "endCoords": {
        "latitude": 39.804654,
        "longitude": -104.961614
      },
      "distanceMeters": 7962.8,
      "durationMs": 1740000,
      "drivingDurationMs": 1547728,
      "idlingDurationMs": 192272,
      "fuelConsumedMl": 1011,
      "fuelConsumedGallons": 0.267,
      "maxSpeedMph": 36.3,
      "averageSpeedMph": 10.2,
      "safetyEvents": []
    },
    {
      "id": "trip_46232361_20250210_5557",
      "vehicleId": "46232361",
      "driverId": "20000019",
      "startMs": 1739227135000,
      "endMs": 1739235318000,
      "startAddress": "26601 Jose Hollow",
      "endAddress": "325 Justin Run",
      "startCoords": {
        "latitude": 39.811127,
        "longitude": -104.922842
      },
      "endCoords": {
        "latitude": 39.792781,
        "longitude": -105.085254
      },
      "distanceMeters": 44652.8,
      "durationMs": 8183000,
      "drivingDurationMs": 7073654,
      "idlingDurationMs": 1109346,
      "fuelConsumedMl": 5678,
      "fuelConsumedGallons": 1.5,
      "maxSpeedMph": 39.5,
      "averageSpeedMph": 12.2,
      "safetyEvents": []
    },
    {
      "id": "trip_46232361_20250211_5587",
      "vehicleId": "46232361",
      "driverId": "20000007",
      "startMs": 1739249740000,
      "endMs": 1739251960000,
      "startAddress": "45467 Rogers Drive Apt. 082",
      "endAddress": "143 Gregory Place",
      "startCoords": {
        "latitude": 39.684488,
        "longitude": -105.05214
      },
      "endCoords": {
        "latitude": 39.688835,
        "longitude": -105.009001
      },
      "distanceMeters": 12050.2,
      "durationMs": 2220000,
      "drivingDurationMs": 1922409,
      "idlingDurationMs": 297591,
      "fuelConsumedMl": 1533,
      "fuelConsumedGallons": 0.405,
      "maxSpeedMph": 38.0,
      "averageSpeedMph": 12.1,
      "safetyEvents": []
    },
    {
      "id": "trip_46232361_20250211_5617",
      "vehicleId": "46232361",
      "driverId": "20000020",
      "startMs": 1739269532000,
      "endMs": 1739272733000,
      "startAddress": "491 Mcdaniel Lights",
      "endAddress": "266 Zachary Fork",
      "startCoords": {
        "latitude": 39.686444,
        "longitude": -104.913999
      },
      "endCoords": {
        "latitude": 39.738085,
        "longitude": -105.063977
      },
      "distanceMeters": 17143.1,
      "durationMs": 3201000,
      "drivingDurationMs": 2750741,
      "idlingDurationMs": 450259,
      "fuelConsumedMl": 2180,
      "fuelConsumedGallons": 0.576,
      "maxSpeedMph": 27.8,
      "averageSpeedMph": 12.0,
      "safetyEvents": []
    },
    {
      "id": "trip_46232361_20250211_5650",
      "vehicleId": "46232361",
      "driverId": "20000010",
      "startMs": 1739285932000,
      "endMs": 1739291659000,
      "startAddress": "66400 Jose Cove",
      "endAddress": "2563 Aaron Radial Apt. 190",
      "startCoords": {
        "latitude": 39.767686,
        "longitude": -104.937707
      },
      "endCoords": {
        "latitude": 39.707257,
        "longitude": -105.059545
      },
      "distanceMeters": 38035.7,
      "durationMs": 5727000,
      "drivingDurationMs": 4510046,
      "idlingDurationMs": 1216954,
      "fuelConsumedMl": 4838,
      "fuelConsumedGallons": 1.278,
      "maxSpeedMph": 34.3,
      "averageSpeedMph": 14.9,
      "safetyEvents": []
    },
    {
      "id": "trip_46232361_20250211_5685",
      "vehicleId": "46232361",
      "driverId": "20000001",
      "startMs": 1739304338000,
      "endMs": 1739305958000,
      "startAddress": "64719 Christopher Station Apt. 857",
      "endAddress": "3103 Cody Via",
      "startCoords": {
        "latitude": 39.807337,
        "longitude": -104.99834
      },
      "endCoords": {
        "latitude": 39.82371,
        "longitude": -105.000415
      },
      "distanceMeters": 11884.4,
      "durationMs": 1620000,
      "drivingDurationMs": 1398369,
      "idlingDurationMs": 221631,
      "fuelConsumedMl": 1510,
      "fuelConsumedGallons": 0.399,
      "maxSpeedMph": 35.0,
      "averageSpeedMph": 16.4,
      "safetyEvents": []
    },
    {
      "id": "trip_46232361_20250211_5713",
      "vehicleId": "46232361",
      "driverId": "20000018",
      "startMs": 1739318322000,
      "endMs": 1739320362000,
      "startAddress": "28353 Angela Junctions Suite 751",
      "endAddress": "7382 Farmer Points Suite 358",
      "startCoords": {
        "latitude": 39.727883,
        "longitude": -104.980215
      },
      "endCoords": {
        "latitude": 39.721968,
        "longitude": -104.95762
      },
      "distanceMeters": 12067.6,
      "durationMs": 2040000,
      "drivingDurationMs": 1530342,
      "idlingDurationMs": 509658,
      "fuelConsumedMl": 1533,
      "fuelConsumedGallons": 0.405,
      "maxSpeedMph": 27.0,
      "averageSpeedMph": 13.2,
      "safetyEvents": []
    },
    {
      "id": "trip_46232361_20250212_5745",
      "vehicleId": "46232361",
      "driverId": "20000009",
      "startMs": 1739338765000,
      "endMs": 1739341285000,
      "startAddress": "55551 Williamson Roads",
      "endAddress": "7947 Bennett Lodge",
      "startCoords": {
        "latitude": 39.757847,
        "longitude": -104.989458
      },
      "endCoords": {
        "latitude": 39.765955,
        "longitude": -104.95236
      },
      "distanceMeters": 12980.0,
      "durationMs": 2520000,
      "drivingDurationMs": 1997917,
      "idlingDurationMs": 522083,
      "fuelConsumedMl": 1650,
      "fuelConsumedGallons": 0.436,
      "maxSpeedMph": 28.9,
      "averageSpeedMph": 11.5,
      "safetyEvents": []
    },
    {
      "id": "trip_46232361_20250212_5770",
      "vehicleId": "46232361",
      "driverId": "20000019",
      "startMs": 1739352445000,
      "endMs": 1739357818000,
      "startAddress": "9841 Gamble Burg",
      "endAddress": "451 Timothy Ranch",
      "startCoords": {
        "latitude": 39.742478,
        "longitude": -105.067381
      },
      "endCoords": {
        "latitude": 39.743647,
        "longitude": -105.057691
      },
      "distanceMeters": 29345.1,
      "durationMs": 5373000,
      "drivingDurationMs": 4124859,
      "idlingDurationMs": 1248141,
      "fuelConsumedMl": 3732,
      "fuelConsumedGallons": 0.986,
      "maxSpeedMph": 39.6,
      "averageSpeedMph": 12.2,
      "safetyEvents": []
    },
    {
      "id": "trip_46232361_20250212_5799",
      "vehicleId": "46232361",
      "driverId": "20000008",
      "startMs": 1739364609000,
      "endMs": 1739372395000,
      "startAddress": "2609 Debbie Forge Apt. 736",
      "endAddress": "37787 Hogan Stream",
      "startCoords": {
        "latitude": 39.748663,
        "longitude": -105.036183
      },
      "endCoords": {
        "latitude": 39.688742,
        "longitude": -104.967222
      },
      "distanceMeters": 54338.4,
      "durationMs": 7786000,
      "drivingDurationMs": 6815112,
      "idlingDurationMs": 970888,
      "fuelConsumedMl": 6908,
      "fuelConsumedGallons": 1.825,
      "maxSpeedMph": 27.6,
      "averageSpeedMph": 15.6,
      "safetyEvents": []
    },
    {
      "id": "trip_46232361_20250212_5825",
      "vehicleId": "46232361",
      "driverId": "20000010",
      "startMs": 1739377620000,
      "endMs": 1739379180000,
      "startAddress": "652 Angel Rapid",
      "endAddress": "9076 Tucker Glen",
      "startCoords": {
        "latitude": 39.772393,
        "longitude": -105.025007
      },
      "endCoords": {
        "latitude": 39.795062,
        "longitude": -105.040321
      },
      "distanceMeters": 9301.2,
      "durationMs": 1560000,
      "drivingDurationMs": 1176183,
      "idlingDurationMs": 383817,
      "fuelConsumedMl": 1181,
      "fuelConsumedGallons": 0.312,
      "maxSpeedMph": 34.7,
      "averageSpeedMph": 13.3,
      "safetyEvents": []
    },
    {
      "id": "trip_46232361_20250212_5853",
      "vehicleId": "46232361",
      "driverId": "20000008",
      "startMs": 1739390297000,
      "endMs": 1739394724000,
      "startAddress": "34814 Michelle Throughway Suite 645",
      "endAddress": "8640 Vasquez Mountain",
      "startCoords": {
        "latitude": 39.76646,
        "longitude": -104.981384
      },
      "endCoords": {
        "latitude": 39.705621,
        "longitude": -105.019863
      },
      "distanceMeters": 31340.8,
      "durationMs": 4427000,
      "drivingDurationMs": 3569186,
      "idlingDurationMs": 857814,
      "fuelConsumedMl": 3986,
      "fuelConsumedGallons": 1.053,
      "maxSpeedMph": 35.6,
      "averageSpeedMph": 15.8,
      "safetyEvents": []
    },
    {
      "id": "trip_46232361_20250213_5886",
      "vehicleId": "46232361",
      "driverId": "20000008",
      "startMs": 1739409814000,
      "endMs": 1739411614000,
      "startAddress": "05776 Pineda Bypass Apt. 073",
      "endAddress": "900 Turner Tunnel Apt. 236",
      "startCoords": {
        "latitude": 39.789498,
        "longitude": -105.05072
      },
      "endCoords": {
        "latitude": 39.685815,
        "longitude": -104.945631
      },
      "distanceMeters": 11532.0,
      "durationMs": 1800000,
      "drivingDurationMs": 1585878,
      "idlingDurationMs": 214122,
      "fuelConsumedMl": 1465,
      "fuelConsumedGallons": 0.387,
      "maxSpeedMph": 36.5,
      "averageSpeedMph": 14.3,
      "safetyEvents": []
    },
    {
      "id": "trip_46232361_20250213_5916",
      "vehicleId": "46232361",
      "driverId": "20000009",
      "startMs": 1739432262000,
      "endMs": 1739444093000,
      "startAddress": "007 Patrick Springs",
      "endAddress": "09483 Smith Divide",
      "startCoords": {
        "latitude": 39.78393,
        "longitude": -105.019272
      },
      "endCoords": {
        "latitude": 39.691853,
        "longitude": -105.0452
      },
      "distanceMeters": 69594.8,
      "durationMs": 11831000,
      "drivingDurationMs": 9517670,
      "idlingDurationMs": 2313330,
      "fuelConsumedMl": 8850,
      "fuelConsumedGallons": 2.338,
      "maxSpeedMph": 39.0,
      "averageSpeedMph": 13.2,
      "safetyEvents": []
    },
    {
      "id": "trip_46232361_20250213_5949",
      "vehicleId": "46232361",
      "driverId": "20000018",
      "startMs": 1739448379000,
      "endMs": 1739454950000,
      "startAddress": "182 Orr Dale",
      "endAddress": "055 Ronald Cliffs Apt. 433",
      "startCoords": {
        "latitude": 39.821121,
        "longitude": -105.022469
      },
      "endCoords": {
        "latitude": 39.737781,
        "longitude": -105.036886
      },
      "distanceMeters": 39336.7,
      "durationMs": 6571000,
      "drivingDurationMs": 5693891,
      "idlingDurationMs": 877109,
      "fuelConsumedMl": 5001,
      "fuelConsumedGallons": 1.321,
      "maxSpeedMph": 34.1,
      "averageSpeedMph": 13.4,
      "safetyEvents": []
    },
    {
      "id": "trip_46232361_20250213_5979",
      "vehicleId": "46232361",
      "driverId": "20000013",
      "startMs": 1739461657000,
      "endMs": 1739474943000,
      "startAddress": "7343 Bush Trail",
      "endAddress": "044 Flowers Crossing",
      "startCoords": {
        "latitude": 39.747004,
        "longitude": -104.935599
      },
      "endCoords": {
        "latitude": 39.68467,
        "longitude": -105.008709
      },
      "distanceMeters": 59382.5,
      "durationMs": 13286000,
      "drivingDurationMs": 10218591,
      "idlingDurationMs": 3067409,
      "fuelConsumedMl": 7552,
      "fuelConsumedGallons": 1.995,
      "maxSpeedMph": 29.7,
      "averageSpeedMph": 10.0,
      "safetyEvents": []
    },
    {
      "id": "trip_46232361_20250213_6011",
      "vehicleId": "46232361",
      "driverId": "20000010",
      "startMs": 1739476852000,
      "endMs": 1739485553000,
      "startAddress": "350 Gary Plain Apt. 964",
      "endAddress": "636 Aguirre Mill",
      "startCoords": {
        "latitude": 39.711856,
        "longitude": -105.010685
      },
      "endCoords": {
        "latitude": 39.70793,
        "longitude": -105.002892
      },
      "distanceMeters": 39756.8,
      "durationMs": 8701000,
      "drivingDurationMs": 7025009,
      "idlingDurationMs": 1675991,
      "fuelConsumedMl": 5054,
      "fuelConsumedGallons": 1.335,
      "maxSpeedMph": 35.4,
      "averageSpeedMph": 10.2,
      "safetyEvents": []
    },
    {
      "id": "trip_46232361_20250214_6037",
      "vehicleId": "46232361",
      "driverId": "20000006",
      "startMs": 1739491786000,
      "endMs": 1739499513000,
      "startAddress": "956 Barbara Mountains",
      "endAddress": "5949 Stephens Forges Apt. 914",
      "startCoords": {
        "latitude": 39.783218,
        "longitude": -104.929648
      },
      "endCoords": {
        "latitude": 39.696658,
        "longitude": -105.083382
      },
      "distanceMeters": 42306.4,
      "durationMs": 7727000,
      "drivingDurationMs": 6055007,
      "idlingDurationMs": 1671993,
      "fuelConsumedMl": 5379,
      "fuelConsumedGallons": 1.421,
      "maxSpeedMph": 35.6,
      "averageSpeedMph": 12.2,
      "safetyEvents": []
    },
    {
      "id": "trip_46232361_20250214_6066",
      "vehicleId": "46232361",
      "driverId": "20000011",
      "startMs": 1739512515000,
      "endMs": 1739513955000,
      "startAddress": "269 Harris Corners",
      "endAddress": "25570 Massey Views",
      "startCoords": {
        "latitude": 39.801787,
        "longitude": -105.070682
      },
      "endCoords": {
        "latitude": 39.689625,
        "longitude": -105.024356
      },
      "distanceMeters": 9615.2,
      "durationMs": 1440000,
      "drivingDurationMs": 1164862,
      "idlingDurationMs": 275138,
      "fuelConsumedMl": 1223,
      "fuelConsumedGallons": 0.323,
      "maxSpeedMph": 34.6,
      "averageSpeedMph": 14.9,
      "safetyEvents": []
    },
    {
      "id": "trip_46232361_20250214_6096",
      "vehicleId": "46232361",
      "driverId": "20000007",
      "startMs": 1739527345000,
      "endMs": 1739529685000,
      "startAddress": "030 Thomas Field",
      "endAddress": "3564 Hays Fields",
      "startCoords": {
        "latitude": 39.757353,
        "longitude": -104.972818
      },
      "endCoords": {
        "latitude": 39.820303,
        "longitude": -104.936514
      },
      "distanceMeters": 15360.8,
      "durationMs": 2340000,
      "drivingDurationMs": 1797877,
      "idlingDurationMs": 542123,
      "fuelConsumedMl": 1953,
      "fuelConsumedGallons": 0.516,
      "maxSpeedMph": 26.0,
      "averageSpeedMph": 14.7,
      "safetyEvents": []
    },
    {
      "id": "trip_46232361_20250214_6127",
      "vehicleId": "46232361",
      "driverId": "20000021",
      "startMs": 1739544552000,
      "endMs": 1739548388000,
      "startAddress": "519 Ramirez Isle Suite 275",
      "endAddress": "491 Timothy Club",
      "startCoords": {
        "latitude": 39.807832,
        "longitude": -104.921622
      },
      "endCoords": {
        "latitude": 39.738994,
        "longitude": -104.962721
      },
      "distanceMeters": 21378.3,
      "durationMs": 3836000,
      "drivingDurationMs": 3287026,
      "idlingDurationMs": 548974,
      "fuelConsumedMl": 2718,
      "fuelConsumedGallons": 0.718,
      "maxSpeedMph": 30.3,
      "averageSpeedMph": 12.5,
      "safetyEvents": []
    },
    {
      "id": "trip_46232361_20250214_6154",
      "vehicleId": "46232361",
      "driverId": "20000009",
      "startMs": 1739556757000,
      "endMs": 1739562041000,
      "startAddress": "478 Samantha Glens",
      "endAddress": "499 Nancy Light Apt. 762",
      "startCoords": {
        "latitude": 39.736119,
        "longitude": -105.004376
      },
      "endCoords": {
        "latitude": 39.693332,
        "longitude": -104.909993
      },
      "distanceMeters": 29424.6,
      "durationMs": 5284000,
      "drivingDurationMs": 4100211,
      "idlingDurationMs": 1183789,
      "fuelConsumedMl": 3740,
      "fuelConsumedGallons": 0.988,
      "maxSpeedMph": 30.1,
      "averageSpeedMph": 12.5,
      "safetyEvents": []
    },
    {
      "id": "trip_46232361_20250214_6182",
      "vehicleId": "46232361",
      "driverId": "20000010",
      "startMs": 1739574547000,
      "endMs": 1739576647000,
      "startAddress": "016 Gordon Fall",
      "endAddress": "05662 Anthony Forest Apt. 847",
      "startCoords": {
        "latitude": 39.742021,
        "longitude": -104.968872
      },
      "endCoords": {
        "latitude": 39.694857,
        "longitude": -105.071187
      },
      "distanceMeters": 12406.1,
      "durationMs": 2100000,
      "drivingDurationMs": 1773904,
      "idlingDurationMs": 326096,
      "fuelConsumedMl": 1579,
      "fuelConsumedGallons": 0.417,
      "maxSpeedMph": 33.8,
      "averageSpeedMph": 13.2,
      "safetyEvents": []
    },
    {
      "id": "trip_46232361_20250215_6207",
      "vehicleId": "46232361",
      "driverId": "20000011",
      "startMs": 1739590994000,
      "endMs": 1739592974000,
      "startAddress": "87523 Darryl Inlet Apt. 829",
      "endAddress": "98146 Watts Hill",
      "startCoords": {
        "latitude": 39.701746,
        "longitude": -104.992073
      },
      "endCoords": {
        "latitude": 39.698327,
        "longitude": -104.949734
      },
      "distanceMeters": 10664.2,
      "durationMs": 1980000,
      "drivingDurationMs": 1549463,
      "idlingDurationMs": 430537,
      "fuelConsumedMl": 1355,
      "fuelConsumedGallons": 0.358,
      "maxSpeedMph": 32.6,
      "averageSpeedMph": 12.0,
      "safetyEvents": []
    },
    {
      "id": "trip_46232361_20250215_6236",
      "vehicleId": "46232361",
      "driverId": "20000014",
      "startMs": 1739605761000,
      "endMs": 1739607621000,
      "startAddress": "70912 Linda Circles",
      "endAddress": "28587 Bryant Gardens",
      "startCoords": {
        "latitude": 39.81644,
        "longitude": -104.942156
      },
      "endCoords": {
        "latitude": 39.791341,
        "longitude": -104.999559
      },
      "distanceMeters": 7989.6,
      "durationMs": 1860000,
      "drivingDurationMs": 1581239,
      "idlingDurationMs": 278761,
      "fuelConsumedMl": 1014,
      "fuelConsumedGallons": 0.268,
      "maxSpeedMph": 27.3,
      "averageSpeedMph": 9.6,
      "safetyEvents": []
    },
    {
      "id": "trip_46232361_20250215_6265",
      "vehicleId": "46232361",
      "driverId": "20000020",
      "startMs": 1739620210000,
      "endMs": 1739626309000,
      "startAddress": "08234 Love Circles Apt. 431",
      "endAddress": "0018 Amy Branch",
      "startCoords": {
        "latitude": 39.773065,
        "longitude": -105.072791
      },
      "endCoords": {
        "latitude": 39.793412,
        "longitude": -105.002895
      },
      "distanceMeters": 40020.6,
      "durationMs": 6099000,
      "drivingDurationMs": 4593616,
      "idlingDurationMs": 1505384,
      "fuelConsumedMl": 5088,
      "fuelConsumedGallons": 1.344,
      "maxSpeedMph": 39.6,
      "averageSpeedMph": 14.7,
      "safetyEvents": []
    },
    {
      "id": "trip_46232361_20250215_6290",
      "vehicleId": "46232361",
      "driverId": "20000004",
      "startMs": 1739631300000,
      "endMs": 1739637736000,
      "startAddress": "646 Michael Station",
      "endAddress": "790 Jeremy Forest Apt. 900",
      "startCoords": {
        "latitude": 39.759553,
        "longitude": -105.081378
      },
      "endCoords": {
        "latitude": 39.825562,
        "longitude": -104.979953
      },
      "distanceMeters": 31107.7,
      "durationMs": 6436000,
      "drivingDurationMs": 5010185,
      "idlingDurationMs": 1425815,
      "fuelConsumedMl": 3956,
      "fuelConsumedGallons": 1.045,
      "maxSpeedMph": 26.5,
      "averageSpeedMph": 10.8,
      "safetyEvents": []
    },
    {
      "id": "trip_46232361_20250215_6320",
      "vehicleId": "46232361",
      "driverId": "20000004",
      "startMs": 1739650281000,
      "endMs": 1739652261000,
      "startAddress": "49054 Andrew Shoals",
      "endAddress": "326 Tracey Plains",
      "startCoords": {
        "latitude": 39.776687,
        "longitude": -105.04302
      },
      "endCoords": {
        "latitude": 39.692945,
        "longitude": -104.922187
      },
      "distanceMeters": 13387.7,
      "durationMs": 1980000,
      "drivingDurationMs": 1529792,
      "idlingDurationMs": 450208,
      "fuelConsumedMl": 1703,
      "fuelConsumedGallons": 0.45,
      "maxSpeedMph": 34.0,
      "averageSpeedMph": 15.1,
      "safetyEvents": []
    },
    {
      "id": "trip_46232361_20250216_6351",
      "vehicleId": "46232361",
      "driverId": "20000006",
      "startMs": 1739683193000,
      "endMs": 1739685413000,
      "startAddress": "88958 Mcguire Shore Apt. 474",
      "endAddress": "24834 Dyer Estates Apt. 195",
      "startCoords": {
        "latitude": 39.712987,
        "longitude": -105.022532
      },
      "endCoords": {
        "latitude": 39.713617,
        "longitude": -104.922175
      },
      "distanceMeters": 10164.0,
      "durationMs": 2220000,
      "drivingDurationMs": 1723953,
      "idlingDurationMs": 496047,
      "fuelConsumedMl": 1291,
      "fuelConsumedGallons": 0.341,
      "maxSpeedMph": 29.8,
      "averageSpeedMph": 10.2,
      "safetyEvents": []
    },
    {
      "id": "trip_46232361_20250216_6382",
      "vehicleId": "46232361",
      "driverId": "20000005",
      "startMs": 1739710400000,
      "endMs": 1739719528000,
      "startAddress": "63491 Brandon Point",
      "endAddress": "9418 Luis Heights Apt. 515",
      "startCoords": {
        "latitude": 39.787099,
        "longitude": -105.076182
      },
      "endCoords": {
        "latitude": 39.77701,
        "longitude": -104.993335
      },
      "distanceMeters": 62371.2,
      "durationMs": 9128000,
      "drivingDurationMs": 7132151,
      "idlingDurationMs": 1995849,
      "fuelConsumedMl": 7930,
      "fuelConsumedGallons": 2.095,
      "maxSpeedMph": 34.3,
      "averageSpeedMph": 15.3,
      "safetyEvents": []
    },
    {
      "id": "trip_46232361_20250216_6413",
      "vehicleId": "46232361",
      "driverId": "20000022",
      "startMs": 1739743076000,
      "endMs": 1739745176000,
      "startAddress": "466 Jill Spur Suite 865",
      "endAddress": "638 Walter Forks",
      "startCoords": {
        "latitude": 39.71075,
        "longitude": -105.030076
      },
      "endCoords": {
        "latitude": 39.698105,
        "longitude": -105.062411
      },
      "distanceMeters": 13051.8,
      "durationMs": 2100000,
      "drivingDurationMs": 1607964,
      "idlingDurationMs": 492036,
      "fuelConsumedMl": 1658,
      "fuelConsumedGallons": 0.438,
      "maxSpeedMph": 30.6,
      "averageSpeedMph": 13.9,
      "safetyEvents": []
    },
    {
      "id": "trip_46232361_20250217_6442",
      "vehicleId": "46232361",
      "driverId": "20000015",
      "startMs": 1739783163000,
      "endMs": 1739784423000,
      "startAddress": "812 Day Cliff",
      "endAddress": "338 Chad Corners Apt. 915",
      "startCoords": {
        "latitude": 39.764851,
        "longitude": -104.956784
      },
      "endCoords": {
        "latitude": 39.813699,
        "longitude": -104.900541
      },
      "distanceMeters": 6458.4,
      "durationMs": 1260000,
      "drivingDurationMs": 968032,
      "idlingDurationMs": 291968,
      "fuelConsumedMl": 821,
      "fuelConsumedGallons": 0.217,
      "maxSpeedMph": 33.6,
      "averageSpeedMph": 11.5,
      "safetyEvents": []
    },
    {
      "id": "trip_46232361_20250217_6472",
      "vehicleId": "46232361",
      "driverId": "20000007",
      "startMs": 1739797316000,
      "endMs": 1739800656000,
      "startAddress": "12607 Stacy Green",
      "endAddress": "21156 Shaw Point",
      "startCoords": {
        "latitude": 39.743088,
        "longitude": -104.985324
      },
      "endCoords": {
        "latitude": 39.818303,
        "longitude": -104.958371
      },
      "distanceMeters": 22965.0,
      "durationMs": 3340000,
      "drivingDurationMs": 2784885,
      "idlingDurationMs": 555115,
      "fuelConsumedMl": 2919,
      "fuelConsumedGallons": 0.771,
      "maxSpeedMph": 28.1,
      "averageSpeedMph": 15.4,
      "safetyEvents": []
    },
    {
      "id": "trip_46232361_20250217_6501",
      "vehicleId": "46232361",
      "driverId": "20000019",
      "startMs": 1739813646000,
      "endMs": 1739820550000,
      "startAddress": "39712 Erica Lights Suite 281",
      "endAddress": "44738 Ferguson Ways",
      "startCoords": {
        "latitude": 39.737204,
        "longitude": -104.974571
      },
      "endCoords": {
        "latitude": 39.785031,
        "longitude": -104.906167
      },
      "distanceMeters": 37106.9,
      "durationMs": 6904000,
      "drivingDurationMs": 5248196,
      "idlingDurationMs": 1655804,
      "fuelConsumedMl": 4717,
      "fuelConsumedGallons": 1.246,
      "maxSpeedMph": 32.1,
      "averageSpeedMph": 12.0,
      "safetyEvents": []
    },
    {
      "id": "trip_46232361_20250217_6527",
      "vehicleId": "46232361",
      "driverId": "20000010",
      "startMs": 1739825261000,
      "endMs": 1739827481000,
      "startAddress": "806 Brown Turnpike",
      "endAddress": "096 Jason Camp",
      "startCoords": {
        "latitude": 39.758253,
        "longitude": -104.905499
      },
      "endCoords": {
        "latitude": 39.783326,
        "longitude": -104.97478
      },
      "distanceMeters": 10658.9,
      "durationMs": 2220000,
      "drivingDurationMs": 1906086,
      "idlingDurationMs": 313914,
      "fuelConsumedMl": 1355,
      "fuelConsumedGallons": 0.358,
      "maxSpeedMph": 27.3,
      "averageSpeedMph": 10.7,
      "safetyEvents": []
    },
    {
      "id": "trip_46232361_20250218_6555",
      "vehicleId": "46232361",
      "driverId": "20000009",
      "startMs": 1739844621000,
      "endMs": 1739846241000,
      "startAddress": "57326 Nicolas Inlet",
      "endAddress": "2494 Anderson Unions",
      "startCoords": {
        "latitude": 39.73362,
        "longitude": -104.992425
      },
      "endCoords": {
        "latitude": 39.79915,
        "longitude": -105.006446
      },
      "distanceMeters": 10975.8,
      "durationMs": 1620000,
      "drivingDurationMs": 1253181,
      "idlingDurationMs": 366819,
      "fuelConsumedMl": 1397,
      "fuelConsumedGallons": 0.369,
      "maxSpeedMph": 38.8,
      "averageSpeedMph": 15.2,
      "safetyEvents": []
    },
    {
      "id": "trip_46232361_20250218_6584",
      "vehicleId": "46232361",
      "driverId": "20000016",
      "startMs": 1739862475000,
      "endMs": 1739864215000,
      "startAddress": "30747 Shannon Ferry Suite 053",
      "endAddress": "54695 Kathleen Loop",
      "startCoords": {
        "latitude": 39.74612,
        "longitude": -104.964597
      },
      "endCoords": {
        "latitude": 39.823766,
        "longitude": -104.965998
      },
      "distanceMeters": 12373.8,
      "durationMs": 1740000,
      "drivingDurationMs": 1556117,
      "idlingDurationMs": 183883,
      "fuelConsumedMl": 1575,
      "fuelConsumedGallons": 0.416,
      "maxSpeedMph": 26.4,
      "averageSpeedMph": 15.9,
      "safetyEvents": []
    },
    {
      "id": "trip_46232361_20250218_6612",
      "vehicleId": "46232361",
      "driverId": "20000012",
      "startMs": 1739875579000,
      "endMs": 1739883525000,
      "startAddress": "122 Morris Isle",
      "endAddress": "15397 Carol Inlet",
      "startCoords": {
        "latitude": 39.820845,
        "longitude": -104.943035
      },
      "endCoords": {
        "latitude": 39.823475,
        "longitude": -104.985779
      },
      "distanceMeters": 55545.8,
      "durationMs": 7946000,
      "drivingDurationMs": 6692290,
      "idlingDurationMs": 1253710,
      "fuelConsumedMl": 7064,
      "fuelConsumedGallons": 1.866,
      "maxSpeedMph": 39.8,
      "averageSpeedMph": 15.6,
      "safetyEvents": []
    },
    {
      "id": "trip_46232361_20250218_6642",
      "vehicleId": "46232361",
      "driverId": "20000017",
      "startMs": 1739893315000,
      "endMs": 1739913293000,
      "startAddress": "9452 Linda Walks",
      "endAddress": "85393 Jennifer Lights",
      "startCoords": {
        "latitude": 39.795718,
        "longitude": -105.050621
      },
      "endCoords": {
        "latitude": 39.824314,
        "longitude": -104.925688
      },
      "distanceMeters": 121481.8,
      "durationMs": 19978000,
      "drivingDurationMs": 16776389,
      "idlingDurationMs": 3201611,
      "fuelConsumedMl": 15444,
      "fuelConsumedGallons": 4.08,
      "maxSpeedMph": 28.2,
      "averageSpeedMph": 13.6,
      "safetyEvents": []
    },
    {
      "id": "trip_46232361_20250218_6683",
      "vehicleId": "46232361",
      "driverId": "20000011",
      "startMs": 1739913361000,
      "endMs": 1739914621000,
      "startAddress": "6444 Waters Pines Apt. 405",
      "endAddress": "9020 Jesus Inlet Suite 842",
      "startCoords": {
        "latitude": 39.780366,
        "longitude": -105.02458
      },
      "endCoords": {
        "latitude": 39.821989,
        "longitude": -104.941556
      },
      "distanceMeters": 6552.7,
      "durationMs": 1260000,
      "drivingDurationMs": 1113627,
      "idlingDurationMs": 146373,
      "fuelConsumedMl": 833,
      "fuelConsumedGallons": 0.22,
      "maxSpeedMph": 36.7,
      "averageSpeedMph": 11.6,
      "safetyEvents": []
    },
    {
      "id": "trip_46232361_20250219_6714",
      "vehicleId": "46232361",
      "driverId": "20000010",
      "startMs": 1739935878000,
      "endMs": 1739942508000,
      "startAddress": "959 Spence Prairie",
      "endAddress": "093 Alexander Ferry Apt. 909",
      "startCoords": {
        "latitude": 39.744372,
        "longitude": -105.044703
      },
      "endCoords": {
        "latitude": 39.816241,
        "longitude": -105.055423
      },
      "distanceMeters": 41660.3,
      "durationMs": 6630000,
      "drivingDurationMs": 5793048,
      "idlingDurationMs": 836952,
      "fuelConsumedMl": 5296,
      "fuelConsumedGallons": 1.399,
      "maxSpeedMph": 29.9,
      "averageSpeedMph": 14.1,
      "safetyEvents": []
    },
    {
      "id": "trip_46232361_20250219_6742",
      "vehicleId": "46232361",
      "driverId": "20000012",
      "startMs": 1739955634000,
      "endMs": 1739966900000,
      "startAddress": "183 Taylor Lock Suite 800",
      "endAddress": "60290 Marcus Shores",
      "startCoords": {
        "latitude": 39.707418,
        "longitude": -104.920864
      },
      "endCoords": {
        "latitude": 39.760453,
        "longitude": -105.049105
      },
      "distanceMeters": 64070.2,
      "durationMs": 11266000,
      "drivingDurationMs": 8780646,
      "idlingDurationMs": 2485354,
      "fuelConsumedMl": 8146,
      "fuelConsumedGallons": 2.152,
      "maxSpeedMph": 34.9,
      "averageSpeedMph": 12.7,
      "safetyEvents": []
    },
    {
      "id": "trip_46232361_20250219_6771",
      "vehicleId": "46232361",
      "driverId": "20000013",
      "startMs": 1739972033000,
      "endMs": 1739979384000,
      "startAddress": "351 Cheyenne Hill Apt. 517",
      "endAddress": "827 Martinez Forge Apt. 198",
      "startCoords": {
        "latitude": 39.696331,
        "longitude": -104.936923
      },
      "endCoords": {
        "latitude": 39.74141,
        "longitude": -105.02962
      },
      "distanceMeters": 47160.9,
      "durationMs": 7351000,
      "drivingDurationMs": 6404031,
      "idlingDurationMs": 946969,
      "fuelConsumedMl": 5996,
      "fuelConsumedGallons": 1.584,
      "maxSpeedMph": 36.8,
      "averageSpeedMph": 14.4,
      "safetyEvents": []
    },
    {
      "id": "trip_46232361_20250219_6802",
      "vehicleId": "46232361",
      "driverId": "20000005",
      "startMs": 1739983496000,
      "endMs": 1739990883000,
      "startAddress": "4614 Dylan Neck",
      "endAddress": "6131 Brian Prairie Suite 765",
      "startCoords": {
        "latitude": 39.782438,
        "longitude": -105.051027
      },
      "endCoords": {
        "latitude": 39.759798,
        "longitude": -105.013714
      },
      "distanceMeters": 31454.8,
      "durationMs": 7387000,
      "drivingDurationMs": 5856995,
      "idlingDurationMs": 1530005,
      "fuelConsumedMl": 3997,
      "fuelConsumedGallons": 1.056,
      "maxSpeedMph": 26.6,
      "averageSpeedMph": 9.5,
      "safetyEvents": []
    },
    {
      "id": "trip_46232361_20250219_6828",
      "vehicleId": "46232361",
      "driverId": "20000013",
      "startMs": 1740001103000,
      "endMs": 1740002723000,
      "startAddress": "158 Matthew Ways",
      "endAddress": "15935 Gray Haven Apt. 856",
      "startCoords": {
        "latitude": 39.77682,
        "longitude": -105.063438
      },
      "endCoords": {
        "latitude": 39.807943,
        "longitude": -105.00602
      },
      "distanceMeters": 6813.4,
      "durationMs": 1620000,
      "drivingDurationMs": 1332625,
      "idlingDurationMs": 287375,
      "fuelConsumedMl": 867,
      "fuelConsumedGallons": 0.229,
      "maxSpeedMph": 33.1,
      "averageSpeedMph": 9.4,
      "safetyEvents": []
    },
    {
      "id": "trip_46232361_20250220_6856",
      "vehicleId": "46232361",
      "driverId": "20000009",
      "startMs": 1740015850000,
      "endMs": 1740017650000,
      "startAddress": "173 Crane Radial Apt. 236",
      "endAddress": "8373 Shelton Knoll",
      "startCoords": {
        "latitude": 39.802497,
        "longitude": -104.961753
      },
      "endCoords": {
        "latitude": 39.735029,
        "longitude": -104.99995
      },
      "distanceMeters": 8909.4,
      "durationMs": 1800000,
      "drivingDurationMs": 1467074,
      "idlingDurationMs": 332926,
      "fuelConsumedMl": 1132,
      "fuelConsumedGallons": 0.299,
      "maxSpeedMph": 36.5,
      "averageSpeedMph": 11.1,
      "safetyEvents": []
    },
    {
      "id": "trip_46232361_20250220_6886",
      "vehicleId": "46232361",
      "driverId": "20000014",
      "startMs": 1740036839000,
      "endMs": 1740038879000,
      "startAddress": "15083 Little Vista",
      "endAddress": "47959 Ford Estate",
      "startCoords": {
        "latitude": 39.806198,
        "longitude": -104.999459
      },
      "endCoords": {
        "latitude": 39.707132,
        "longitude": -105.05392
      },
      "distanceMeters": 10021.1,
      "durationMs": 2040000,
      "drivingDurationMs": 1618353,
      "idlingDurationMs": 421647,
      "fuelConsumedMl": 1276,
      "fuelConsumedGallons": 0.337,
      "maxSpeedMph": 33.5,
      "averageSpeedMph": 11.0,
      "safetyEvents": []
    },
    {
      "id": "trip_46232361_20250220_6917",
      "vehicleId": "46232361",
      "driverId": "20000019",
      "startMs": 1740049480000,
      "endMs": 1740055854000,
      "startAddress": "3539 Palmer Springs Suite 667",
      "endAddress": "29774 Angelica Street Suite 254",
      "startCoords": {
        "latitude": 39.777678,
        "longitude": -104.957436
      },
      "endCoords": {
        "latitude": 39.823326,
        "longitude": -104.95008
      },
      "distanceMeters": 36565.3,
      "durationMs": 6374000,
      "drivingDurationMs": 5205979,
      "idlingDurationMs": 1168021,
      "fuelConsumedMl": 4648,
      "fuelConsumedGallons": 1.228,
      "maxSpeedMph": 33.7,
      "averageSpeedMph": 12.8,
      "safetyEvents": []
    },
    {
      "id": "trip_46232361_20250220_6944",
      "vehicleId": "46232361",
      "driverId": "20000019",
      "startMs": 1740060886000,
      "endMs": 1740062866000,
      "startAddress": "10407 Harris Brook",
      "endAddress": "0040 Michael Shoals Suite 077",
      "startCoords": {
        "latitude": 39.718076,
        "longitude": -105.086816
      },
      "endCoords": {
        "latitude": 39.799813,
        "longitude": -105.053384
      },
      "distanceMeters": 10533.9,
      "durationMs": 1980000,
      "drivingDurationMs": 1570281,
      "idlingDurationMs": 409719,
      "fuelConsumedMl": 1340,
      "fuelConsumedGallons": 0.354,
      "maxSpeedMph": 36.7,
      "averageSpeedMph": 11.9,
      "safetyEvents": []
    },
    {
      "id": "trip_46232361_20250220_6973",
      "vehicleId": "46232361",
      "driverId": "20000003",
      "startMs": 1740073648000,
      "endMs": 1740075268000,
      "startAddress": "866 Katrina Heights",
      "endAddress": "2864 Jonathan Forge Apt. 780",
      "startCoords": {
        "latitude": 39.788719,
        "longitude": -105.078273
      },
      "endCoords": {
        "latitude": 39.741477,
        "longitude": -105.07336
      },
      "distanceMeters": 6544.8,
      "durationMs": 1620000,
      "drivingDurationMs": 1258469,
      "idlingDurationMs": 361531,
      "fuelConsumedMl": 833,
      "fuelConsumedGallons": 0.22,
      "maxSpeedMph": 39.7,
      "averageSpeedMph": 9.0,
      "safetyEvents": []
    },
    {
      "id": "trip_46232361_20250220_7003",
      "vehicleId": "46232361",
      "driverId": "20000003",
      "startMs": 1740086821000,
      "endMs": 1740089161000,
      "startAddress": "1911 Grant Lodge",
      "endAddress": "5968 Derek Inlet Apt. 461",
      "startCoords": {
        "latitude": 39.792992,
        "longitude": -105.018591
      },
      "endCoords": {
        "latitude": 39.782989,
        "longitude": -104.992808
      },
      "distanceMeters": 11989.9,
      "durationMs": 2340000,
      "drivingDurationMs": 2069537,
      "idlingDurationMs": 270463,
      "fuelConsumedMl": 1526,
      "fuelConsumedGallons": 0.403,
      "maxSpeedMph": 37.7,
      "averageSpeedMph": 11.5,
      "safetyEvents": []
    },
    {
      "id": "trip_46232361_20250221_7031",
      "vehicleId": "46232361",
      "driverId": "20000012",
      "startMs": 1740103634000,
      "endMs": 1740105914000,
      "startAddress": "9206 Singh Avenue Suite 495",
      "endAddress": "01096 Small Estate",
      "startCoords": {
        "latitude": 39.694914,
        "longitude": -104.909022
      },
      "endCoords": {
        "latitude": 39.766656,
        "longitude": -105.023081
      },
      "distanceMeters": 16782.4,
      "durationMs": 2280000,
      "drivingDurationMs": 1892752,
      "idlingDurationMs": 387248,
      "fuelConsumedMl": 2135,
      "fuelConsumedGallons": 0.564,
      "maxSpeedMph": 31.3,
      "averageSpeedMph": 16.5,
      "safetyEvents": []
    },
    {
      "id": "trip_46232361_20250221_7060",
      "vehicleId": "46232361",
      "driverId": "20000009",
      "startMs": 1740125889000,
      "endMs": 1740129613000,
      "startAddress": "033 David Port Apt. 718",
      "endAddress": "0212 Herrera Center",
      "startCoords": {
        "latitude": 39.708124,
        "longitude": -104.942985
      },
      "endCoords": {
        "latitude": 39.705987,
        "longitude": -104.987982
      },
      "distanceMeters": 16387.7,
      "durationMs": 3724000,
      "drivingDurationMs": 2809738,
      "idlingDurationMs": 914262,
      "fuelConsumedMl": 2082,
      "fuelConsumedGallons": 0.55,
      "maxSpeedMph": 37.5,
      "averageSpeedMph": 9.8,
      "safetyEvents": []
    },
    {
      "id": "trip_46232361_20250221_7090",
      "vehicleId": "46232361",
      "driverId": "20000002",
      "startMs": 1740142655000,
      "endMs": 1740147731000,
      "startAddress": "14357 Kenneth Rue Apt. 491",
      "endAddress": "04553 Jessica Views",
      "startCoords": {
        "latitude": 39.722176,
        "longitude": -104.939163
      },
      "endCoords": {
        "latitude": 39.748173,
        "longitude": -105.026294
      },
      "distanceMeters": 33826.6,
      "durationMs": 5076000,
      "drivingDurationMs": 4324951,
      "idlingDurationMs": 751049,
      "fuelConsumedMl": 4300,
      "fuelConsumedGallons": 1.136,
      "maxSpeedMph": 27.1,
      "averageSpeedMph": 14.9,
      "safetyEvents": []
    },
    {
      "id": "trip_46232361_20250221_7121",
      "vehicleId": "46232361",
      "driverId": "20000011",
      "startMs": 1740157145000,
      "endMs": 1740158645000,
      "startAddress": "4842 Romero Pines",
      "endAddress": "597 Lewis Flat Apt. 371",
      "startCoords": {
        "latitude": 39.71167,
        "longitude": -105.00525
      },
      "endCoords": {
        "latitude": 39.808343,
        "longitude": -104.983495
      },
      "distanceMeters": 9385.1,
      "durationMs": 1500000,
      "drivingDurationMs": 1136773,
      "idlingDurationMs": 363227,
      "fuelConsumedMl": 1192,
      "fuelConsumedGallons": 0.315,
      "maxSpeedMph": 36.0,
      "averageSpeedMph": 14.0,
      "safetyEvents": []
    },
    {
      "id": "trip_46232361_20250221_7146",
      "vehicleId": "46232361",
      "driverId": "20000006",
      "startMs": 1740166897000,
      "endMs": 1740179683000,
      "startAddress": "696 Timothy Street",
      "endAddress": "406 Flowers Plains Apt. 247",
      "startCoords": {
        "latitude": 39.816758,
        "longitude": -104.983723
      },
      "endCoords": {
        "latitude": 39.694706,
        "longitude": -104.988798
      },
      "distanceMeters": 66106.6,
      "durationMs": 12786000,
      "drivingDurationMs": 9725790,
      "idlingDurationMs": 3060210,
      "fuelConsumedMl": 8404,
      "fuelConsumedGallons": 2.22,
      "maxSpeedMph": 39.4,
      "averageSpeedMph": 11.6,
      "safetyEvents": []
    },
    {
      "id": "trip_46232361_20250222_7177",
      "vehicleId": "46232361",
      "driverId": "20000022",
      "startMs": 1740185932000,
      "endMs": 1740187612000,
      "startAddress": "31468 James Trace",
      "endAddress": "93956 Cook Ridge Apt. 431",
      "startCoords": {
        "latitude": 39.816506,
        "longitude": -105.01575
      },
      "endCoords": {
        "latitude": 39.784375,
        "longitude": -104.927953
      },
      "distanceMeters": 8041.1,
      "durationMs": 1680000,
      "drivingDurationMs": 1437798,
      "idlingDurationMs": 242202,
      "fuelConsumedMl": 1022,
      "fuelConsumedGallons": 0.27,
      "maxSpeedMph": 30.5,
      "averageSpeedMph": 10.7,
      "safetyEvents": []
    },
    {
      "id": "trip_46232361_20250222_7206",
      "vehicleId": "46232361",
      "driverId": "20000001",
      "startMs": 1740207807000,
      "endMs": 1740210679000,
      "startAddress": "3013 Eaton Center",
      "endAddress": "3570 Mary Lodge Apt. 793",
      "startCoords": {
        "latitude": 39.718409,
        "longitude": -104.981032
      },
      "endCoords": {
        "latitude": 39.728325,
        "longitude": -104.946762
      },
      "distanceMeters": 15895.3,
      "durationMs": 2872000,
      "drivingDurationMs": 2524051,
      "idlingDurationMs": 347949,
      "fuelConsumedMl": 2021,
      "fuelConsumedGallons": 0.534,
      "maxSpeedMph": 35.4,
      "averageSpeedMph": 12.4,
      "safetyEvents": []
    },
    {
      "id": "trip_46232361_20250222_7236",
      "vehicleId": "46232361",
      "driverId": "20000014",
      "startMs": 1740220640000,
      "endMs": 1740224677000,
      "startAddress": "8816 Margaret Alley Apt. 400",
      "endAddress": "69032 Lori Ville Apt. 170",
      "startCoords": {
        "latitude": 39.734872,
        "longitude": -104.931148
      },
      "endCoords": {
        "latitude": 39.724447,
        "longitude": -105.086532
      },
      "distanceMeters": 19332.6,
      "durationMs": 4037000,
      "drivingDurationMs": 3437042,
      "idlingDurationMs": 599958,
      "fuelConsumedMl": 2457,
      "fuelConsumedGallons": 0.649,
      "maxSpeedMph": 29.4,
      "averageSpeedMph": 10.7,
      "safetyEvents": []
    },
    {
      "id": "trip_46232361_20250222_7271",
      "vehicleId": "46232361",
      "driverId": "20000012",
      "startMs": 1740244084000,
      "endMs": 1740245944000,
      "startAddress": "7773 Glenn Cove Apt. 678",
      "endAddress": "57927 Teresa Highway Apt. 243",
      "startCoords": {
        "latitude": 39.790099,
        "longitude": -104.923393
      },
      "endCoords": {
        "latitude": 39.790541,
        "longitude": -104.971424
      },
      "distanceMeters": 9226.9,
      "durationMs": 1860000,
      "drivingDurationMs": 1607721,
      "idlingDurationMs": 252279,
      "fuelConsumedMl": 1173,
      "fuelConsumedGallons": 0.31,
      "maxSpeedMph": 33.4,
      "averageSpeedMph": 11.1,
      "safetyEvents": []
    },
    {
      "id": "trip_46232361_20250222_7298",
      "vehicleId": "46232361",
      "driverId": "20000019",
      "startMs": 1740256647000,
      "endMs": 1740258567000,
      "startAddress": "34611 Aguilar Key Apt. 985",
      "endAddress": "470 Santos Brooks",
      "startCoords": {
        "latitude": 39.759786,
        "longitude": -104.984395
      },
      "endCoords": {
        "latitude": 39.725611,
        "longitude": -104.971702
      },
      "distanceMeters": 11452.6,
      "durationMs": 1920000,
      "drivingDurationMs": 1620963,
      "idlingDurationMs": 299037,
      "fuelConsumedMl": 1457,
      "fuelConsumedGallons": 0.385,
      "maxSpeedMph": 34.7,
      "averageSpeedMph": 13.3,
      "safetyEvents": []
    },
    {
      "id": "trip_46232361_20250223_7329",
      "vehicleId": "46232361",
      "driverId": "20000003",
      "startMs": 1740277818000,
      "endMs": 1740282616000,
      "startAddress": "080 Jamie Crest Suite 620",
      "endAddress": "7203 Jensen Plains",
      "startCoords": {
        "latitude": 39.688755,
        "longitude": -104.973497
      },
      "endCoords": {
        "latitude": 39.711938,
        "longitude": -104.942804
      },
      "distanceMeters": 20877.1,
      "durationMs": 4798000,
      "drivingDurationMs": 4044699,
      "idlingDurationMs": 753301,
      "fuelConsumedMl": 2654,
      "fuelConsumedGallons": 0.701,
      "maxSpeedMph": 35.7,
      "averageSpeedMph": 9.7,
      "safetyEvents": []
    },
    {
      "id": "trip_46232361_20250223_7354",
      "vehicleId": "46232361",
      "driverId": "20000003",
      "startMs": 1740300409000,
      "endMs": 1740302440000,
      "startAddress": "65015 Debbie Orchard Apt. 194",
      "endAddress": "8838 Antonio Throughway",
      "startCoords": {
        "latitude": 39.724246,
        "longitude": -105.078386
      },
      "endCoords": {
        "latitude": 39.821553,
        "longitude": -105.03025
      },
      "distanceMeters": 10856.2,
      "durationMs": 2031000,
      "drivingDurationMs": 1524757,
      "idlingDurationMs": 506243,
      "fuelConsumedMl": 1382,
      "fuelConsumedGallons": 0.365,
      "maxSpeedMph": 27.5,
      "averageSpeedMph": 12.0,
      "safetyEvents": []
    },
    {
      "id": "trip_46232361_20250223_7384",
      "vehicleId": "46232361",
      "driverId": "20000004",
      "startMs": 1740323981000,
      "endMs": 1740326021000,
      "startAddress": "530 Jack Lodge Apt. 535",
      "endAddress": "04513 Wagner Run Suite 014",
      "startCoords": {
        "latitude": 39.687016,
        "longitude": -105.013306
      },
      "endCoords": {
        "latitude": 39.727385,
        "longitude": -104.928185
      },
      "distanceMeters": 9373.3,
      "durationMs": 2040000,
      "drivingDurationMs": 1678051,
      "idlingDurationMs": 361949,
      "fuelConsumedMl": 1192,
      "fuelConsumedGallons": 0.315,
      "maxSpeedMph": 33.9,
      "averageSpeedMph": 10.3,
      "safetyEvents": []
    },
    {
      "id": "trip_46232361_20250223_7413",
      "vehicleId": "46232361",
      "driverId": "20000006",
      "startMs": 1740352406000,
      "endMs": 1740354086000,
      "startAddress": "157 Rick Crossroad Apt. 565",
      "endAddress": "5614 Wade Ridge Apt. 614",
      "startCoords": {
        "latitude": 39.716721,
        "longitude": -104.99101
      },
      "endCoords": {
        "latitude": 39.744,
        "longitude": -104.949052
      },
      "distanceMeters": 9747.1,
      "durationMs": 1680000,
      "drivingDurationMs": 1421967,
      "idlingDurationMs": 258033,
      "fuelConsumedMl": 1238,
      "fuelConsumedGallons": 0.327,
      "maxSpeedMph": 32.1,
      "averageSpeedMph": 13.0,
      "safetyEvents": []
    },
    {
      "id": "trip_46232361_20250224_7443",
      "vehicleId": "46232361",
      "driverId": "20000014",
      "startMs": 1740388647000,
      "endMs": 1740396850000,
      "startAddress": "235 Hardy Streets",
      "endAddress": "0510 Flores Mountain Suite 553",
      "startCoords": {
        "latitude": 39.804145,
        "longitude": -104.900798
      },
      "endCoords": {
        "latitude": 39.741894,
        "longitude": -104.912404
      },
      "distanceMeters": 54164.7,
      "durationMs": 8203000,
      "drivingDurationMs": 6255588,
      "idlingDurationMs": 1947412,
      "fuelConsumedMl": 6886,
      "fuelConsumedGallons": 1.819,
      "maxSpeedMph": 33.3,
      "averageSpeedMph": 14.8,
      "safetyEvents": []
    },
    {
      "id": "trip_46232361_20250224_7474",
      "vehicleId": "46232361",
      "driverId": "20000007",
      "startMs": 1740405727000,
      "endMs": 1740415799000,
      "startAddress": "3626 Lee Lakes Suite 445",
      "endAddress": "75151 Cobb Flat Suite 010",
      "startCoords": {
        "latitude": 39.796105,
        "longitude": -104.949308
      },
      "endCoords": {
        "latitude": 39.745614,
        "longitude": -104.977825
      },
      "distanceMeters": 68335.9,
      "durationMs": 10072000,
      "drivingDurationMs": 8482459,
      "idlingDurationMs": 1589541,
      "fuelConsumedMl": 8688,
      "fuelConsumedGallons": 2.295,
      "maxSpeedMph": 33.3,
      "averageSpeedMph": 15.2,
      "safetyEvents": []
    },
    {
      "id": "trip_46232361_20250224_7506",
      "vehicleId": "46232361",
      "driverId": "20000006",
      "startMs": 1740420798000,
      "endMs": 1740424578000,
      "startAddress": "0991 Taylor Manor",
      "endAddress": "4917 Melton Knolls Apt. 922",
      "startCoords": {
        "latitude": 39.693494,
        "longitude": -104.968777
      },
      "endCoords": {
        "latitude": 39.743257,
        "longitude": -104.923866
      },
      "distanceMeters": 16485.2,
      "durationMs": 3780000,
      "drivingDurationMs": 3247732,
      "idlingDurationMs": 532268,
      "fuelConsumedMl": 2097,
      "fuelConsumedGallons": 0.554,
      "maxSpeedMph": 33.0,
      "averageSpeedMph": 9.8,
      "safetyEvents": []
    },
    {
      "id": "trip_46232361_20250224_7535",
      "vehicleId": "46232361",
      "driverId": "20000003",
      "startMs": 1740437648000,
      "endMs": 1740447503000,
      "startAddress": "828 Kelly Creek",
      "endAddress": "49094 Brenda Hill Apt. 702",
      "startCoords": {
        "latitude": 39.711051,
        "longitude": -105.077473
      },
      "endCoords": {
        "latitude": 39.744235,
        "longitude": -104.986082
      },
      "distanceMeters": 45547.1,
      "durationMs": 9855000,
      "drivingDurationMs": 7442552,
      "idlingDurationMs": 2412448,
      "fuelConsumedMl": 5792,
      "fuelConsumedGallons": 1.53,
      "maxSpeedMph": 26.0,
      "averageSpeedMph": 10.3,
      "safetyEvents": []
    },
    {
      "id": "trip_46232361_20250225_7567",
      "vehicleId": "46232361",
      "driverId": "20000011",
      "startMs": 1740459268000,
      "endMs": 1740463472000,
      "startAddress": "920 Helen Key Apt. 533",
      "endAddress": "73262 Fuentes Lodge Suite 598",
      "startCoords": {
        "latitude": 39.707413,
        "longitude": -105.076742
      },
      "endCoords": {
        "latitude": 39.786941,
        "longitude": -104.914946
      },
      "distanceMeters": 18031.1,
      "durationMs": 4204000,
      "drivingDurationMs": 3515216,
      "idlingDurationMs": 688784,
      "fuelConsumedMl": 2294,
      "fuelConsumedGallons": 0.606,
      "maxSpeedMph": 38.8,
      "averageSpeedMph": 9.6,
      "safetyEvents": []
    },
    {
      "id": "trip_46232361_20250225_7596",
      "vehicleId": "46232361",
      "driverId": "20000017",
      "startMs": 1740478296000,
      "endMs": 1740483037000,
      "startAddress": "4362 Jeffrey Locks Apt. 565",
      "endAddress": "224 Luis Prairie Suite 002",
      "startCoords": {
        "latitude": 39.823065,
        "longitude": -104.959805
      },
      "endCoords": {
        "latitude": 39.708292,
        "longitude": -104.928516
      },
      "distanceMeters": 25086.1,
      "durationMs": 4741000,
      "drivingDurationMs": 3794068,
      "idlingDurationMs": 946932,
      "fuelConsumedMl": 3191,
      "fuelConsumedGallons": 0.843,
      "maxSpeedMph": 34.3,
      "averageSpeedMph": 11.8,
      "safetyEvents": []
    },
    {
      "id": "trip_46232361_20250225_7626",
      "vehicleId": "46232361",
      "driverId": "20000014",
      "startMs": 1740493532000,
      "endMs": 1740495866000,
      "startAddress": "889 Bridges Light Suite 512",
      "endAddress": "093 Odom Roads Apt. 213",
      "startCoords": {
        "latitude": 39.715074,
        "longitude": -105.066726
      },
      "endCoords": {
        "latitude": 39.776114,
        "longitude": -105.070007
      },
      "distanceMeters": 13218.0,
      "durationMs": 2334000,
      "drivingDurationMs": 1757447,
      "idlingDurationMs": 576553,
      "fuelConsumedMl": 1681,
      "fuelConsumedGallons": 0.444,
      "maxSpeedMph": 33.8,
      "averageSpeedMph": 12.7,
      "safetyEvents": []
    },
    {
      "id": "trip_46232361_20250225_7652",
      "vehicleId": "46232361",
      "driverId": "20000018",
      "startMs": 1740507884000,
      "endMs": 1740512124000,
      "startAddress": "70575 Amanda Vista",
      "endAddress": "663 George Avenue",
      "startCoords": {
        "latitude": 39.765624,
        "longitude": -105.024909
      },
      "endCoords": {
        "latitude": 39.750344,
        "longitude": -104.970184
      },
      "distanceMeters": 20960.3,
      "durationMs": 4240000,
      "drivingDurationMs": 3667152,
      "idlingDurationMs": 572848,
      "fuelConsumedMl": 2665,
      "fuelConsumedGallons": 0.704,
      "maxSpeedMph": 30.5,
      "averageSpeedMph": 11.1,
      "safetyEvents": []
    },
    {
      "id": "trip_46232361_20250225_7675",
      "vehicleId": "46232361",
      "driverId": "20000012",
      "startMs": 1740519927000,
      "endMs": 1740526697000,
      "startAddress": "742 Kevin Lane",
      "endAddress": "8658 King Islands Suite 462",
      "startCoords": {
        "latitude": 39.745569,
        "longitude": -105.08044
      },
      "endCoords": {
        "latitude": 39.780545,
        "longitude": -105.059206
      },
      "distanceMeters": 26022.2,
      "durationMs": 6770000,
      "drivingDurationMs": 5174857,
      "idlingDurationMs": 1595143,
      "fuelConsumedMl": 3308,
      "fuelConsumedGallons": 0.874,
      "maxSpeedMph": 32.9,
      "averageSpeedMph": 8.6,
      "safetyEvents": []
    },
    {
      "id": "trip_46232361_20250226_7702",
      "vehicleId": "46232361",
      "driverId": "20000020",
      "startMs": 1740536366000,
      "endMs": 1740547894000,
      "startAddress": "4001 Clark Common",
      "endAddress": "1330 Daniel Rapids",
      "startCoords": {
        "latitude": 39.74106,
        "longitude": -105.019798
      },
      "endCoords": {
        "latitude": 39.737696,
        "longitude": -104.919198
      },
      "distanceMeters": 77210.6,
      "durationMs": 11528000,
      "drivingDurationMs": 9144968,
      "idlingDurationMs": 2383032,
      "fuelConsumedMl": 9816,
      "fuelConsumedGallons": 2.593,
      "maxSpeedMph": 26.0,
      "averageSpeedMph": 15.0,
      "safetyEvents": []
    },
    {
      "id": "trip_46232361_20250226_7732",
      "vehicleId": "46232361",
      "driverId": "20000004",
      "startMs": 1740557316000,
      "endMs": 1740565535000,
      "startAddress": "92349 Kramer Track Suite 913",
      "endAddress": "2949 Moore Lane Apt. 010",
      "startCoords": {
        "latitude": 39.707229,
        "longitude": -105.032967
      },
      "endCoords": {
        "latitude": 39.754165,
        "longitude": -105.053739
      },
      "distanceMeters": 53554.2,
      "durationMs": 8219000,
      "drivingDurationMs": 6481250,
      "idlingDurationMs": 1737750,
      "fuelConsumedMl": 6810,
      "fuelConsumedGallons": 1.799,
      "maxSpeedMph": 33.0,
      "averageSpeedMph": 14.6,
      "safetyEvents": []
    },
    {
      "id": "trip_46232361_20250226_7759",
      "vehicleId": "46232361",
      "driverId": "20000002",
      "startMs": 1740570289000,
      "endMs": 1740578859000,
      "startAddress": "212 Kimberly Prairie Apt. 637",
      "endAddress": "617 Dave Island Apt. 018",
      "startCoords": {
        "latitude": 39.731671,
        "longitude": -104.927808
      },
      "endCoords": {
        "latitude": 39.69019,
        "longitude": -105.029881
      },
      "distanceMeters": 45600.7,
      "durationMs": 8570000,
      "drivingDurationMs": 7480533,
      "idlingDurationMs": 1089467,
      "fuelConsumedMl": 5799,
      "fuelConsumedGallons": 1.532,
      "maxSpeedMph": 29.9,
      "averageSpeedMph": 11.9,
      "safetyEvents": []
    },
    {
      "id": "trip_46232361_20250226_7787",
      "vehicleId": "46232361",
      "driverId": "20000015",
      "startMs": 1740585234000,
      "endMs": 1740587394000,
      "startAddress": "9056 Davis Route Suite 850",
      "endAddress": "49287 Miller Grove Suite 416",
      "startCoords": {
        "latitude": 39.820306,
        "longitude": -104.957248
      },
      "endCoords": {
        "latitude": 39.691113,
        "longitude": -105.066467
      },
      "distanceMeters": 13209.1,
      "durationMs": 2160000,
      "drivingDurationMs": 1869820,
      "idlingDurationMs": 290180,
      "fuelConsumedMl": 1681,
      "fuelConsumedGallons": 0.444,
      "maxSpeedMph": 31.1,
      "averageSpeedMph": 13.7,
      "safetyEvents": []
    },
    {
      "id": "trip_46232361_20250226_7813",
      "vehicleId": "46232361",
      "driverId": "20000011",
      "startMs": 1740598354000,
      "endMs": 1740603232000,
      "startAddress": "7663 Morrison Cape Apt. 245",
      "endAddress": "02586 Martin Village",
      "startCoords": {
        "latitude": 39.716537,
        "longitude": -105.057362
      },
      "endCoords": {
        "latitude": 39.815983,
        "longitude": -105.067367
      },
      "distanceMeters": 22556.9,
      "durationMs": 4878000,
      "drivingDurationMs": 3784358,
      "idlingDurationMs": 1093642,
      "fuelConsumedMl": 2869,
      "fuelConsumedGallons": 0.758,
      "maxSpeedMph": 37.7,
      "averageSpeedMph": 10.3,
      "safetyEvents": []
    },
    {
      "id": "trip_46232361_20250226_7835",
      "vehicleId": "46232361",
      "driverId": "20000018",
      "startMs": 1740614374000,
      "endMs": 1740616714000,
      "startAddress": "869 Lynn Island",
      "endAddress": "803 Long Walks",
      "startCoords": {
        "latitude": 39.718249,
        "longitude": -104.927342
      },
      "endCoords": {
        "latitude": 39.742251,
        "longitude": -105.061024
      },
      "distanceMeters": 13041.2,
      "durationMs": 2340000,
      "drivingDurationMs": 1986839,
      "idlingDurationMs": 353161,
      "fuelConsumedMl": 1658,
      "fuelConsumedGallons": 0.438,
      "maxSpeedMph": 35.2,
      "averageSpeedMph": 12.5,
      "safetyEvents": []
    },
    {
      "id": "trip_46232361_20250227_7862",
      "vehicleId": "46232361",
      "driverId": "20000012",
      "startMs": 1740631734000,
      "endMs": 1740633294000,
      "startAddress": "36731 April Villages Suite 787",
      "endAddress": "23546 Jason Road",
      "startCoords": {
        "latitude": 39.737552,
        "longitude": -104.942058
      },
      "endCoords": {
        "latitude": 39.819792,
        "longitude": -105.029249
      },
      "distanceMeters": 10070.6,
      "durationMs": 1560000,
      "drivingDurationMs": 1232310,
      "idlingDurationMs": 327690,
      "fuelConsumedMl": 1279,
      "fuelConsumedGallons": 0.338,
      "maxSpeedMph": 38.9,
      "averageSpeedMph": 14.4,
      "safetyEvents": []
    },
    {
      "id": "trip_46232361_20250227_7890",
      "vehicleId": "46232361",
      "driverId": "20000005",
      "startMs": 1740645751000,
      "endMs": 1740656639000,
      "startAddress": "16352 Karen Parkway Suite 877",
      "endAddress": "340 Alison Plaza Suite 921",
      "startCoords": {
        "latitude": 39.735923,
        "longitude": -105.085386
      },
      "endCoords": {
        "latitude": 39.780825,
        "longitude": -104.989476
      },
      "distanceMeters": 54137.2,
      "durationMs": 10888000,
      "drivingDurationMs": 8593515,
      "idlingDurationMs": 2294485,
      "fuelConsumedMl": 6882,
      "fuelConsumedGallons": 1.818,
      "maxSpeedMph": 28.3,
      "averageSpeedMph": 11.1,
      "safetyEvents": []
    },
    {
      "id": "trip_46232361_20250227_7921",
      "vehicleId": "46232361",
      "driverId": "20000003",
      "startMs": 1740661337000,
      "endMs": 1740671749000,
      "startAddress": "788 Christopher Square Suite 391",
      "endAddress": "89005 Collins Orchard",
      "startCoords": {
        "latitude": 39.827614,
        "longitude": -104.969125
      },
      "endCoords": {
        "latitude": 39.727478,
        "longitude": -105.059522
      },
      "distanceMeters": 65034.0,
      "durationMs": 10412000,
      "drivingDurationMs": 9331973,
      "idlingDurationMs": 1080027,
      "fuelConsumedMl": 8267,
      "fuelConsumedGallons": 2.184,
      "maxSpeedMph": 26.9,
      "averageSpeedMph": 14.0,
      "safetyEvents": []
    },
    {
      "id": "trip_46232361_20250227_7950",
      "vehicleId": "46232361",
      "driverId": "20000014",
      "startMs": 1740677082000,
      "endMs": 1740678462000,
      "startAddress": "769 Janet Trafficway Suite 742",
      "endAddress": "782 Andrew Common Suite 834",
      "startCoords": {
        "latitude": 39.748729,
        "longitude": -105.087669
      },
      "endCoords": {
        "latitude": 39.68659,
        "longitude": -104.90318
      },
      "distanceMeters": 5623.2,
      "durationMs": 1380000,
      "drivingDurationMs": 1122556,
      "idlingDurationMs": 257444,
      "fuelConsumedMl": 715,
      "fuelConsumedGallons": 0.189,
      "maxSpeedMph": 33.0,
      "averageSpeedMph": 9.1,
      "safetyEvents": []
    },
    {
      "id": "trip_46232361_20250227_7976",
      "vehicleId": "46232361",
      "driverId": "20000003",
      "startMs": 1740689968000,
      "endMs": 1740694013000,
      "startAddress": "066 Murphy Mall",
      "endAddress": "97116 Shirley Expressway Apt. 364",
      "startCoords": {
        "latitude": 39.731653,
        "longitude": -104.915079
      },
      "endCoords": {
        "latitude": 39.720754,
        "longitude": -104.988218
      },
      "distanceMeters": 26648.9,
      "durationMs": 4045000,
      "drivingDurationMs": 3172619,
      "idlingDurationMs": 872381,
      "fuelConsumedMl": 3388,
      "fuelConsumedGallons": 0.895,
      "maxSpeedMph": 29.2,
      "averageSpeedMph": 14.7,
      "safetyEvents": []
    },
    {
      "id": "trip_46232361_20250228_8003",
      "vehicleId": "46232361",
      "driverId": "20000007",
      "startMs": 1740711774000,
      "endMs": 1740713994000,
      "startAddress": "492 Griffith Streets Suite 034",
      "endAddress": "85090 Victor Springs Apt. 118",
      "startCoords": {
        "latitude": 39.758303,
        "longitude": -104.906314
      },
      "endCoords": {
        "latitude": 39.707013,
        "longitude": -105.062297
      },
      "distanceMeters": 15252.5,
      "durationMs": 2220000,
      "drivingDurationMs": 1805831,
      "idlingDurationMs": 414169,
      "fuelConsumedMl": 1938,
      "fuelConsumedGallons": 0.512,
      "maxSpeedMph": 33.1,
      "averageSpeedMph": 15.4,
      "safetyEvents": []
    },
    {
      "id": "trip_46232361_20250228_8033",
      "vehicleId": "46232361",
      "driverId": "20000015",
      "startMs": 1740729020000,
      "endMs": 1740731420000,
      "startAddress": "5629 Monique Freeway",
      "endAddress": "182 Mark Lodge Suite 975",
      "startCoords": {
        "latitude": 39.803326,
        "longitude": -105.006014
      },
      "endCoords": {
        "latitude": 39.738087,
        "longitude": -104.950752
      },
      "distanceMeters": 11880.7,
      "durationMs": 2400000,
      "drivingDurationMs": 1824868,
      "idlingDurationMs": 575132,
      "fuelConsumedMl": 1510,
      "fuelConsumedGallons": 0.399,
      "maxSpeedMph": 37.3,
      "averageSpeedMph": 11.1,
      "safetyEvents": []
    },
    {
      "id": "trip_46232361_20250228_8059",
      "vehicleId": "46232361",
      "driverId": "20000013",
      "startMs": 1740743608000,
      "endMs": 1740753815000,
      "startAddress": "20876 Jessica Street Suite 317",
      "endAddress": "61247 Elaine Mountains",
      "startCoords": {
        "latitude": 39.766536,
        "longitude": -104.957786
      },
      "endCoords": {
        "latitude": 39.70633,
        "longitude": -104.964402
      },
      "distanceMeters": 67893.8,
      "durationMs": 10207000,
      "drivingDurationMs": 8891436,
      "idlingDurationMs": 1315564,
      "fuelConsumedMl": 8631,
      "fuelConsumedGallons": 2.28,
      "maxSpeedMph": 33.7,
      "averageSpeedMph": 14.9,
      "safetyEvents": []
    },
    {
      "id": "trip_46232361_20250228_8091",
      "vehicleId": "46232361",
      "driverId": "20000003",
      "startMs": 1740761478000,
      "endMs": 1740765329000,
      "startAddress": "954 Garrett Wells Apt. 894",
      "endAddress": "8260 Rice Shoal",
      "startCoords": {
        "latitude": 39.746738,
        "longitude": -105.041346
      },
      "endCoords": {
        "latitude": 39.804118,
        "longitude": -104.959087
      },
      "distanceMeters": 24911.7,
      "durationMs": 3851000,
      "drivingDurationMs": 3056076,
      "idlingDurationMs": 794924,
      "fuelConsumedMl": 3168,
      "fuelConsumedGallons": 0.837,
      "maxSpeedMph": 35.7,
      "averageSpeedMph": 14.5,
      "safetyEvents": []
    },
    {
      "id": "trip_46232361_20250228_8116",
      "vehicleId": "46232361",
      "driverId": "20000006",
      "startMs": 1740771736000,
      "endMs": 1740773596000,
      "startAddress": "075 Brown Radial",
      "endAddress": "5948 Barnes Corners",
      "startCoords": {
        "latitude": 39.820334,
        "longitude": -105.011709
      },
      "endCoords": {
        "latitude": 39.73093,
        "longitude": -105.022042
      },
      "distanceMeters": 11384.9,
      "durationMs": 1860000,
      "drivingDurationMs": 1556658,
      "idlingDurationMs": 303342,
      "fuelConsumedMl": 1446,
      "fuelConsumedGallons": 0.382,
      "maxSpeedMph": 32.3,
      "averageSpeedMph": 13.7,
      "safetyEvents": []
    }
  ]
}