{
  "vehicleId": "43088084",
  "vehicleName": "SLC-VAN-05",
  "month": "2025_02",
  "pagination": {
    "endCursor": "trip_43088084_20250228_002",
    "hasNextPage": false
  },
  "trips": [
    {
      "id": "trip_43088084_20250201_001",
      "vehicleId": "43088084",
      "driverId": "20000034",
      "startMs": 1738407660000,
      "endMs": 1738419666251,
      "startAddress": "716 Monica Dam",
      "endAddress": "069 Timothy Circle Apt. 242",
      "startCoords": {
        "latitude": 40.769769,
        "longitude": -111.877633
      },
      "endCoords": {
        "latitude": 40.75954,
        "longitude": -111.828736
      },
      "distanceMeters": 69559.2,
      "durationMs": 12006251,
      "drivingDurationMs": 10387499,
      "idlingDurationMs": 1618753,
      "fuelConsumedMl": 8843,
      "fuelConsumedGallons": 2.336,
      "maxSpeedMph": 38.8,
      "averageSpeedMph": 13.0,
      "safetyEvents": []
    },
    {
      "id": "trip_43088084_20250201_002",
      "vehicleId": "43088084",
      "driverId": "20000034",
      "startMs": 1738406220000,
      "endMs": 1738414787783,
      "startAddress": "9894 Drake Shoal Suite 063",
      "endAddress": "586 Alisha Station",
      "startCoords": {
        "latitude": 40.671997,
        "longitude": -111.797019
      },
      "endCoords": {
        "latitude": 40.79979,
        "longitude": -111.857031
      },
      "distanceMeters": 60704.2,
      "durationMs": 8567784,
      "drivingDurationMs": 7303391,
      "idlingDurationMs": 1264393,
      "fuelConsumedMl": 7718,
      "fuelConsumedGallons": 2.039,
      "maxSpeedMph": 33.3,
      "averageSpeedMph": 15.8,
      "safetyEvents": []
    },
    {
      "id": "trip_43088084_20250201_003",
      "vehicleId": "43088084",
      "driverId": "20000034",
      "startMs": 1738434660000,
      "endMs": 1738443600000,
      "startAddress": "33191 Roberts Station",
      "endAddress": "7769 Carolyn Divide Suite 065",
      "startCoords": {
        "latitude": 40.745322,
        "longitude": -111.850767
      },
      "endCoords": {
        "latitude": 40.68454,
        "longitude": -111.81691
      },
      "distanceMeters": 44062.7,
      "durationMs": 8940000,
      "drivingDurationMs": 8306478,
      "idlingDurationMs": 633522,
      "fuelConsumedMl": 5602,
      "fuelConsumedGallons": 1.48,
      "maxSpeedMph": 65.2,
      "averageSpeedMph": 11.0,
      "safetyEvents": [
        {
          "type": "speeding",
          "startMs": 1738441260000,
          "maxSpeedMph": 65.2
        }
      ]
    },
    {
      "id": "trip_43088084_20250201_004",
      "vehicleId": "43088084",
      "driverId": "20000034",
      "startMs": 1738429620000,
      "endMs": 1738437180516,
      "startAddress": "12028 Allen Forge Apt. 392",
      "endAddress": "425 Vang Row Suite 629",
      "startCoords": {
        "latitude": 40.729652,
        "longitude": -111.811969
      },
      "endCoords": {
        "latitude": 40.690715,
        "longitude": -111.874417
      },
      "distanceMeters": 43715.9,
      "durationMs": 7560517,
      "drivingDurationMs": 6631134,
      "idlingDurationMs": 929382,
      "fuelConsumedMl": 5557,
      "fuelConsumedGallons": 1.468,
      "maxSpeedMph": 50.3,
      "averageSpeedMph": 12.9,
      "safetyEvents": []
    },
    {
      "id": "trip_43088084_20250202_001",
      "vehicleId": "43088084",
      "driverId": "20000033",
      "startMs": 1738492200000,
      "endMs": 1738493820123,
      "startAddress": "905 Teresa Fords",
      "endAddress": "4277 Roth Estates Apt. 522",
      "startCoords": {
        "latitude": 40.797348,
        "longitude": -111.810342
      },
      "endCoords": {
        "latitude": 40.767878,
        "longitude": -111.838043
      },
      "distanceMeters": 9114.0,
      "durationMs": 1620123,
      "drivingDurationMs": 1382277,
      "idlingDurationMs": 237847,
      "fuelConsumedMl": 1158,
      "fuelConsumedGallons": 0.306,
      "maxSpeedMph": 45.3,
      "averageSpeedMph": 12.6,
      "safetyEvents": []
    },
    {
      "id": "trip_43088084_20250202_002",
      "vehicleId": "43088084",
      "driverId": "20000033",
      "startMs": 1738486380000,
      "endMs": 1738488646519,
      "startAddress": "2160 William Extension Apt. 181",
      "endAddress": "4823 Griffith Causeway",
      "startCoords": {
        "latitude": 40.756175,
        "longitude": -111.904901
      },
      "endCoords": {
        "latitude": 40.749128,
        "longitude": -111.9607
      },
      "distanceMeters": 14052.8,
      "durationMs": 2266519,
      "drivingDurationMs": 1948104,
      "idlingDurationMs": 318415,
      "fuelConsumedMl": 1787,
      "fuelConsumedGallons": 0.472,
      "maxSpeedMph": 47.6,
      "averageSpeedMph": 13.9,
      "safetyEvents": []
    },
    {
      "id": "trip_43088084_20250202_003",
      "vehicleId": "43088084",
      "driverId": "20000033",
      "startMs": 1738493040000,
      "endMs": 1738499877462,
      "startAddress": "642 Austin Forges",
      "endAddress": "77563 Forbes Highway Apt. 682",
      "startCoords": {
        "latitude": 40.700871,
        "longitude": -111.884516
      },
      "endCoords": {
        "latitude": 40.704018,
        "longitude": -111.774236
      },
      "distanceMeters": 49542.2,
      "durationMs": 6837463,
      "drivingDurationMs": 6538100,
      "idlingDurationMs": 299363,
      "fuelConsumedMl": 6299,
      "fuelConsumedGallons": 1.664,
      "maxSpeedMph": 43.0,
      "averageSpeedMph": 16.2,
      "safetyEvents": []
    },
    {
      "id": "trip_43088084_20250202_004",
      "vehicleId": "43088084",
      "driverId": "20000033",
      "startMs": 1738494240000,
      "endMs": 1738497132357,
      "startAddress": "3454 Gutierrez Village Apt. 468",
      "endAddress": "886 Hurley Pines",
      "startCoords": {
        "latitude": 40.760613,
        "longitude": -111.956481
      },
      "endCoords": {
        "latitude": 40.71119,
        "longitude": -111.941458
      },
      "distanceMeters": 16257.0,
      "durationMs": 2892357,
      "drivingDurationMs": 2522230,
      "idlingDurationMs": 370127,
      "fuelConsumedMl": 2067,
      "fuelConsumedGallons": 0.546,
      "maxSpeedMph": 63.3,
      "averageSpeedMph": 12.6,
      "safetyEvents": []
    },
    {
      "id": "trip_43088084_20250203_001",
      "vehicleId": "43088084",
      "driverId": "20000037",
      "startMs": 1738587540000,
      "endMs": 1738596934928,
      "startAddress": "3228 Norman Crossroad Apt. 413",
      "endAddress": "9503 Nicole Way Suite 105",
      "startCoords": {
        "latitude": 40.673788,
        "longitude": -111.785473
      },
      "endCoords": {
        "latitude": 40.789481,
        "longitude": -111.853499
      },
      "distanceMeters": 43043.0,
      "durationMs": 9394928,
      "drivingDurationMs": 7754661,
      "idlingDurationMs": 1640267,
      "fuelConsumedMl": 5474,
      "fuelConsumedGallons": 1.446,
      "maxSpeedMph": 36.9,
      "averageSpeedMph": 10.2,
      "safetyEvents": []
    },
    {
      "id": "trip_43088084_20250203_002",
      "vehicleId": "43088084",
      "driverId": "20000037",
      "startMs": 1738599900000,
      "endMs": 1738608067882,
      "startAddress": "497 Moore Landing",
      "endAddress": "029 Christina Path Apt. 320",
      "startCoords": {
        "latitude": 40.73199,
        "longitude": -111.781807
      },
      "endCoords": {
        "latitude": 40.684521,
        "longitude": -111.846026
      },
      "distanceMeters": 64308.7,
      "durationMs": 8167882,
      "drivingDurationMs": 7831064,
      "idlingDurationMs": 336818,
      "fuelConsumedMl": 8176,
      "fuelConsumedGallons": 2.16,
      "maxSpeedMph": 36.5,
      "averageSpeedMph": 17.6,
      "safetyEvents": []
    },
    {
      "id": "trip_43088084_20250203_003",
      "vehicleId": "43088084",
      "driverId": "20000037",
      "startMs": 1738597620000,
      "endMs": 1738606949937,
      "startAddress": "45910 Kirsten Greens Suite 524",
      "endAddress": "1696 Martinez River",
      "startCoords": {
        "latitude": 40.710334,
        "longitude": -111.844475
      },
      "endCoords": {
        "latitude": 40.753569,
        "longitude": -111.887392
      },
      "distanceMeters": 41877.4,
      "durationMs": 9329937,
      "drivingDurationMs": 8143731,
      "idlingDurationMs": 1186206,
      "fuelConsumedMl": 5326,
      "fuelConsumedGallons": 1.407,
      "maxSpeedMph": 41.5,
      "averageSpeedMph": 10.0,
      "safetyEvents": []
    },
    {
      "id": "trip_43088084_20250203_004",
      "vehicleId": "43088084",
      "driverId": "20000037",
      "startMs": 1738577040000,
      "endMs": 1738580922385,
      "startAddress": "9683 John Burg",
      "endAddress": "627 Sarah Estate Apt. 301",
      "startCoords": {
        "latitude": 40.704958,
        "longitude": -111.824158
      },
      "endCoords": {
        "latitude": 40.695853,
        "longitude": -111.867667
      },
      "distanceMeters": 26694.5,
      "durationMs": 3882385,
      "drivingDurationMs": 3208109,
      "idlingDurationMs": 674276,
      "fuelConsumedMl": 3396,
      "fuelConsumedGallons": 0.897,
      "maxSpeedMph": 47.4,
      "averageSpeedMph": 15.4,
      "safetyEvents": []
    },
    {
      "id": "trip_43088084_20250203_005",
      "vehicleId": "43088084",
      "driverId": "20000037",
      "startMs": 1738574640000,
      "endMs": 1738581444474,
      "startAddress": "37394 Sarah Roads Apt. 120",
      "endAddress": "55280 Kimberly Plaza Apt. 271",
      "startCoords": {
        "latitude": 40.731663,
        "longitude": -111.829558
      },
      "endCoords": {
        "latitude": 40.665044,
        "longitude": -111.818881
      },
      "distanceMeters": 46231.7,
      "durationMs": 6804475,
      "drivingDurationMs": 5920183,
      "idlingDurationMs": 884292,
      "fuelConsumedMl": 5879,
      "fuelConsumedGallons": 1.553,
      "maxSpeedMph": 64.2,
      "averageSpeedMph": 15.2,
      "safetyEvents": []
    },
    {
      "id": "trip_43088084_20250204_001",
      "vehicleId": "43088084",
      "driverId": "20000035",
      "startMs": 1738676760000,
      "endMs": 1738679477731,
      "startAddress": "76021 Key Locks",
      "endAddress": "088 Mitchell Ranch",
      "startCoords": {
        "latitude": 40.696932,
        "longitude": -111.839652
      },
      "endCoords": {
        "latitude": 40.734085,
        "longitude": -111.943962
      },
      "distanceMeters": 17599.7,
      "durationMs": 2717732,
      "drivingDurationMs": 2426829,
      "idlingDurationMs": 290902,
      "fuelConsumedMl": 2237,
      "fuelConsumedGallons": 0.591,
      "maxSpeedMph": 39.1,
      "averageSpeedMph": 14.5,
      "safetyEvents": []
    },
    {
      "id": "trip_43088084_20250204_002",
      "vehicleId": "43088084",
      "driverId": "20000035",
      "startMs": 1738683900000,
      "endMs": 1738688008201,
      "startAddress": "841 Baker Summit Suite 816",
      "endAddress": "1061 Michael Heights Apt. 784",
      "startCoords": {
        "latitude": 40.669045,
        "longitude": -111.861743
      },
      "endCoords": {
        "latitude": 40.717154,
        "longitude": -111.806949
      },
      "distanceMeters": 30272.9,
      "durationMs": 4108202,
      "drivingDurationMs": 3576991,
      "idlingDurationMs": 531210,
      "fuelConsumedMl": 3850,
      "fuelConsumedGallons": 1.017,
      "maxSpeedMph": 41.6,
      "averageSpeedMph": 16.5,
      "safetyEvents": []
    },
    {
      "id": "trip_43088084_20250205_001",
      "vehicleId": "43088084",
      "driverId": "20000035",
      "startMs": 1738773540000,
      "endMs": 1738780895572,
      "startAddress": "2809 Beck Square",
      "endAddress": "73427 Russell Extension",
      "startCoords": {
        "latitude": 40.68129,
        "longitude": -111.895012
      },
      "endCoords": {
        "latitude": 40.703769,
        "longitude": -111.870723
      },
      "distanceMeters": 44856.4,
      "durationMs": 7355573,
      "drivingDurationMs": 6490426,
      "idlingDurationMs": 865147,
      "fuelConsumedMl": 5705,
      "fuelConsumedGallons": 1.507,
      "maxSpeedMph": 37.6,
      "averageSpeedMph": 13.6,
      "safetyEvents": []
    },
    {
      "id": "trip_43088084_20250205_002",
      "vehicleId": "43088084",
      "driverId": "20000035",
      "startMs": 1738750140000,
      "endMs": 1738767374076,
      "startAddress": "76774 Wendy Mews Suite 871",
      "endAddress": "703 Webster Plains Suite 224",
      "startCoords": {
        "latitude": 40.765499,
        "longitude": -111.895144
      },
      "endCoords": {
        "latitude": 40.7379,
        "longitude": -111.797433
      },
      "distanceMeters": 81516.2,
      "durationMs": 17234077,
      "drivingDurationMs": 15017790,
      "idlingDurationMs": 2216286,
      "fuelConsumedMl": 10364,
      "fuelConsumedGallons": 2.738,
      "maxSpeedMph": 32.5,
      "averageSpeedMph": 10.6,
      "safetyEvents": []
    },
    {
      "id": "trip_43088084_20250205_003",
      "vehicleId": "43088084",
      "driverId": null,
      "startMs": 1738741320000,
      "endMs": 1738752215973,
      "startAddress": "0313 Ward Streets",
      "endAddress": "7337 Reynolds Orchard",
      "startCoords": {
        "latitude": 40.702569,
        "longitude": -111.826707
      },
      "endCoords": {
        "latitude": 40.727747,
        "longitude": -111.822186
      },
      "distanceMeters": 50439.9,
      "durationMs": 10895973,
      "drivingDurationMs": 9969640,
      "idlingDurationMs": 926333,
      "fuelConsumedMl": 6412,
      "fuelConsumedGallons": 1.694,
      "maxSpeedMph": 65.2,
      "averageSpeedMph": 10.4,
      "safetyEvents": [
        {
          "type": "speeding",
          "startMs": 1738743660000,
          "maxSpeedMph": 65.2
        }
      ]
    },
    {
      "id": "trip_43088084_20250205_004",
      "vehicleId": "43088084",
      "driverId": "20000035",
      "startMs": 1738768140000,
      "endMs": 1738772561992,
      "startAddress": "767 Steven Key Apt. 071",
      "endAddress": "95256 Cynthia Turnpike Apt. 448",
      "startCoords": {
        "latitude": 40.666767,
        "longitude": -111.797705
      },
      "endCoords": {
        "latitude": 40.671696,
        "longitude": -111.862614
      },
      "distanceMeters": 29058.0,
      "durationMs": 4421992,
      "drivingDurationMs": 3849415,
      "idlingDurationMs": 572577,
      "fuelConsumedMl": 3695,
      "fuelConsumedGallons": 0.976,
      "maxSpeedMph": 45.0,
      "averageSpeedMph": 14.7,
      "safetyEvents": []
    },
    {
      "id": "trip_43088084_20250205_005",
      "vehicleId": "43088084",
      "driverId": "20000035",
      "startMs": 1738763700000,
      "endMs": 1738765859583,
      "startAddress": "146 Garner Fall Apt. 218",
      "endAddress": "685 Lewis Glen",
      "startCoords": {
        "latitude": 40.772849,
        "longitude": -111.959496
      },
      "endCoords": {
        "latitude": 40.669299,
        "longitude": -111.954593
      },
      "distanceMeters": 9599.1,
      "durationMs": 2159584,
      "drivingDurationMs": 1900098,
      "idlingDurationMs": 259485,
      "fuelConsumedMl": 1219,
      "fuelConsumedGallons": 0.322,
      "maxSpeedMph": 62.0,
      "averageSpeedMph": 9.9,
      "safetyEvents": []
    },
    {
      "id": "trip_43088084_20250206_001",
      "vehicleId": "43088084",
      "driverId": "20000033",
      "startMs": 1738853940000,
      "endMs": 1738864060517,
      "startAddress": "5126 John Causeway Suite 065",
      "endAddress": "91843 Baker Estate",
      "startCoords": {
        "latitude": 40.712381,
        "longitude": -111.954053
      },
      "endCoords": {
        "latitude": 40.730297,
        "longitude": -111.924214
      },
      "distanceMeters": 73018.4,
      "durationMs": 10120517,
      "drivingDurationMs": 9383691,
      "idlingDurationMs": 736826,
      "fuelConsumedMl": 9286,
      "fuelConsumedGallons": 2.453,
      "maxSpeedMph": 66.4,
      "averageSpeedMph": 16.1,
      "safetyEvents": [
        {
          "type": "speeding",
          "startMs": 1738860060000,
          "maxSpeedMph": 66.4
        }
      ]
    },
    {
      "id": "trip_43088084_20250206_002",
      "vehicleId": "43088084",
      "driverId": "20000033",
      "startMs": 1738833480000,
      "endMs": 1738839565012,
      "startAddress": "215 Rebecca Springs Apt. 385",
      "endAddress": "75865 Elliott Plains",
      "startCoords": {
        "latitude": 40.779864,
        "longitude": -111.873156
      },
      "endCoords": {
        "latitude": 40.668537,
        "longitude": -111.781002
      },
      "distanceMeters": 44093.6,
      "durationMs": 6085013,
      "drivingDurationMs": 5401058,
      "idlingDurationMs": 683954,
      "fuelConsumedMl": 5606,
      "fuelConsumedGallons": 1.481,
      "maxSpeedMph": 56.3,
      "averageSpeedMph": 16.2,
      "safetyEvents": []
    },
    {
      "id": "trip_43088084_20250206_003",
      "vehicleId": "43088084",
      "driverId": "20000033",
      "startMs": 1738862820000,
      "endMs": 1738875600000,
      "startAddress": "774 Mary Causeway Apt. 113",
      "endAddress": "7883 Middleton Harbor Suite 649",
      "startCoords": {
        "latitude": 40.663588,
        "longitude": -111.924874
      },
      "endCoords": {
        "latitude": 40.714183,
        "longitude": -111.904992
      },
      "distanceMeters": 77055.8,
      "durationMs": 12780000,
      "drivingDurationMs": 11807386,
      "idlingDurationMs": 972614,
      "fuelConsumedMl": 9797,
      "fuelConsumedGallons": 2.588,
      "maxSpeedMph": 45.4,
      "averageSpeedMph": 13.5,
      "safetyEvents": []
    },
    {
      "id": "trip_43088084_20250207_001",
      "vehicleId": "43088084",
      "driverId": "20000034",
      "startMs": 1738950420000,
      "endMs": 1738962000000,
      "startAddress": "1632 King Rest",
      "endAddress": "443 Kyle River",
      "startCoords": {
        "latitude": 40.688818,
        "longitude": -111.950227
      },
      "endCoords": {
        "latitude": 40.710158,
        "longitude": -111.862233
      },
      "distanceMeters": 61491.2,
      "durationMs": 11580000,
      "drivingDurationMs": 9610594,
      "idlingDurationMs": 1969406,
      "fuelConsumedMl": 7817,
      "fuelConsumedGallons": 2.065,
      "maxSpeedMph": 69.6,
      "averageSpeedMph": 11.9,
      "safetyEvents": [
        {
          "type": "speeding",
          "startMs": 1738957920000,
          "maxSpeedMph": 69.6
        }
      ]
    },
    {
      "id": "trip_43088084_20250207_002",
      "vehicleId": "43088084",
      "driverId": "20000034",
      "startMs": 1738927140000,
      "endMs": 1738930905467,
      "startAddress": "0426 Jeffrey Mills",
      "endAddress": "345 Daniel Drive",
      "startCoords": {
        "latitude": 40.698112,
        "longitude": -111.791332
      },
      "endCoords": {
        "latitude": 40.714502,
        "longitude": -111.903276
      },
      "distanceMeters": 25358.5,
      "durationMs": 3765468,
      "drivingDurationMs": 3439674,
      "idlingDurationMs": 325793,
      "fuelConsumedMl": 3225,
      "fuelConsumedGallons": 0.852,
      "maxSpeedMph": 39.7,
      "averageSpeedMph": 15.1,
      "safetyEvents": []
    },
    {
      "id": "trip_43088084_20250207_003",
      "vehicleId": "43088084",
      "driverId": "20000034",
      "startMs": 1738917480000,
      "endMs": 1738922045158,
      "startAddress": "09370 Ronald Passage Apt. 010",
      "endAddress": "4179 Michael Forges",
      "startCoords": {
        "latitude": 40.658225,
        "longitude": -111.821615
      },
      "endCoords": {
        "latitude": 40.68839,
        "longitude": -111.776495
      },
      "distanceMeters": 25505.8,
      "durationMs": 4565158,
      "drivingDurationMs": 4224193,
      "idlingDurationMs": 340966,
      "fuelConsumedMl": 3244,
      "fuelConsumedGallons": 0.857,
      "maxSpeedMph": 29.0,
      "averageSpeedMph": 12.5,
      "safetyEvents": []
    },
    {
      "id": "trip_43088084_20250208_001",
      "vehicleId": "43088084",
      "driverId": "20000037",
      "startMs": 1738996500000,
      "endMs": 1739001575131,
      "startAddress": "521 Christy Stream",
      "endAddress": "912 Taylor Cliff",
      "startCoords": {
        "latitude": 40.749864,
        "longitude": -111.911032
      },
      "endCoords": {
        "latitude": 40.735038,
        "longitude": -111.849747
      },
      "distanceMeters": 32549.7,
      "durationMs": 5075132,
      "drivingDurationMs": 4161220,
      "idlingDurationMs": 913912,
      "fuelConsumedMl": 4137,
      "fuelConsumedGallons": 1.093,
      "maxSpeedMph": 58.4,
      "averageSpeedMph": 14.3,
      "safetyEvents": []
    },
    {
      "id": "trip_43088084_20250208_002",
      "vehicleId": "43088084",
      "driverId": "20000037",
      "startMs": 1739006040000,
      "endMs": 1739018966145,
      "startAddress": "033 David Port Apt. 718",
      "endAddress": "0212 Herrera Center",
      "startCoords": {
        "latitude": 40.708378,
        "longitude": -111.955674
      },
      "endCoords": {
        "latitude": 40.676064,
        "longitude": -111.901009
      },
      "distanceMeters": 61350.9,
      "durationMs": 12926146,
      "drivingDurationMs": 11261371,
      "idlingDurationMs": 1664775,
      "fuelConsumedMl": 7802,
      "fuelConsumedGallons": 2.061,
      "maxSpeedMph": 53.2,
      "averageSpeedMph": 10.6,
      "safetyEvents": []
    },
    {
      "id": "trip_43088084_20250209_001",
      "vehicleId": "43088084",
      "driverId": "20000035",
      "startMs": 1739117460000,
      "endMs": 1739125198458,
      "startAddress": "2119 Hamilton Unions",
      "endAddress": "2650 Rodriguez Circles Apt. 293",
      "startCoords": {
        "latitude": 40.769089,
        "longitude": -111.850554
      },
      "endCoords": {
        "latitude": 40.761936,
        "longitude": -111.936137
      },
      "distanceMeters": 37463.1,
      "durationMs": 7738459,
      "drivingDurationMs": 6273845,
      "idlingDurationMs": 1464614,
      "fuelConsumedMl": 4762,
      "fuelConsumedGallons": 1.258,
      "maxSpeedMph": 57.9,
      "averageSpeedMph": 10.8,
      "safetyEvents": []
    },
    {
      "id": "trip_43088084_20250209_002",
      "vehicleId": "43088084",
      "driverId": "20000035",
      "startMs": 1739095680000,
      "endMs": 1739098004354,
      "startAddress": "819 Greene Causeway Apt. 522",
      "endAddress": "3974 Reid Harbors Suite 238",
      "startCoords": {
        "latitude": 40.673287,
        "longitude": -111.863051
      },
      "endCoords": {
        "latitude": 40.758623,
        "longitude": -111.799101
      },
      "distanceMeters": 13009.2,
      "durationMs": 2324355,
      "drivingDurationMs": 1915807,
      "idlingDurationMs": 408547,
      "fuelConsumedMl": 1654,
      "fuelConsumedGallons": 0.437,
      "maxSpeedMph": 54.6,
      "averageSpeedMph": 12.5,
      "safetyEvents": []
    },
    {
      "id": "trip_43088084_20250209_003",
      "vehicleId": "43088084",
      "driverId": "20000035",
      "startMs": 1739100960000,
      "endMs": 1739111383180,
      "startAddress": "67146 Keller Springs",
      "endAddress": "8148 Ryan Walk Suite 172",
      "startCoords": {
        "latitude": 40.700856,
        "longitude": -111.851929
      },
      "endCoords": {
        "latitude": 40.750244,
        "longitude": -111.903079
      },
      "distanceMeters": 49542.2,
      "durationMs": 10423180,
      "drivingDurationMs": 8745147,
      "idlingDurationMs": 1678034,
      "fuelConsumedMl": 6299,
      "fuelConsumedGallons": 1.664,
      "maxSpeedMph": 37.6,
      "averageSpeedMph": 10.6,
      "safetyEvents": []
    },
    {
      "id": "trip_43088084_20250209_004",
      "vehicleId": "43088084",
      "driverId": "20000035",
      "startMs": 1739116740000,
      "endMs": 1739118088197,
      "startAddress": "7322 Brittney Summit",
      "endAddress": "40890 Kirk Drive Apt. 781",
      "startCoords": {
        "latitude": 40.796472,
        "longitude": -111.809052
      },
      "endCoords": {
        "latitude": 40.695131,
        "longitude": -111.847578
      },
      "distanceMeters": 8390.8,
      "durationMs": 1348197,
      "drivingDurationMs": 1088378,
      "idlingDurationMs": 259819,
      "fuelConsumedMl": 1067,
      "fuelConsumedGallons": 0.282,
      "maxSpeedMph": 44.1,
      "averageSpeedMph": 13.9,
      "safetyEvents": []
    },
    {
      "id": "trip_43088084_20250210_001",
      "vehicleId": "43088084",
      "driverId": "20000039",
      "startMs": 1739169780000,
      "endMs": 1739177545044,
      "startAddress": "0576 Leslie Harbors Apt. 162",
      "endAddress": "886 Chan Locks Apt. 239",
      "startCoords": {
        "latitude": 40.720332,
        "longitude": -111.814645
      },
      "endCoords": {
        "latitude": 40.716175,
        "longitude": -111.917443
      },
      "distanceMeters": 58422.5,
      "durationMs": 7765044,
      "drivingDurationMs": 7077407,
      "idlingDurationMs": 687637,
      "fuelConsumedMl": 7427,
      "fuelConsumedGallons": 1.962,
      "maxSpeedMph": 52.9,
      "averageSpeedMph": 16.8,
      "safetyEvents": []
    },
    {
      "id": "trip_43088084_20250210_002",
      "vehicleId": "43088084",
      "driverId": "20000039",
      "startMs": 1739199060000,
      "endMs": 1739201274038,
      "startAddress": "01721 Peck Hills Suite 608",
      "endAddress": "0430 Miller Landing",
      "startCoords": {
        "latitude": 40.788886,
        "longitude": -111.783843
      },
      "endCoords": {
        "latitude": 40.781422,
        "longitude": -111.858264
      },
      "distanceMeters": 11816.0,
      "durationMs": 2214039,
      "drivingDurationMs": 1936605,
      "idlingDurationMs": 277434,
      "fuelConsumedMl": 1503,
      "fuelConsumedGallons": 0.397,
      "maxSpeedMph": 59.4,
      "averageSpeedMph": 11.9,
      "safetyEvents": []
    },
    {
      "id": "trip_43088084_20250211_001",
      "vehicleId": "43088084",
      "driverId": "20000039",
      "startMs": 1739259780000,
      "endMs": 1739275682613,
      "startAddress": "163 Frank Shoal",
      "endAddress": "070 Hammond Wells",
      "startCoords": {
        "latitude": 40.74922,
        "longitude": -111.937738
      },
      "endCoords": {
        "latitude": 40.780343,
        "longitude": -111.88032
      },
      "distanceMeters": 82960.1,
      "durationMs": 15902614,
      "drivingDurationMs": 15614630,
      "idlingDurationMs": 287984,
      "fuelConsumedMl": 10546,
      "fuelConsumedGallons": 2.786,
      "maxSpeedMph": 50.7,
      "averageSpeedMph": 11.7,
      "safetyEvents": []
    },
    {
      "id": "trip_43088084_20250211_002",
      "vehicleId": "43088084",
      "driverId": "20000039",
      "startMs": 1739287020000,
      "endMs": 1739302958960,
      "startAddress": "676 Brown Corners",
      "endAddress": "0397 Samantha Meadow Apt. 051",
      "startCoords": {
        "latitude": 40.729681,
        "longitude": -111.920467
      },
      "endCoords": {
        "latitude": 40.702923,
        "longitude": -111.903243
      },
      "distanceMeters": 66334.0,
      "durationMs": 15938960,
      "drivingDurationMs": 13070709,
      "idlingDurationMs": 2868252,
      "fuelConsumedMl": 8434,
      "fuelConsumedGallons": 2.228,
      "maxSpeedMph": 47.6,
      "averageSpeedMph": 9.3,
      "safetyEvents": []
    },
    {
      "id": "trip_43088084_20250211_003",
      "vehicleId": "43088084",
      "driverId": "20000039",
      "startMs": 1739285760000,
      "endMs": 1739298381536,
      "startAddress": "3078 Sandra Park",
      "endAddress": "333 Sanders Flats",
      "startCoords": {
        "latitude": 40.717653,
        "longitude": -111.937193
      },
      "endCoords": {
        "latitude": 40.782503,
        "longitude": -111.946759
      },
      "distanceMeters": 75397.7,
      "durationMs": 12621537,
      "drivingDurationMs": 11874097,
      "idlingDurationMs": 747440,
      "fuelConsumedMl": 9585,
      "fuelConsumedGallons": 2.532,
      "maxSpeedMph": 32.5,
      "averageSpeedMph": 13.4,
      "safetyEvents": []
    },
    {
      "id": "trip_43088084_20250211_004",
      "vehicleId": "43088084",
      "driverId": "20000039",
      "startMs": 1739292240000,
      "endMs": 1739303319620,
      "startAddress": "61383 Tammy Haven",
      "endAddress": "0980 Kennedy Grove",
      "startCoords": {
        "latitude": 40.794225,
        "longitude": -111.787125
      },
      "endCoords": {
        "latitude": 40.667054,
        "longitude": -111.913015
      },
      "distanceMeters": 76711.7,
      "durationMs": 11079621,
      "drivingDurationMs": 9955076,
      "idlingDurationMs": 1124545,
      "fuelConsumedMl": 9755,
      "fuelConsumedGallons": 2.577,
      "maxSpeedMph": 71.5,
      "averageSpeedMph": 15.5,
      "safetyEvents": [
        {
          "type": "speeding",
          "startMs": 1739297040000,
          "maxSpeedMph": 71.5
        }
      ]
    },
    {
      "id": "trip_43088084_20250212_001",
      "vehicleId": "43088084",
      "driverId": "20000036",
      "startMs": 1739340000000,
      "endMs": 1739352499047,
      "startAddress": "46473 Wells Brooks Apt. 722",
      "endAddress": "4240 Williams Views Suite 802",
      "startCoords": {
        "latitude": 40.69562,
        "longitude": -111.829662
      },
      "endCoords": {
        "latitude": 40.773036,
        "longitude": -111.877254
      },
      "distanceMeters": 58644.2,
      "durationMs": 12499047,
      "drivingDurationMs": 10930208,
      "idlingDurationMs": 1568839,
      "fuelConsumedMl": 7457,
      "fuelConsumedGallons": 1.97,
      "maxSpeedMph": 51.3,
      "averageSpeedMph": 10.5,
      "safetyEvents": []
    },
    {
      "id": "trip_43088084_20250212_002",
      "vehicleId": "43088084",
      "driverId": "20000036",
      "startMs": 1739370300000,
      "endMs": 1739373452618,
      "startAddress": "11332 Sandoval Valleys",
      "endAddress": "6432 Tammy Spring",
      "startCoords": {
        "latitude": 40.748438,
        "longitude": -111.917107
      },
      "endCoords": {
        "latitude": 40.712752,
        "longitude": -111.929792
      },
      "distanceMeters": 17989.8,
      "durationMs": 3152618,
      "drivingDurationMs": 2581723,
      "idlingDurationMs": 570896,
      "fuelConsumedMl": 2286,
      "fuelConsumedGallons": 0.604,
      "maxSpeedMph": 29.1,
      "averageSpeedMph": 12.8,
      "safetyEvents": []
    },
    {
      "id": "trip_43088084_20250213_001",
      "vehicleId": "43088084",
      "driverId": "20000039",
      "startMs": 1739428440000,
      "endMs": 1739445281293,
      "startAddress": "0783 Moss Row",
      "endAddress": "662 Rachel Crossroad Apt. 971",
      "startCoords": {
        "latitude": 40.7728,
        "longitude": -111.902219
      },
      "endCoords": {
        "latitude": 40.678025,
        "longitude": -111.859859
      },
      "distanceMeters": 77225.7,
      "durationMs": 16841294,
      "drivingDurationMs": 13768041,
      "idlingDurationMs": 3073253,
      "fuelConsumedMl": 9819,
      "fuelConsumedGallons": 2.594,
      "maxSpeedMph": 64.4,
      "averageSpeedMph": 10.3,
      "safetyEvents": []
    },
    {
      "id": "trip_43088084_20250213_002",
      "vehicleId": "43088084",
      "driverId": "20000039",
      "startMs": 1739459100000,
      "endMs": 1739467195999,
      "startAddress": "29326 Sims Mills Apt. 746",
      "endAddress": "206 Hopkins Shoals",
      "startCoords": {
        "latitude": 40.781372,
        "longitude": -111.781523
      },
      "endCoords": {
        "latitude": 40.742007,
        "longitude": -111.839774
      },
      "distanceMeters": 52337.8,
      "durationMs": 8095999,
      "drivingDurationMs": 7104435,
      "idlingDurationMs": 991564,
      "fuelConsumedMl": 6655,
      "fuelConsumedGallons": 1.758,
      "maxSpeedMph": 29.9,
      "averageSpeedMph": 14.5,
      "safetyEvents": []
    },
    {
      "id": "trip_43088084_20250213_003",
      "vehicleId": "43088084",
      "driverId": "20000039",
      "startMs": 1739431800000,
      "endMs": 1739448913473,
      "startAddress": "0174 Berry Skyway Apt. 401",
      "endAddress": "3896 Kimberly Crescent",
      "startCoords": {
        "latitude": 40.672582,
        "longitude": -111.853883
      },
      "endCoords": {
        "latitude": 40.723214,
        "longitude": -111.960393
      },
      "distanceMeters": 84556.2,
      "durationMs": 17113474,
      "drivingDurationMs": 16863522,
      "idlingDurationMs": 249952,
      "fuelConsumedMl": 10751,
      "fuelConsumedGallons": 2.84,
      "maxSpeedMph": 70.1,
      "averageSpeedMph": 11.1,
      "safetyEvents": [
        {
          "type": "speeding",
          "startMs": 1739445720000,
          "maxSpeedMph": 70.1
        }
      ]
    },
    {
      "id": "trip_43088084_20250213_004",
      "vehicleId": "43088084",
      "driverId": "20000039",
      "startMs": 1739443620000,
      "endMs": 1739447260931,
      "startAddress": "880 Joseph Junctions",
      "endAddress": "461 Stanton Turnpike",
      "startCoords": {
        "latitude": 40.762012,
        "longitude": -111.789685
      },
      "endCoords": {
        "latitude": 40.676648,
        "longitude": -111.807664
      },
      "distanceMeters": 26687.8,
      "durationMs": 3640931,
      "drivingDurationMs": 3068815,
      "idlingDurationMs": 572116,
      "fuelConsumedMl": 3392,
      "fuelConsumedGallons": 0.896,
      "maxSpeedMph": 39.4,
      "averageSpeedMph": 16.4,
      "safetyEvents": []
    },
    {
      "id": "trip_43088084_20250213_005",
      "vehicleId": "43088084",
      "driverId": "20000039",
      "startMs": 1739454180000,
      "endMs": 1739464361181,
      "startAddress": "2228 Patterson Fork Apt. 881",
      "endAddress": "518 Lamb Knoll Apt. 982",
      "startCoords": {
        "latitude": 40.707018,
        "longitude": -111.841342
      },
      "endCoords": {
        "latitude": 40.70081,
        "longitude": -111.78673
      },
      "distanceMeters": 63390.3,
      "durationMs": 10181182,
      "drivingDurationMs": 8850884,
      "idlingDurationMs": 1330298,
      "fuelConsumedMl": 8059,
      "fuelConsumedGallons": 2.129,
      "maxSpeedMph": 40.5,
      "averageSpeedMph": 13.9,
      "safetyEvents": []
    },
    {
      "id": "trip_43088084_20250213_006",
      "vehicleId": "43088084",
      "driverId": "20000039",
      "startMs": 1739464800000,
      "endMs": 1739468373055,
      "startAddress": "64442 Le Mission",
      "endAddress": "82280 Gomez Rapids",
      "startCoords": {
        "latitude": 40.731511,
        "longitude": -111.792066
      },
      "endCoords": {
        "latitude": 40.739823,
        "longitude": -111.892408
      },
      "distanceMeters": 17802.3,
      "durationMs": 3573056,
      "drivingDurationMs": 3224941,
      "idlingDurationMs": 348114,
      "fuelConsumedMl": 2264,
      "fuelConsumedGallons": 0.598,
      "maxSpeedMph": 41.4,
      "averageSpeedMph": 11.1,
      "safetyEvents": []
    },
    {
      "id": "trip_43088084_20250214_001",
      "vehicleId": "43088084",
      "driverId": "20000035",
      "startMs": 1739546580000,
      "endMs": 1739559532048,
      "startAddress": "676 Delacruz Burgs Suite 398",
      "endAddress": "557 Hutchinson Ford",
      "startCoords": {
        "latitude": 40.795119,
        "longitude": -111.81137
      },
      "endCoords": {
        "latitude": 40.757174,
        "longitude": -111.872011
      },
      "distanceMeters": 64100.7,
      "durationMs": 12952048,
      "drivingDurationMs": 11771911,
      "idlingDurationMs": 1180137,
      "fuelConsumedMl": 8150,
      "fuelConsumedGallons": 2.153,
      "maxSpeedMph": 53.6,
      "averageSpeedMph": 11.1,
      "safetyEvents": []
    },
    {
      "id": "trip_43088084_20250214_002",
      "vehicleId": "43088084",
      "driverId": "20000035",
      "startMs": 1739527440000,
      "endMs": 1739536193270,
      "startAddress": "734 Martin View",
      "endAddress": "39871 Marsh Summit",
      "startCoords": {
        "latitude": 40.732665,
        "longitude": -111.885697
      },
      "endCoords": {
        "latitude": 40.687142,
        "longitude": -111.825987
      },
      "distanceMeters": 68359.3,
      "durationMs": 8753271,
      "drivingDurationMs": 7921291,
      "idlingDurationMs": 831980,
      "fuelConsumedMl": 8691,
      "fuelConsumedGallons": 2.296,
      "maxSpeedMph": 48.3,
      "averageSpeedMph": 17.5,
      "safetyEvents": []
    },
    {
      "id": "trip_43088084_20250214_003",
      "vehicleId": "43088084",
      "driverId": "20000035",
      "startMs": 1739535000000,
      "endMs": 1739539458535,
      "startAddress": "4167 Thompson Drives",
      "endAddress": "2675 Campbell Throughway Suite 993",
      "startCoords": {
        "latitude": 40.765896,
        "longitude": -111.795392
      },
      "endCoords": {
        "latitude": 40.794452,
        "longitude": -111.913772
      },
      "distanceMeters": 22061.2,
      "durationMs": 4458535,
      "drivingDurationMs": 3989391,
      "idlingDurationMs": 469144,
      "fuelConsumedMl": 2805,
      "fuelConsumedGallons": 0.741,
      "maxSpeedMph": 65.8,
      "averageSpeedMph": 11.1,
      "safetyEvents": [
        {
          "type": "speeding",
          "startMs": 1739536560000,
          "maxSpeedMph": 65.8
        }
      ]
    },
    {
      "id": "trip_43088084_20250214_004",
      "vehicleId": "43088084",
      "driverId": "20000035",
      "startMs": 1739541780000,
      "endMs": 1739547146971,
      "startAddress": "4020 Curry Shores",
      "endAddress": "6751 April Forks Suite 396",
      "startCoords": {
        "latitude": 40.773699,
        "longitude": -111.798525
      },
      "endCoords": {
        "latitude": 40.797143,
        "longitude": -111.835344
      },
      "distanceMeters": 40352.3,
      "durationMs": 5366972,
      "drivingDurationMs": 4913400,
      "idlingDurationMs": 453571,
      "fuelConsumedMl": 5129,
      "fuelConsumedGallons": 1.355,
      "maxSpeedMph": 31.7,
      "averageSpeedMph": 16.8,
      "safetyEvents": []
    },
    {
      "id": "trip_43088084_20250214_005",
      "vehicleId": "43088084",
      "driverId": "20000035",
      "startMs": 1739546160000,
      "endMs": 1739556969655,
      "startAddress": "9007 Tyler Mills",
      "endAddress": "435 Candace Valley",
      "startCoords": {
        "latitude": 40.773784,
        "longitude": -111.909004
      },
      "endCoords": {
        "latitude": 40.749784,
        "longitude": -111.89695
      },
      "distanceMeters": 70673.3,
      "durationMs": 10809656,
      "drivingDurationMs": 9109757,
      "idlingDurationMs": 1699899,
      "fuelConsumedMl": 8987,
      "fuelConsumedGallons": 2.374,
      "maxSpeedMph": 61.3,
      "averageSpeedMph": 14.6,
      "safetyEvents": []
    },
    {
      "id": "trip_43088084_20250214_006",
      "vehicleId": "43088084",
      "driverId": "20000035",
      "startMs": 1739515440000,
      "endMs": 1739526047034,
      "startAddress": "814 Rice Neck",
      "endAddress": "016 Miguel Forest Suite 493",
      "startCoords": {
        "latitude": 40.676958,
        "longitude": -111.779761
      },
      "endCoords": {
        "latitude": 40.711807,
        "longitude": -111.937574
      },
      "distanceMeters": 71713.8,
      "durationMs": 10607035,
      "drivingDurationMs": 9688442,
      "idlingDurationMs": 918593,
      "fuelConsumedMl": 9119,
      "fuelConsumedGallons": 2.409,
      "maxSpeedMph": 70.8,
      "averageSpeedMph": 15.1,
      "safetyEvents": [
        {
          "type": "speeding",
          "startMs": 1739518200000,
          "maxSpeedMph": 70.8
        }
      ]
    },
    {
      "id": "trip_43088084_20250215_001",
      "vehicleId": "43088084",
      "driverId": "20000039",
      "startMs": 1739642940000,
      "endMs": 1739653200000,
      "startAddress": "48754 Jeffrey Fields Apt. 850",
      "endAddress": "97928 Cassandra Causeway Suite 889",
      "startCoords": {
        "latitude": 40.784984,
        "longitude": -111.895039
      },
      "endCoords": {
        "latitude": 40.723818,
        "longitude": -111.880115
      },
      "distanceMeters": 66322.3,
      "durationMs": 10260000,
      "drivingDurationMs": 9501217,
      "idlingDurationMs": 758783,
      "fuelConsumedMl": 8434,
      "fuelConsumedGallons": 2.228,
      "maxSpeedMph": 71.3,
      "averageSpeedMph": 14.5,
      "safetyEvents": [
        {
          "type": "speeding",
          "startMs": 1739646960000,
          "maxSpeedMph": 71.3
        }
      ]
    },
    {
      "id": "trip_43088084_20250215_002",
      "vehicleId": "43088084",
      "driverId": "20000039",
      "startMs": 1739604900000,
      "endMs": 1739622349559,
      "startAddress": "2271 Phillips Parks",
      "endAddress": "60051 Holt Radial Apt. 966",
      "startCoords": {
        "latitude": 40.708169,
        "longitude": -111.861244
      },
      "endCoords": {
        "latitude": 40.667589,
        "longitude": -111.884381
      },
      "distanceMeters": 73301.0,
      "durationMs": 17449560,
      "drivingDurationMs": 14061384,
      "idlingDurationMs": 3388176,
      "fuelConsumedMl": 9320,
      "fuelConsumedGallons": 2.462,
      "maxSpeedMph": 49.5,
      "averageSpeedMph": 9.4,
      "safetyEvents": []
    },
    {
      "id": "trip_43088084_20250215_003",
      "vehicleId": "43088084",
      "driverId": "20000039",
      "startMs": 1739624760000,
      "endMs": 1739631121013,
      "startAddress": "622 Laura Parkway Suite 653",
      "endAddress": "578 Green Port",
      "startCoords": {
        "latitude": 40.740549,
        "longitude": -111.808145
      },
      "endCoords": {
        "latitude": 40.721232,
        "longitude": -111.884919
      },
      "distanceMeters": 29423.8,
      "durationMs": 6361014,
      "drivingDurationMs": 5344144,
      "idlingDurationMs": 1016870,
      "fuelConsumedMl": 3740,
      "fuelConsumedGallons": 0.988,
      "maxSpeedMph": 44.1,
      "averageSpeedMph": 10.3,
      "safetyEvents": []
    },
    {
      "id": "trip_43088084_20250216_001",
      "vehicleId": "43088084",
      "driverId": "20000033",
      "startMs": 1739723460000,
      "endMs": 1739724949531,
      "startAddress": "366 Harris Mount",
      "endAddress": "731 Harrell Prairie",
      "startCoords": {
        "latitude": 40.756961,
        "longitude": -111.838448
      },
      "endCoords": {
        "latitude": 40.786444,
        "longitude": -111.947395
      },
      "distanceMeters": 8217.7,
      "durationMs": 1489531,
      "drivingDurationMs": 1297586,
      "idlingDurationMs": 191945,
      "fuelConsumedMl": 1045,
      "fuelConsumedGallons": 0.276,
      "maxSpeedMph": 45.8,
      "averageSpeedMph": 12.3,
      "safetyEvents": []
    },
    {
      "id": "trip_43088084_20250216_002",
      "vehicleId": "43088084",
      "driverId": "20000033",
      "startMs": 1739694660000,
      "endMs": 1739704891889,
      "startAddress": "0570 Raymond Walk",
      "endAddress": "3320 Amy Villages",
      "startCoords": {
        "latitude": 40.690988,
        "longitude": -111.84437
      },
      "endCoords": {
        "latitude": 40.718555,
        "longitude": -111.847051
      },
      "distanceMeters": 56040.6,
      "durationMs": 10231889,
      "drivingDurationMs": 8345694,
      "idlingDurationMs": 1886195,
      "fuelConsumedMl": 7124,
      "fuelConsumedGallons": 1.882,
      "maxSpeedMph": 65.2,
      "averageSpeedMph": 12.3,
      "safetyEvents": [
        {
          "type": "speeding",
          "startMs": 1739702640000,
          "maxSpeedMph": 65.2
        }
      ]
    },
    {
      "id": "trip_43088084_20250216_003",
      "vehicleId": "43088084",
      "driverId": "20000033",
      "startMs": 1739692140000,
      "endMs": 1739693525676,
      "startAddress": "060 Gary Causeway Apt. 950",
      "endAddress": "8677 Sharon Plains Suite 084",
      "startCoords": {
        "latitude": 40.743305,
        "longitude": -111.830208
      },
      "endCoords": {
        "latitude": 40.672238,
        "longitude": -111.935846
      },
      "distanceMeters": 8485.3,
      "durationMs": 1385677,
      "drivingDurationMs": 1188920,
      "idlingDurationMs": 196757,
      "fuelConsumedMl": 1079,
      "fuelConsumedGallons": 0.285,
      "maxSpeedMph": 50.5,
      "averageSpeedMph": 13.7,
      "safetyEvents": []
    },
    {
      "id": "trip_43088084_20250217_001",
      "vehicleId": "43088084",
      "driverId": "20000036",
      "startMs": 1739799300000,
      "endMs": 1739805872853,
      "startAddress": "94865 Mann Course",
      "endAddress": "2027 Shah Bypass",
      "startCoords": {
        "latitude": 40.782925,
        "longitude": -111.846556
      },
      "endCoords": {
        "latitude": 40.719894,
        "longitude": -111.945859
      },
      "distanceMeters": 46695.3,
      "durationMs": 6572853,
      "drivingDurationMs": 5913009,
      "idlingDurationMs": 659845,
      "fuelConsumedMl": 5936,
      "fuelConsumedGallons": 1.568,
      "maxSpeedMph": 57.6,
      "averageSpeedMph": 15.9,
      "safetyEvents": []
    },
    {
      "id": "trip_43088084_20250217_002",
      "vehicleId": "43088084",
      "driverId": "20000036",
      "startMs": 1739808300000,
      "endMs": 1739816095519,
      "startAddress": "7875 Jacqueline Ferry Suite 335",
      "endAddress": "485 Ashley Burg",
      "startCoords": {
        "latitude": 40.768952,
        "longitude": -111.774516
      },
      "endCoords": {
        "latitude": 40.679485,
        "longitude": -111.810739
      },
      "distanceMeters": 34732.9,
      "durationMs": 7795520,
      "drivingDurationMs": 6793766,
      "idlingDurationMs": 1001754,
      "fuelConsumedMl": 4418,
      "fuelConsumedGallons": 1.167,
      "maxSpeedMph": 63.1,
      "averageSpeedMph": 10.0,
      "safetyEvents": []
    },
    {
      "id": "trip_43088084_20250218_001",
      "vehicleId": "43088084",
      "driverId": "20000036",
      "startMs": 1739866860000,
      "endMs": 1739876419560,
      "startAddress": "0950 Benjamin Mountain",
      "endAddress": "8551 Dylan Mountain",
      "startCoords": {
        "latitude": 40.676298,
        "longitude": -111.80678
      },
      "endCoords": {
        "latitude": 40.737751,
        "longitude": -111.817775
      },
      "distanceMeters": 52719.0,
      "durationMs": 9559560,
      "drivingDurationMs": 8818501,
      "idlingDurationMs": 741060,
      "fuelConsumedMl": 6704,
      "fuelConsumedGallons": 1.771,
      "maxSpeedMph": 58.6,
      "averageSpeedMph": 12.3,
      "safetyEvents": []
    },
    {
      "id": "trip_43088084_20250218_002",
      "vehicleId": "43088084",
      "driverId": "20000036",
      "startMs": 1739897820000,
      "endMs": 1739908731270,
      "startAddress": "79780 Anthony Burgs Suite 659",
      "endAddress": "521 Robert Mall",
      "startCoords": {
        "latitude": 40.789179,
        "longitude": -111.824261
      },
      "endCoords": {
        "latitude": 40.741985,
        "longitude": -111.91261
      },
      "distanceMeters": 83831.8,
      "durationMs": 10911270,
      "drivingDurationMs": 10652730,
      "idlingDurationMs": 258540,
      "fuelConsumedMl": 10660,
      "fuelConsumedGallons": 2.816,
      "maxSpeedMph": 67.9,
      "averageSpeedMph": 17.2,
      "safetyEvents": [
        {
          "type": "speeding",
          "startMs": 1739904240000,
          "maxSpeedMph": 67.9
        }
      ]
    },
    {
      "id": "trip_43088084_20250218_003",
      "vehicleId": "43088084",
      "driverId": "20000036",
      "startMs": 1739900820000,
      "endMs": 1739902198378,
      "startAddress": "640 Glen Rapids",
      "endAddress": "042 Kyle Vista Suite 344",
      "startCoords": {
        "latitude": 40.662487,
        "longitude": -111.845603
      },
      "endCoords": {
        "latitude": 40.769884,
        "longitude": -111.889437
      },
      "distanceMeters": 7557.7,
      "durationMs": 1378378,
      "drivingDurationMs": 1120582,
      "idlingDurationMs": 257796,
      "fuelConsumedMl": 961,
      "fuelConsumedGallons": 0.254,
      "maxSpeedMph": 38.4,
      "averageSpeedMph": 12.3,
      "safetyEvents": []
    },
    {
      "id": "trip_43088084_20250219_001",
      "vehicleId": "43088084",
      "driverId": "20000037",
      "startMs": 1739990940000,
      "endMs": 1739998800000,
      "startAddress": "497 Leach Stream Apt. 168",
      "endAddress": "938 Jessica Prairie",
      "startCoords": {
        "latitude": 40.700903,
        "longitude": -111.919987
      },
      "endCoords": {
        "latitude": 40.694121,
        "longitude": -111.858171
      },
      "distanceMeters": 40120.6,
      "durationMs": 7860000,
      "drivingDurationMs": 6917643,
      "idlingDurationMs": 942357,
      "fuelConsumedMl": 5103,
      "fuelConsumedGallons": 1.348,
      "maxSpeedMph": 33.0,
      "averageSpeedMph": 11.4,
      "safetyEvents": []
    },
    {
      "id": "trip_43088084_20250219_002",
      "vehicleId": "43088084",
      "driverId": "20000037",
      "startMs": 1739951820000,
      "endMs": 1739961302211,
      "startAddress": "524 Taylor Hollow Suite 202",
      "endAddress": "1786 Durham Pass Apt. 923",
      "startCoords": {
        "latitude": 40.794375,
        "longitude": -111.833447
      },
      "endCoords": {
        "latitude": 40.740482,
        "longitude": -111.829916
      },
      "distanceMeters": 74372.5,
      "durationMs": 9482212,
      "drivingDurationMs": 9046065,
      "idlingDurationMs": 436147,
      "fuelConsumedMl": 9456,
      "fuelConsumedGallons": 2.498,
      "maxSpeedMph": 41.6,
      "averageSpeedMph": 17.5,
      "safetyEvents": []
    },
    {
      "id": "trip_43088084_20250219_003",
      "vehicleId": "43088084",
      "driverId": "20000037",
      "startMs": 1739981460000,
      "endMs": 1739982875523,
      "startAddress": "839 Jeffery Islands",
      "endAddress": "304 Stephanie Spurs",
      "startCoords": {
        "latitude": 40.672776,
        "longitude": -111.816408
      },
      "endCoords": {
        "latitude": 40.798305,
        "longitude": -111.908175
      },
      "distanceMeters": 6128.8,
      "durationMs": 1415524,
      "drivingDurationMs": 1179199,
      "idlingDurationMs": 236325,
      "fuelConsumedMl": 780,
      "fuelConsumedGallons": 0.206,
      "maxSpeedMph": 35.9,
      "averageSpeedMph": 9.7,
      "safetyEvents": []
    },
    {
      "id": "trip_43088084_20250219_004",
      "vehicleId": "43088084",
      "driverId": "20000037",
      "startMs": 1739975580000,
      "endMs": 1739985383045,
      "startAddress": "4484 Jeremy Stravenue Apt. 810",
      "endAddress": "659 Roberts Road",
      "startCoords": {
        "latitude": 40.749227,
        "longitude": -111.919239
      },
      "endCoords": {
        "latitude": 40.793154,
        "longitude": -111.956161
      },
      "distanceMeters": 57410.0,
      "durationMs": 9803045,
      "drivingDurationMs": 8330686,
      "idlingDurationMs": 1472359,
      "fuelConsumedMl": 7298,
      "fuelConsumedGallons": 1.928,
      "maxSpeedMph": 51.4,
      "averageSpeedMph": 13.1,
      "safetyEvents": []
    },
    {
      "id": "trip_43088084_20250219_005",
      "vehicleId": "43088084",
      "driverId": "20000037",
      "startMs": 1739953320000,
      "endMs": 1739957389867,
      "startAddress": "99339 Jeffrey Lights",
      "endAddress": "24836 Leah Village",
      "startCoords": {
        "latitude": 40.751886,
        "longitude": -111.909066
      },
      "endCoords": {
        "latitude": 40.681177,
        "longitude": -111.874099
      },
      "distanceMeters": 21809.9,
      "durationMs": 4069867,
      "drivingDurationMs": 3467567,
      "idlingDurationMs": 602301,
      "fuelConsumedMl": 2775,
      "fuelConsumedGallons": 0.733,
      "maxSpeedMph": 67.0,
      "averageSpeedMph": 12.0,
      "safetyEvents": [
        {
          "type": "speeding",
          "startMs": 1739956560000,
          "maxSpeedMph": 67.0
        }
      ]
    },
    {
      "id": "trip_43088084_20250219_006",
      "vehicleId": "43088084",
      "driverId": "20000037",
      "startMs": 1739965380000,
      "endMs": 1739979287480,
      "startAddress": "7033 Angela Mount",
      "endAddress": "174 Cox Vista",
      "startCoords": {
        "latitude": 40.731123,
        "longitude": -111.842925
      },
      "endCoords": {
        "latitude": 40.689258,
        "longitude": -111.908059
      },
      "distanceMeters": 81398.7,
      "durationMs": 13907481,
      "drivingDurationMs": 12297812,
      "idlingDurationMs": 1609669,
      "fuelConsumedMl": 10349,
      "fuelConsumedGallons": 2.734,
      "maxSpeedMph": 31.3,
      "averageSpeedMph": 13.1,
      "safetyEvents": []
    },
    {
      "id": "trip_43088084_20250220_001",
      "vehicleId": "43088084",
      "driverId": "20000036",
      "startMs": 1740060840000,
      "endMs": 1740062701083,
      "startAddress": "77461 Hernandez Common",
      "endAddress": "6384 Miller Manors",
      "startCoords": {
        "latitude": 40.73595,
        "longitude": -111.939228
      },
      "endCoords": {
        "latitude": 40.76814,
        "longitude": -111.94856
      },
      "distanceMeters": 10698.8,
      "durationMs": 1861084,
      "drivingDurationMs": 1565782,
      "idlingDurationMs": 295302,
      "fuelConsumedMl": 1359,
      "fuelConsumedGallons": 0.359,
      "maxSpeedMph": 49.8,
      "averageSpeedMph": 12.9,
      "safetyEvents": []
    },
    {
      "id": "trip_43088084_20250220_002",
      "vehicleId": "43088084",
      "driverId": "20000036",
      "startMs": 1740065640000,
      "endMs": 1740080675847,
      "startAddress": "382 Tara Junction Apt. 406",
      "endAddress": "1336 Paula Forest",
      "startCoords": {
        "latitude": 40.656627,
        "longitude": -111.862587
      },
      "endCoords": {
        "latitude": 40.78281,
        "longitude": -111.849922
      },
      "distanceMeters": 67751.3,
      "durationMs": 15035847,
      "drivingDurationMs": 12291335,
      "idlingDurationMs": 2744512,
      "fuelConsumedMl": 8616,
      "fuelConsumedGallons": 2.276,
      "maxSpeedMph": 34.5,
      "averageSpeedMph": 10.1,
      "safetyEvents": []
    },
    {
      "id": "trip_43088084_20250220_003",
      "vehicleId": "43088084",
      "driverId": "20000036",
      "startMs": 1740054120000,
      "endMs": 1740056135509,
      "startAddress": "41693 Amanda Vista Suite 094",
      "endAddress": "498 Hudson Falls Apt. 129",
      "startCoords": {
        "latitude": 40.710768,
        "longitude": -111.834263
      },
      "endCoords": {
        "latitude": 40.769097,
        "longitude": -111.837464
      },
      "distanceMeters": 13347.5,
      "durationMs": 2015509,
      "drivingDurationMs": 1648492,
      "idlingDurationMs": 367017,
      "fuelConsumedMl": 1696,
      "fuelConsumedGallons": 0.448,
      "maxSpeedMph": 71.3,
      "averageSpeedMph": 14.8,
      "safetyEvents": [
        {
          "type": "speeding",
          "startMs": 1740054900000,
          "maxSpeedMph": 71.3
        }
      ]
    },
    {
      "id": "trip_43088084_20250220_004",
      "vehicleId": "43088084",
      "driverId": null,
      "startMs": 1740050160000,
      "endMs": 1740053178066,
      "startAddress": "42167 Freeman Meadow Apt. 286",
      "endAddress": "86581 Henry Drive Apt. 785",
      "startCoords": {
        "latitude": 40.772952,
        "longitude": -111.898127
      },
      "endCoords": {
        "latitude": 40.787004,
        "longitude": -111.868837
      },
      "distanceMeters": 20621.8,
      "durationMs": 3018066,
      "drivingDurationMs": 2698167,
      "idlingDurationMs": 319899,
      "fuelConsumedMl": 2623,
      "fuelConsumedGallons": 0.693,
      "maxSpeedMph": 49.5,
      "averageSpeedMph": 15.3,
      "safetyEvents": []
    },
    {
      "id": "trip_43088084_20250220_005",
      "vehicleId": "43088084",
      "driverId": "20000036",
      "startMs": 1740074460000,
      "endMs": 1740076179137,
      "startAddress": "38759 Alex Park Apt. 248",
      "endAddress": "316 Emily Flat Suite 026",
      "startCoords": {
        "latitude": 40.696865,
        "longitude": -111.839222
      },
      "endCoords": {
        "latitude": 40.68579,
        "longitude": -111.821822
      },
      "distanceMeters": 11501.0,
      "durationMs": 1719138,
      "drivingDurationMs": 1414038,
      "idlingDurationMs": 305100,
      "fuelConsumedMl": 1461,
      "fuelConsumedGallons": 0.386,
      "maxSpeedMph": 52.3,
      "averageSpeedMph": 15.0,
      "safetyEvents": []
    },
    {
      "id": "trip_43088084_20250220_006",
      "vehicleId": "43088084",
      "driverId": "20000036",
      "startMs": 1740033420000,
      "endMs": 1740052324857,
      "startAddress": "0249 Tucker Station",
      "endAddress": "25372 Brown Wells Suite 237",
      "startCoords": {
        "latitude": 40.735472,
        "longitude": -111.936604
      },
      "endCoords": {
        "latitude": 40.674538,
        "longitude": -111.935234
      },
      "distanceMeters": 80269.1,
      "durationMs": 18904857,
      "drivingDurationMs": 15249005,
      "idlingDurationMs": 3655852,
      "fuelConsumedMl": 10205,
      "fuelConsumedGallons": 2.696,
      "maxSpeedMph": 48.5,
      "averageSpeedMph": 9.5,
      "safetyEvents": []
    },
    {
      "id": "trip_43088084_20250221_001",
      "vehicleId": "43088084",
      "driverId": "20000034",
      "startMs": 1740136860000,
      "endMs": 1740138376946,
      "startAddress": "355 Duncan Bypass",
      "endAddress": "30719 Floyd Turnpike",
      "startCoords": {
        "latitude": 40.739272,
        "longitude": -111.921033
      },
      "endCoords": {
        "latitude": 40.793743,
        "longitude": -111.794723
      },
      "distanceMeters": 11012.8,
      "durationMs": 1516946,
      "drivingDurationMs": 1336165,
      "idlingDurationMs": 180781,
      "fuelConsumedMl": 1401,
      "fuelConsumedGallons": 0.37,
      "maxSpeedMph": 71.3,
      "averageSpeedMph": 16.2,
      "safetyEvents": [
        {
          "type": "speeding",
          "startMs": 1740138120000,
          "maxSpeedMph": 71.3
        }
      ]
    },
    {
      "id": "trip_43088084_20250221_002",
      "vehicleId": "43088084",
      "driverId": "20000034",
      "startMs": 1740154320000,
      "endMs": 1740164450153,
      "startAddress": "06186 Christina Station",
      "endAddress": "985 Allen Greens",
      "startCoords": {
        "latitude": 40.663628,
        "longitude": -111.812649
      },
      "endCoords": {
        "latitude": 40.66052,
        "longitude": -111.842958
      },
      "distanceMeters": 62955.9,
      "durationMs": 10130154,
      "drivingDurationMs": 8868624,
      "idlingDurationMs": 1261530,
      "fuelConsumedMl": 8006,
      "fuelConsumedGallons": 2.115,
      "maxSpeedMph": 29.1,
      "averageSpeedMph": 13.9,
      "safetyEvents": []
    },
    {
      "id": "trip_43088084_20250221_003",
      "vehicleId": "43088084",
      "driverId": "20000034",
      "startMs": 1740158160000,
      "endMs": 1740169127275,
      "startAddress": "259 Williams Gardens",
      "endAddress": "13249 Buchanan Mission",
      "startCoords": {
        "latitude": 40.745378,
        "longitude": -111.793399
      },
      "endCoords": {
        "latitude": 40.68415,
        "longitude": -111.85708
      },
      "distanceMeters": 64843.6,
      "durationMs": 10967275,
      "drivingDurationMs": 10344295,
      "idlingDurationMs": 622980,
      "fuelConsumedMl": 8245,
      "fuelConsumedGallons": 2.178,
      "maxSpeedMph": 34.3,
      "averageSpeedMph": 13.2,
      "safetyEvents": []
    },
    {
      "id": "trip_43088084_20250222_001",
      "vehicleId": "43088084",
      "driverId": "20000036",
      "startMs": 1740249600000,
      "endMs": 1740255483562,
      "startAddress": "3222 Miller Skyway",
      "endAddress": "543 Rogers Oval",
      "startCoords": {
        "latitude": 40.659917,
        "longitude": -111.92764
      },
      "endCoords": {
        "latitude": 40.679978,
        "longitude": -111.862438
      },
      "distanceMeters": 42707.5,
      "durationMs": 5883563,
      "drivingDurationMs": 4934613,
      "idlingDurationMs": 948950,
      "fuelConsumedMl": 5428,
      "fuelConsumedGallons": 1.434,
      "maxSpeedMph": 44.8,
      "averageSpeedMph": 16.2,
      "safetyEvents": []
    },
    {
      "id": "trip_43088084_20250223_001",
      "vehicleId": "43088084",
      "driverId": "20000033",
      "startMs": 1740312420000,
      "endMs": 1740320840583,
      "startAddress": "73809 Kenneth Centers",
      "endAddress": "8887 Christian Views Apt. 451",
      "startCoords": {
        "latitude": 40.714583,
        "longitude": -111.868731
      },
      "endCoords": {
        "latitude": 40.681933,
        "longitude": -111.78736
      },
      "distanceMeters": 68670.7,
      "durationMs": 8420583,
      "drivingDurationMs": 7766868,
      "idlingDurationMs": 653716,
      "fuelConsumedMl": 8729,
      "fuelConsumedGallons": 2.306,
      "maxSpeedMph": 61.2,
      "averageSpeedMph": 18.2,
      "safetyEvents": []
    },
    {
      "id": "trip_43088084_20250223_002",
      "vehicleId": "43088084",
      "driverId": "20000033",
      "startMs": 1740310140000,
      "endMs": 1740316663063,
      "startAddress": "59380 Kevin Gardens",
      "endAddress": "0430 Bryant Tunnel",
      "startCoords": {
        "latitude": 40.730316,
        "longitude": -111.834694
      },
      "endCoords": {
        "latitude": 40.681751,
        "longitude": -111.897723
      },
      "distanceMeters": 47506.6,
      "durationMs": 6523064,
      "drivingDurationMs": 5741328,
      "idlingDurationMs": 781736,
      "fuelConsumedMl": 6042,
      "fuelConsumedGallons": 1.596,
      "maxSpeedMph": 42.4,
      "averageSpeedMph": 16.3,
      "safetyEvents": []
    },
    {
      "id": "trip_43088084_20250224_001",
      "vehicleId": "43088084",
      "driverId": "20000035",
      "startMs": 1740411420000,
      "endMs": 1740417842050,
      "startAddress": "195 Atkins Creek",
      "endAddress": "14706 Frank Camp Suite 468",
      "startCoords": {
        "latitude": 40.711387,
        "longitude": -111.781642
      },
      "endCoords": {
        "latitude": 40.771883,
        "longitude": -111.91571
      },
      "distanceMeters": 41240.7,
      "durationMs": 6422051,
      "drivingDurationMs": 5201610,
      "idlingDurationMs": 1220441,
      "fuelConsumedMl": 5243,
      "fuelConsumedGallons": 1.385,
      "maxSpeedMph": 67.1,
      "averageSpeedMph": 14.4,
      "safetyEvents": [
        {
          "type": "speeding",
          "startMs": 1740414720000,
          "maxSpeedMph": 67.1
        }
      ]
    },
    {
      "id": "trip_43088084_20250224_002",
      "vehicleId": "43088084",
      "driverId": "20000035",
      "startMs": 1740392700000,
      "endMs": 1740410030573,
      "startAddress": "092 Daniel Bypass Apt. 607",
      "endAddress": "0612 Moore Walks Suite 053",
      "startCoords": {
        "latitude": 40.759457,
        "longitude": -111.874858
      },
      "endCoords": {
        "latitude": 40.722357,
        "longitude": -111.917259
      },
      "distanceMeters": 72150.5,
      "durationMs": 17330574,
      "drivingDurationMs": 14071286,
      "idlingDurationMs": 3259287,
      "fuelConsumedMl": 9172,
      "fuelConsumedGallons": 2.423,
      "maxSpeedMph": 62.9,
      "averageSpeedMph": 9.3,
      "safetyEvents": []
    },
    {
      "id": "trip_43088084_20250224_003",
      "vehicleId": "43088084",
      "driverId": "20000035",
      "startMs": 1740396360000,
      "endMs": 1740405226463,
      "startAddress": "53325 Smith Corner Apt. 289",
      "endAddress": "363 Deborah Loop",
      "startCoords": {
        "latitude": 40.74727,
        "longitude": -111.846435
      },
      "endCoords": {
        "latitude": 40.743985,
        "longitude": -111.867543
      },
      "distanceMeters": 66965.0,
      "durationMs": 8866464,
      "drivingDurationMs": 7708966,
      "idlingDurationMs": 1157497,
      "fuelConsumedMl": 8513,
      "fuelConsumedGallons": 2.249,
      "maxSpeedMph": 56.3,
      "averageSpeedMph": 16.9,
      "safetyEvents": []
    },
    {
      "id": "trip_43088084_20250224_004",
      "vehicleId": "43088084",
      "driverId": "20000035",
      "startMs": 1740407160000,
      "endMs": 1740408783175,
      "startAddress": "8577 Michael Mountain Suite 955",
      "endAddress": "66103 Montoya Overpass Apt. 184",
      "startCoords": {
        "latitude": 40.71894,
        "longitude": -111.816464
      },
      "endCoords": {
        "latitude": 40.796431,
        "longitude": -111.792666
      },
      "distanceMeters": 9499.0,
      "durationMs": 1623176,
      "drivingDurationMs": 1314361,
      "idlingDurationMs": 308815,
      "fuelConsumedMl": 1208,
      "fuelConsumedGallons": 0.319,
      "maxSpeedMph": 47.5,
      "averageSpeedMph": 13.1,
      "safetyEvents": []
    },
    {
      "id": "trip_43088084_20250225_001",
      "vehicleId": "43088084",
      "driverId": "20000039",
      "startMs": 1740465180000,
      "endMs": 1740469438307,
      "startAddress": "831 Denise Row",
      "endAddress": "5897 Ashley Street",
      "startCoords": {
        "latitude": 40.7501,
        "longitude": -111.842792
      },
      "endCoords": {
        "latitude": 40.694093,
        "longitude": -111.780953
      },
      "distanceMeters": 34894.4,
      "durationMs": 4258308,
      "drivingDurationMs": 3953094,
      "idlingDurationMs": 305213,
      "fuelConsumedMl": 4437,
      "fuelConsumedGallons": 1.172,
      "maxSpeedMph": 33.6,
      "averageSpeedMph": 18.3,
      "safetyEvents": []
    },
    {
      "id": "trip_43088084_20250225_002",
      "vehicleId": "43088084",
      "driverId": "20000039",
      "startMs": 1740465780000,
      "endMs": 1740477849383,
      "startAddress": "545 Elizabeth Hills Suite 884",
      "endAddress": "035 Rojas Shores",
      "startCoords": {
        "latitude": 40.730586,
        "longitude": -111.824258
      },
      "endCoords": {
        "latitude": 40.711398,
        "longitude": -111.798128
      },
      "distanceMeters": 54903.0,
      "durationMs": 12069384,
      "drivingDurationMs": 10875781,
      "idlingDurationMs": 1193603,
      "fuelConsumedMl": 6980,
      "fuelConsumedGallons": 1.844,
      "maxSpeedMph": 69.5,
      "averageSpeedMph": 10.2,
      "safetyEvents": [
        {
          "type": "speeding",
          "startMs": 1740475140000,
          "maxSpeedMph": 69.5
        }
      ]
    },
    {
      "id": "trip_43088084_20250225_003",
      "vehicleId": "43088084",
      "driverId": null,
      "startMs": 1740478500000,
      "endMs": 1740480417499,
      "startAddress": "09837 Dominguez Lake Suite 486",
      "endAddress": "052 Kathryn Centers Apt. 329",
      "startCoords": {
        "latitude": 40.733641,
        "longitude": -111.855766
      },
      "endCoords": {
        "latitude": 40.792094,
        "longitude": -111.870916
      },
      "distanceMeters": 10279.6,
      "durationMs": 1917499,
      "drivingDurationMs": 1581336,
      "idlingDurationMs": 336163,
      "fuelConsumedMl": 1306,
      "fuelConsumedGallons": 0.345,
      "maxSpeedMph": 71.6,
      "averageSpeedMph": 12.0,
      "safetyEvents": [
        {
          "type": "speeding",
          "startMs": 1740479040000,
          "maxSpeedMph": 71.6
        }
      ]
    },
    {
      "id": "trip_43088084_20250225_004",
      "vehicleId": "43088084",
      "driverId": "20000039",
      "startMs": 1740507540000,
      "endMs": 1740513734161,
      "startAddress": "832 Adams Walks",
      "endAddress": "720 Brandon Roads Suite 780",
      "startCoords": {
        "latitude": 40.775903,
        "longitude": -111.959746
      },
      "endCoords": {
        "latitude": 40.656811,
        "longitude": -111.846049
      },
      "distanceMeters": 41817.2,
      "durationMs": 6194162,
      "drivingDurationMs": 5532189,
      "idlingDurationMs": 661973,
      "fuelConsumedMl": 5319,
      "fuelConsumedGallons": 1.405,
      "maxSpeedMph": 67.5,
      "averageSpeedMph": 15.1,
      "safetyEvents": [
        {
          "type": "speeding",
          "startMs": 1740511440000,
          "maxSpeedMph": 67.5
        }
      ]
    },
    {
      "id": "trip_43088084_20250225_005",
      "vehicleId": "43088084",
      "driverId": "20000039",
      "startMs": 1740493200000,
      "endMs": 1740505045387,
      "startAddress": "4405 Gregory Wells Apt. 288",
      "endAddress": "474 David Forge Suite 871",
      "startCoords": {
        "latitude": 40.714222,
        "longitude": -111.884994
      },
      "endCoords": {
        "latitude": 40.657774,
        "longitude": -111.924427
      },
      "distanceMeters": 82457.9,
      "durationMs": 11845387,
      "drivingDurationMs": 11401145,
      "idlingDurationMs": 444242,
      "fuelConsumedMl": 10486,
      "fuelConsumedGallons": 2.77,
      "maxSpeedMph": 66.4,
      "averageSpeedMph": 15.6,
      "safetyEvents": [
        {
          "type": "speeding",
          "startMs": 1740496200000,
          "maxSpeedMph": 66.4
        }
      ]
    },
    {
      "id": "trip_43088084_20250226_001",
      "vehicleId": "43088084",
      "driverId": "20000036",
      "startMs": 1740550260000,
      "endMs": 1740563071679,
      "startAddress": "900 Cynthia Drive Apt. 106",
      "endAddress": "1128 Murray Cliffs",
      "startCoords": {
        "latitude": 40.722473,
        "longitude": -111.903036
      },
      "endCoords": {
        "latitude": 40.67086,
        "longitude": -111.799698
      },
      "distanceMeters": 63407.1,
      "durationMs": 12811680,
      "drivingDurationMs": 10980101,
      "idlingDurationMs": 1831578,
      "fuelConsumedMl": 8063,
      "fuelConsumedGallons": 2.13,
      "maxSpeedMph": 69.7,
      "averageSpeedMph": 11.1,
      "safetyEvents": [
        {
          "type": "speeding",
          "startMs": 1740559260000,
          "maxSpeedMph": 69.7
        }
      ]
    },
    {
      "id": "trip_43088084_20250226_002",
      "vehicleId": "43088084",
      "driverId": "20000036",
      "startMs": 1740571980000,
      "endMs": 1740579387652,
      "startAddress": "86867 Melissa Skyway Suite 829",
      "endAddress": "234 Harrison Garden Apt. 830",
      "startCoords": {
        "latitude": 40.734884,
        "longitude": -111.880588
      },
      "endCoords": {
        "latitude": 40.663044,
        "longitude": -111.879275
      },
      "distanceMeters": 57687.8,
      "durationMs": 7407653,
      "drivingDurationMs": 6544314,
      "idlingDurationMs": 863339,
      "fuelConsumedMl": 7336,
      "fuelConsumedGallons": 1.938,
      "maxSpeedMph": 62.4,
      "averageSpeedMph": 17.4,
      "safetyEvents": []
    },
    {
      "id": "trip_43088084_20250226_003",
      "vehicleId": "43088084",
      "driverId": "20000036",
      "startMs": 1740571980000,
      "endMs": 1740577609442,
      "startAddress": "5297 Angela Mountains",
      "endAddress": "193 Lindsay Spur Suite 370",
      "startCoords": {
        "latitude": 40.790298,
        "longitude": -111.78941
      },
      "endCoords": {
        "latitude": 40.692526,
        "longitude": -111.842604
      },
      "distanceMeters": 38542.2,
      "durationMs": 5629442,
      "drivingDurationMs": 5165348,
      "idlingDurationMs": 464095,
      "fuelConsumedMl": 4902,
      "fuelConsumedGallons": 1.295,
      "maxSpeedMph": 48.2,
      "averageSpeedMph": 15.3,
      "safetyEvents": []
    },
    {
      "id": "trip_43088084_20250226_004",
      "vehicleId": "43088084",
      "driverId": "20000036",
      "startMs": 1740552000000,
      "endMs": 1740561113197,
      "startAddress": "3684 Ronnie Court",
      "endAddress": "949 Smith Shoals",
      "startCoords": {
        "latitude": 40.670067,
        "longitude": -111.897314
      },
      "endCoords": {
        "latitude": 40.705878,
        "longitude": -111.920146
      },
      "distanceMeters": 47511.1,
      "durationMs": 9113198,
      "drivingDurationMs": 8432767,
      "idlingDurationMs": 680431,
      "fuelConsumedMl": 6042,
      "fuelConsumedGallons": 1.596,
      "maxSpeedMph": 46.1,
      "averageSpeedMph": 11.7,
      "safetyEvents": []
    },
    {
      "id": "trip_43088084_20250226_005",
      "vehicleId": "43088084",
      "driverId": "20000036",
      "startMs": 1740579540000,
      "endMs": 1740593645664,
      "startAddress": "9242 Jill Club",
      "endAddress": "755 Moore Harbors Suite 246",
      "startCoords": {
        "latitude": 40.737013,
        "longitude": -111.824753
      },
      "endCoords": {
        "latitude": 40.669053,
        "longitude": -111.839606
      },
      "distanceMeters": 79688.4,
      "durationMs": 14105664,
      "drivingDurationMs": 12970950,
      "idlingDurationMs": 1134714,
      "fuelConsumedMl": 10134,
      "fuelConsumedGallons": 2.677,
      "maxSpeedMph": 32.9,
      "averageSpeedMph": 12.6,
      "safetyEvents": []
    },
    {
      "id": "trip_43088084_20250226_006",
      "vehicleId": "43088084",
      "driverId": "20000036",
      "startMs": 1740575820000,
      "endMs": 1740577688465,
      "startAddress": "142 Thomas Plaza",
      "endAddress": "029 Huff Fort",
      "startCoords": {
        "latitude": 40.722018,
        "longitude": -111.819378
      },
      "endCoords": {
        "latitude": 40.786945,
        "longitude": -111.860194
      },
      "distanceMeters": 12828.6,
      "durationMs": 1868465,
      "drivingDurationMs": 1511605,
      "idlingDurationMs": 356860,
      "fuelConsumedMl": 1632,
      "fuelConsumedGallons": 0.431,
      "maxSpeedMph": 35.9,
      "averageSpeedMph": 15.4,
      "safetyEvents": []
    },
    {
      "id": "trip_43088084_20250227_001",
      "vehicleId": "43088084",
      "driverId": "20000037",
      "startMs": 1740643680000,
      "endMs": 1740645345848,
      "startAddress": "260 Lori Mount Apt. 226",
      "endAddress": "084 James Stream",
      "startCoords": {
        "latitude": 40.784541,
        "longitude": -111.783434
      },
      "endCoords": {
        "latitude": 40.677833,
        "longitude": -111.901605
      },
      "distanceMeters": 10036.2,
      "durationMs": 1665848,
      "drivingDurationMs": 1346262,
      "idlingDurationMs": 319586,
      "fuelConsumedMl": 1276,
      "fuelConsumedGallons": 0.337,
      "maxSpeedMph": 50.0,
      "averageSpeedMph": 13.5,
      "safetyEvents": []
    },
    {
      "id": "trip_43088084_20250227_002",
      "vehicleId": "43088084",
      "driverId": "20000037",
      "startMs": 1740647400000,
      "endMs": 1740652840135,
      "startAddress": "32064 Jeffery Field",
      "endAddress": "9149 Todd Green",
      "startCoords": {
        "latitude": 40.766416,
        "longitude": -111.862618
      },
      "endCoords": {
        "latitude": 40.77677,
        "longitude": -111.883071
      },
      "distanceMeters": 30019.4,
      "durationMs": 5440136,
      "drivingDurationMs": 4359075,
      "idlingDurationMs": 1081061,
      "fuelConsumedMl": 3816,
      "fuelConsumedGallons": 1.008,
      "maxSpeedMph": 49.5,
      "averageSpeedMph": 12.3,
      "safetyEvents": []
    },
    {
      "id": "trip_43088084_20250227_003",
      "vehicleId": "43088084",
      "driverId": "20000037",
      "startMs": 1740681480000,
      "endMs": 1740690000000,
      "startAddress": "6816 Rebecca Ports Apt. 647",
      "endAddress": "0657 Ralph Harbor",
      "startCoords": {
        "latitude": 40.733562,
        "longitude": -111.934446
      },
      "endCoords": {
        "latitude": 40.732692,
        "longitude": -111.799903
      },
      "distanceMeters": 53496.8,
      "durationMs": 8520000,
      "drivingDurationMs": 6980830,
      "idlingDurationMs": 1539170,
      "fuelConsumedMl": 6802,
      "fuelConsumedGallons": 1.797,
      "maxSpeedMph": 68.7,
      "averageSpeedMph": 14.0,
      "safetyEvents": [
        {
          "type": "speeding",
          "startMs": 1740682260000,
          "maxSpeedMph": 68.7
        }
      ]
    },
    {
      "id": "trip_43088084_20250227_004",
      "vehicleId": "43088084",
      "driverId": "20000037",
      "startMs": 1740644460000,
      "endMs": 1740649376157,
      "startAddress": "2705 Whitaker Springs Suite 398",
      "endAddress": "96261 Morgan Mews",
      "startCoords": {
        "latitude": 40.797669,
        "longitude": -111.783781
      },
      "endCoords": {
        "latitude": 40.75348,
        "longitude": -111.805227
      },
      "distanceMeters": 38130.7,
      "durationMs": 4916157,
      "drivingDurationMs": 4612765,
      "idlingDurationMs": 303392,
      "fuelConsumedMl": 4849,
      "fuelConsumedGallons": 1.281,
      "maxSpeedMph": 59.6,
      "averageSpeedMph": 17.4,
      "safetyEvents": []
    },
    {
      "id": "trip_43088084_20250227_005",
      "vehicleId": "43088084",
      "driverId": "20000037",
      "startMs": 1740680400000,
      "endMs": 1740686343242,
      "startAddress": "79068 Hebert Well",
      "endAddress": "831 Thomas Falls",
      "startCoords": {
        "latitude": 40.790295,
        "longitude": -111.781232
      },
      "endCoords": {
        "latitude": 40.693674,
        "longitude": -111.886309
      },
      "distanceMeters": 46930.6,
      "durationMs": 5943242,
      "drivingDurationMs": 5423528,
      "idlingDurationMs": 519714,
      "fuelConsumedMl": 5966,
      "fuelConsumedGallons": 1.576,
      "maxSpeedMph": 64.7,
      "averageSpeedMph": 17.7,
      "safetyEvents": []
    },
    {
      "id": "trip_43088084_20250227_006",
      "vehicleId": "43088084",
      "driverId": "20000037",
      "startMs": 1740666240000,
      "endMs": 1740671024560,
      "startAddress": "58317 Johnson Lock",
      "endAddress": "177 Garrett Streets Apt. 564",
      "startCoords": {
        "latitude": 40.68215,
        "longitude": -111.835553
      },
      "endCoords": {
        "latitude": 40.69346,
        "longitude": -111.849151
      },
      "distanceMeters": 24726.9,
      "durationMs": 4784561,
      "drivingDurationMs": 3994011,
      "idlingDurationMs": 790550,
      "fuelConsumedMl": 3146,
      "fuelConsumedGallons": 0.831,
      "maxSpeedMph": 49.6,
      "averageSpeedMph": 11.6,
      "safetyEvents": []
    },
    {
      "id": "trip_43088084_20250228_001",
      "vehicleId": "43088084",
      "driverId": "20000034",
      "startMs": 1740757560000,
      "endMs": 1740759959668,
      "startAddress": "980 Ryan Mews Apt. 930",
      "endAddress": "70098 Thomas Causeway Suite 160",
      "startCoords": {
        "latitude": 40.769841,
        "longitude": -111.860245
      },
      "endCoords": {
        "latitude": 40.675697,
        "longitude": -111.780181
      },
      "distanceMeters": 14249.7,
      "durationMs": 2399669,
      "drivingDurationMs": 1946954,
      "idlingDurationMs": 452715,
      "fuelConsumedMl": 1813,
      "fuelConsumedGallons": 0.479,
      "maxSpeedMph": 54.4,
      "averageSpeedMph": 13.3,
      "safetyEvents": []
    },
    {
      "id": "trip_43088084_20250228_002",
      "vehicleId": "43088084",
      "driverId": "20000034",
      "startMs": 1740740640000,
      "endMs": 1740750672373,
      "startAddress": "62005 Vasquez Roads Suite 115",
      "endAddress": "2824 Pamela Knoll Apt. 979",
      "startCoords": {
        "latitude": 40.715371,
        "longitude": -111.871968
      },
      "endCoords": {
        "latitude": 40.720701,
        "longitude": -111.917774
      },
      "distanceMeters": 69432.5,
      "durationMs": 10032373,
      "drivingDurationMs": 8534441,
      "idlingDurationMs": 1497932,
      "fuelConsumedMl": 8828,
      "fuelConsumedGallons": 2.332,
      "maxSpeedMph": 29.8,
      "averageSpeedMph": 15.5,
      "safetyEvents": []
    }
  ]
}