{
  "vehicleId": "48291004",
  "vehicleName": "DEN-CAR-05",
  "month": "2025_02",
  "pagination": {
    "endCursor": "trip_48291004_20250228_002",
    "hasNextPage": false
  },
  "trips": [
    {
      "id": "trip_48291004_20250201_001",
      "vehicleId": "48291004",
      "driverId": "22831003",
      "startMs": 1738408140000,
      "endMs": 1738416714314,
      "startLocation": {
        "latitude": 39.793324,
        "longitude": -105.025799
      },
      "endLocation": {
        "latitude": 39.696797,
        "longitude": -105.001644
      },
      "startAddress": "647 Hardy Lodge Apt. 417",
      "endAddress": "91587 Stacy Wells",
      "startCoords": {
        "latitude": 39.808368,
        "longitude": -104.926513
      },
      "endCoords": {
        "latitude": 39.747314,
        "longitude": -105.001553
      },
      "distanceMeters": 59429.1,
      "durationMs": 8574314,
      "drivingDurationMs": 7271052,
      "idlingDurationMs": 1303262,
      "fuelConsumedMl": 7556,
      "fuelConsumedGallons": 1.996,
      "maxSpeedMph": 28.5,
      "averageSpeedMph": 15.5,
      "safetyEvents": [],
      "_no_driver_login": false,
      "_fuel_note": "QUIRK 5: fuelConsumedGallons is in US gallons. Multiply by 3.785 for litres. Samsara does not link fuel to specific Onfleet tasks."
    },
    {
      "id": "trip_48291004_20250201_002",
      "vehicleId": "48291004",
      "driverId": "22831003",
      "startMs": 1738425840000,
      "endMs": 1738431592844,
      "startLocation": {
        "latitude": 39.717166,
        "longitude": -105.014108
      },
      "endLocation": {
        "latitude": 39.801621,
        "longitude": -104.986263
      },
      "startAddress": "86872 King Rapid",
      "endAddress": "97436 Sharon Tunnel Apt. 213",
      "startCoords": {
        "latitude": 39.812698,
        "longitude": -104.95365
      },
      "endCoords": {
        "latitude": 39.796203,
        "longitude": -104.972182
      },
      "distanceMeters": 33821.5,
      "durationMs": 5752845,
      "drivingDurationMs": 5000345,
      "idlingDurationMs": 752500,
      "fuelConsumedMl": 4300,
      "fuelConsumedGallons": 1.136,
      "maxSpeedMph": 47.5,
      "averageSpeedMph": 13.2,
      "safetyEvents": [],
      "_no_driver_login": false,
      "_fuel_note": ""
    },
    {
      "id": "trip_48291004_20250202_001",
      "vehicleId": "48291004",
      "driverId": "22831003",
      "startMs": 1738490760000,
      "endMs": 1738505042866,
      "startLocation": {
        "latitude": 39.750611,
        "longitude": -104.983456
      },
      "endLocation": {
        "latitude": 39.785256,
        "longitude": -104.948692
      },
      "startAddress": "821 Briggs Drive Suite 492",
      "endAddress": "714 Nichole Isle Apt. 445",
      "startCoords": {
        "latitude": 39.724549,
        "longitude": -104.937804
      },
      "endCoords": {
        "latitude": 39.715311,
        "longitude": -105.026147
      },
      "distanceMeters": 78463.1,
      "durationMs": 14282866,
      "drivingDurationMs": 12889507,
      "idlingDurationMs": 1393359,
      "fuelConsumedMl": 9975,
      "fuelConsumedGallons": 2.635,
      "maxSpeedMph": 37.7,
      "averageSpeedMph": 12.3,
      "safetyEvents": [],
      "_no_driver_login": false,
      "_fuel_note": "QUIRK 5: fuelConsumedGallons is in US gallons. Multiply by 3.785 for litres. Samsara does not link fuel to specific Onfleet tasks."
    },
    {
      "id": "trip_48291004_20250202_002",
      "vehicleId": "48291004",
      "driverId": "22831003",
      "startMs": 1738499940000,
      "endMs": 1738508901317,
      "startLocation": {
        "latitude": 39.733962,
        "longitude": -104.906985
      },
      "endLocation": {
        "latitude": 39.723032,
        "longitude": -104.975704
      },
      "startAddress": "7394 Patricia Summit Suite 703",
      "endAddress": "72710 Rivers Ranch",
      "startCoords": {
        "latitude": 39.79511,
        "longitude": -104.981347
      },
      "endCoords": {
        "latitude": 39.756384,
        "longitude": -105.009099
      },
      "distanceMeters": 57903.9,
      "durationMs": 8961317,
      "drivingDurationMs": 8091464,
      "idlingDurationMs": 869853,
      "fuelConsumedMl": 7363,
      "fuelConsumedGallons": 1.945,
      "maxSpeedMph": 59.5,
      "averageSpeedMph": 14.5,
      "safetyEvents": [],
      "_no_driver_login": false,
      "_fuel_note": ""
    },
    {
      "id": "trip_48291004_20250202_003",
      "vehicleId": "48291004",
      "driverId": "22831003",
      "startMs": 1738478880000,
      "endMs": 1738488936607,
      "startLocation": {
        "latitude": 39.687288,
        "longitude": -104.931988
      },
      "endLocation": {
        "latitude": 39.742665,
        "longitude": -105.035783
      },
      "startAddress": "78712 Boyd Bridge Apt. 007",
      "endAddress": "5667 Hicks Terrace",
      "startCoords": {
        "latitude": 39.70345,
        "longitude": -105.043543
      },
      "endCoords": {
        "latitude": 39.787628,
        "longitude": -105.085898
      },
      "distanceMeters": 71852.3,
      "durationMs": 10056607,
      "drivingDurationMs": 9054128,
      "idlingDurationMs": 1002479,
      "fuelConsumedMl": 9134,
      "fuelConsumedGallons": 2.413,
      "maxSpeedMph": 46.7,
      "averageSpeedMph": 16.0,
      "safetyEvents": [],
      "_no_driver_login": false,
      "_fuel_note": ""
    },
    {
      "id": "trip_48291004_20250203_001",
      "vehicleId": "48291004",
      "driverId": "22831003",
      "startMs": 1738566300000,
      "endMs": 1738573994544,
      "startLocation": {
        "latitude": 39.725743,
        "longitude": -105.052788
      },
      "endLocation": {
        "latitude": 39.694353,
        "longitude": -104.97438
      },
      "startAddress": "0670 Smith Lights Suite 273",
      "endAddress": "2090 Lloyd Club Apt. 679",
      "startCoords": {
        "latitude": 39.725321,
        "longitude": -105.069251
      },
      "endCoords": {
        "latitude": 39.809701,
        "longitude": -105.087517
      },
      "distanceMeters": 38549.3,
      "durationMs": 7694544,
      "drivingDurationMs": 7128736,
      "idlingDurationMs": 565809,
      "fuelConsumedMl": 4902,
      "fuelConsumedGallons": 1.295,
      "maxSpeedMph": 40.1,
      "averageSpeedMph": 11.2,
      "safetyEvents": [],
      "_no_driver_login": false,
      "_fuel_note": "QUIRK 5: fuelConsumedGallons is in US gallons. Multiply by 3.785 for litres. Samsara does not link fuel to specific Onfleet tasks."
    },
    {
      "id": "trip_48291004_20250203_002",
      "vehicleId": "48291004",
      "driverId": "22831003",
      "startMs": 1738596480000,
      "endMs": 1738597661451,
      "startLocation": {
        "latitude": 39.689419,
        "longitude": -105.058312
      },
      "endLocation": {
        "latitude": 39.796118,
        "longitude": -105.034158
      },
      "startAddress": "4053 Chelsey Camp Suite 794",
      "endAddress": "368 Juan Row Apt. 431",
      "startCoords": {
        "latitude": 39.709454,
        "longitude": -105.080069
      },
      "endCoords": {
        "latitude": 39.822955,
        "longitude": -105.011914
      },
      "distanceMeters": 8685.1,
      "durationMs": 1181451,
      "drivingDurationMs": 994062,
      "idlingDurationMs": 187389,
      "fuelConsumedMl": 1105,
      "fuelConsumedGallons": 0.292,
      "maxSpeedMph": 60.8,
      "averageSpeedMph": 16.4,
      "safetyEvents": [],
      "_no_driver_login": false,
      "_fuel_note": ""
    },
    {
      "id": "trip_48291004_20250203_003",
      "vehicleId": "48291004",
      "driverId": "22831003",
      "startMs": 1738592040000,
      "endMs": 1738605780567,
      "startLocation": {
        "latitude": 39.764463,
        "longitude": -104.92755
      },
      "endLocation": {
        "latitude": 39.764636,
        "longitude": -104.951592
      },
      "startAddress": "13092 Jordan Walks",
      "endAddress": "317 Scott Point Suite 073",
      "startCoords": {
        "latitude": 39.770836,
        "longitude": -105.044165
      },
      "endCoords": {
        "latitude": 39.762195,
        "longitude": -105.039399
      },
      "distanceMeters": 71412.2,
      "durationMs": 13740568,
      "drivingDurationMs": 12108862,
      "idlingDurationMs": 1631705,
      "fuelConsumedMl": 9081,
      "fuelConsumedGallons": 2.399,
      "maxSpeedMph": 46.2,
      "averageSpeedMph": 11.6,
      "safetyEvents": [],
      "_no_driver_login": false,
      "_fuel_note": ""
    },
    {
      "id": "trip_48291004_20250203_004",
      "vehicleId": "48291004",
      "driverId": "22831003",
      "startMs": 1738565520000,
      "endMs": 1738567221317,
      "startLocation": {
        "latitude": 39.771154,
        "longitude": -104.90576
      },
      "endLocation": {
        "latitude": 39.781679,
        "longitude": -105.05564
      },
      "startAddress": "16395 Daniel Parkway",
      "endAddress": "84833 Vernon Ford Apt. 783",
      "startCoords": {
        "latitude": 39.805639,
        "longitude": -105.039096
      },
      "endCoords": {
        "latitude": 39.698806,
        "longitude": -104.97676
      },
      "distanceMeters": 9396.1,
      "durationMs": 1701318,
      "drivingDurationMs": 1381644,
      "idlingDurationMs": 319673,
      "fuelConsumedMl": 1196,
      "fuelConsumedGallons": 0.316,
      "maxSpeedMph": 46.2,
      "averageSpeedMph": 12.4,
      "safetyEvents": [],
      "_no_driver_login": false,
      "_fuel_note": ""
    },
    {
      "id": "trip_48291004_20250203_005",
      "vehicleId": "48291004",
      "driverId": "22831003",
      "startMs": 1738566180000,
      "endMs": 1738573980687,
      "startLocation": {
        "latitude": 39.697747,
        "longitude": -105.045447
      },
      "endLocation": {
        "latitude": 39.806132,
        "longitude": -104.908532
      },
      "startAddress": "66533 Price Mountains",
      "endAddress": "43839 Stephanie Center",
      "startCoords": {
        "latitude": 39.732188,
        "longitude": -104.946906
      },
      "endCoords": {
        "latitude": 39.726757,
        "longitude": -104.967141
      },
      "distanceMeters": 56040.2,
      "durationMs": 7800687,
      "drivingDurationMs": 7327807,
      "idlingDurationMs": 472880,
      "fuelConsumedMl": 7124,
      "fuelConsumedGallons": 1.882,
      "maxSpeedMph": 65.6,
      "averageSpeedMph": 16.1,
      "safetyEvents": [
        {
          "type": "speeding",
          "startMs": 1738566420000,
          "maxSpeedMph": 65.6
        }
      ],
      "_no_driver_login": false,
      "_fuel_note": ""
    },
    {
      "id": "trip_48291004_20250203_006",
      "vehicleId": "48291004",
      "driverId": "22831003",
      "startMs": 1738581780000,
      "endMs": 1738588438473,
      "startLocation": {
        "latitude": 39.717433,
        "longitude": -105.079525
      },
      "endLocation": {
        "latitude": 39.818855,
        "longitude": -104.902603
      },
      "startAddress": "16091 Reed Via",
      "endAddress": "99654 Clifford Mission",
      "startCoords": {
        "latitude": 39.691491,
        "longitude": -104.95875
      },
      "endCoords": {
        "latitude": 39.705216,
        "longitude": -105.002558
      },
      "distanceMeters": 48333.3,
      "durationMs": 6658473,
      "drivingDurationMs": 5726761,
      "idlingDurationMs": 931713,
      "fuelConsumedMl": 6144,
      "fuelConsumedGallons": 1.623,
      "maxSpeedMph": 32.8,
      "averageSpeedMph": 16.2,
      "safetyEvents": [],
      "_no_driver_login": false,
      "_fuel_note": ""
    },
    {
      "id": "trip_48291004_20250204_001",
      "vehicleId": "48291004",
      "driverId": "22831003",
      "startMs": 1738693680000,
      "endMs": 1738702800000,
      "startLocation": {
        "latitude": 39.786051,
        "longitude": -104.966853
      },
      "endLocation": {
        "latitude": 39.79238,
        "longitude": -105.028664
      },
      "startAddress": "0150 Morgan Ridges",
      "endAddress": "737 Mullins Avenue Suite 735",
      "startCoords": {
        "latitude": 39.808169,
        "longitude": -104.961097
      },
      "endCoords": {
        "latitude": 39.820718,
        "longitude": -104.999786
      },
      "distanceMeters": 55345.9,
      "durationMs": 9120000,
      "drivingDurationMs": 8726298,
      "idlingDurationMs": 393702,
      "fuelConsumedMl": 7037,
      "fuelConsumedGallons": 1.859,
      "maxSpeedMph": 37.7,
      "averageSpeedMph": 13.6,
      "safetyEvents": [],
      "_no_driver_login": false,
      "_fuel_note": "QUIRK 5: fuelConsumedGallons is in US gallons. Multiply by 3.785 for litres. Samsara does not link fuel to specific Onfleet tasks."
    },
    {
      "id": "trip_48291004_20250204_002",
      "vehicleId": "48291004",
      "driverId": "22831003",
      "startMs": 1738679700000,
      "endMs": 1738686017105,
      "startLocation": {
        "latitude": 39.709233,
        "longitude": -105.065024
      },
      "endLocation": {
        "latitude": 39.758103,
        "longitude": -105.064876
      },
      "startAddress": "76128 Hall Circles",
      "endAddress": "140 Gomez Passage Suite 296",
      "startCoords": {
        "latitude": 39.724029,
        "longitude": -104.965061
      },
      "endCoords": {
        "latitude": 39.781967,
        "longitude": -104.904552
      },
      "distanceMeters": 49030.8,
      "durationMs": 6317105,
      "drivingDurationMs": 5816536,
      "idlingDurationMs": 500569,
      "fuelConsumedMl": 6235,
      "fuelConsumedGallons": 1.647,
      "maxSpeedMph": 39.3,
      "averageSpeedMph": 17.4,
      "safetyEvents": [],
      "_no_driver_login": false,
      "_fuel_note": ""
    },
    {
      "id": "trip_48291004_20250204_003",
      "vehicleId": "48291004",
      "driverId": "22831003",
      "startMs": 1738655520000,
      "endMs": 1738663852922,
      "startLocation": {
        "latitude": 39.734201,
        "longitude": -104.90594
      },
      "endLocation": {
        "latitude": 39.743583,
        "longitude": -104.98869
      },
      "startAddress": "355 Wood Gateway",
      "endAddress": "3969 Crawford Village Apt. 264",
      "startCoords": {
        "latitude": 39.709022,
        "longitude": -104.933556
      },
      "endCoords": {
        "latitude": 39.75297,
        "longitude": -105.037333
      },
      "distanceMeters": 54799.5,
      "durationMs": 8332923,
      "drivingDurationMs": 7083505,
      "idlingDurationMs": 1249417,
      "fuelConsumedMl": 6969,
      "fuelConsumedGallons": 1.841,
      "maxSpeedMph": 60.1,
      "averageSpeedMph": 14.7,
      "safetyEvents": [],
      "_no_driver_login": false,
      "_fuel_note": ""
    },
    {
      "id": "trip_48291004_20250204_004",
      "vehicleId": "48291004",
      "driverId": "22831003",
      "startMs": 1738669620000,
      "endMs": 1738682003173,
      "startLocation": {
        "latitude": 39.808667,
        "longitude": -104.990301
      },
      "endLocation": {
        "latitude": 39.805079,
        "longitude": -105.024867
      },
      "startAddress": "183 Combs Mill",
      "endAddress": "25394 Spencer Stream",
      "startCoords": {
        "latitude": 39.750448,
        "longitude": -104.953585
      },
      "endCoords": {
        "latitude": 39.798488,
        "longitude": -105.062904
      },
      "distanceMeters": 78715.1,
      "durationMs": 12383174,
      "drivingDurationMs": 10791996,
      "idlingDurationMs": 1591177,
      "fuelConsumedMl": 10009,
      "fuelConsumedGallons": 2.644,
      "maxSpeedMph": 47.8,
      "averageSpeedMph": 14.2,
      "safetyEvents": [],
      "_no_driver_login": false,
      "_fuel_note": ""
    },
    {
      "id": "trip_48291004_20250204_005",
      "vehicleId": "48291004",
      "driverId": "22831003",
      "startMs": 1738663020000,
      "endMs": 1738665160317,
      "startLocation": {
        "latitude": 39.812294,
        "longitude": -104.983442
      },
      "endLocation": {
        "latitude": 39.688977,
        "longitude": -104.910548
      },
      "startAddress": "960 Kerr Place Suite 722",
      "endAddress": "88407 Nancy Burg Apt. 648",
      "startCoords": {
        "latitude": 39.753694,
        "longitude": -104.990899
      },
      "endCoords": {
        "latitude": 39.706261,
        "longitude": -105.084161
      },
      "distanceMeters": 9288.3,
      "durationMs": 2140318,
      "drivingDurationMs": 1817343,
      "idlingDurationMs": 322975,
      "fuelConsumedMl": 1181,
      "fuelConsumedGallons": 0.312,
      "maxSpeedMph": 69.3,
      "averageSpeedMph": 9.7,
      "safetyEvents": [
        {
          "type": "speeding",
          "startMs": 1738664100000,
          "maxSpeedMph": 69.3
        }
      ],
      "_no_driver_login": false,
      "_fuel_note": ""
    },
    {
      "id": "trip_48291004_20250204_006",
      "vehicleId": "48291004",
      "driverId": "22831003",
      "startMs": 1738677480000,
      "endMs": 1738685570680,
      "startLocation": {
        "latitude": 39.707225,
        "longitude": -104.921686
      },
      "endLocation": {
        "latitude": 39.691978,
        "longitude": -104.922149
      },
      "startAddress": "615 Scott Landing Suite 740",
      "endAddress": "396 Santos Mountain Apt. 311",
      "startCoords": {
        "latitude": 39.685224,
        "longitude": -104.981925
      },
      "endCoords": {
        "latitude": 39.8259,
        "longitude": -105.000931
      },
      "distanceMeters": 58951.2,
      "durationMs": 8090681,
      "drivingDurationMs": 6709071,
      "idlingDurationMs": 1381610,
      "fuelConsumedMl": 7495,
      "fuelConsumedGallons": 1.98,
      "maxSpeedMph": 38.7,
      "averageSpeedMph": 16.3,
      "safetyEvents": [],
      "_no_driver_login": false,
      "_fuel_note": ""
    },
    {
      "id": "trip_48291004_20250205_001",
      "vehicleId": "48291004",
      "driverId": "22831003",
      "startMs": 1738778280000,
      "endMs": 1738788450144,
      "startLocation": {
        "latitude": 39.786889,
        "longitude": -104.947584
      },
      "endLocation": {
        "latitude": 39.72805,
        "longitude": -104.992312
      },
      "startAddress": "39119 Fisher Road Suite 599",
      "endAddress": "625 Brittney Canyon Apt. 836",
      "startCoords": {
        "latitude": 39.825458,
        "longitude": -105.012602
      },
      "endCoords": {
        "latitude": 39.71252,
        "longitude": -105.073197
      },
      "distanceMeters": 56768.0,
      "durationMs": 10170145,
      "drivingDurationMs": 8825194,
      "idlingDurationMs": 1344950,
      "fuelConsumedMl": 7219,
      "fuelConsumedGallons": 1.907,
      "maxSpeedMph": 30.0,
      "averageSpeedMph": 12.5,
      "safetyEvents": [],
      "_no_driver_login": false,
      "_fuel_note": "QUIRK 5: fuelConsumedGallons is in US gallons. Multiply by 3.785 for litres. Samsara does not link fuel to specific Onfleet tasks."
    },
    {
      "id": "trip_48291004_20250205_002",
      "vehicleId": "48291004",
      "driverId": "22831003",
      "startMs": 1738769040000,
      "endMs": 1738776815825,
      "startLocation": {
        "latitude": 39.82208,
        "longitude": -105.037324
      },
      "endLocation": {
        "latitude": 39.810298,
        "longitude": -105.074267
      },
      "startAddress": "2072 Trevor Shoal",
      "endAddress": "4255 Sarah Trail Suite 830",
      "startCoords": {
        "latitude": 39.778182,
        "longitude": -105.074854
      },
      "endCoords": {
        "latitude": 39.746705,
        "longitude": -105.026881
      },
      "distanceMeters": 44489.4,
      "durationMs": 7775825,
      "drivingDurationMs": 7181729,
      "idlingDurationMs": 594097,
      "fuelConsumedMl": 5655,
      "fuelConsumedGallons": 1.494,
      "maxSpeedMph": 65.5,
      "averageSpeedMph": 12.8,
      "safetyEvents": [
        {
          "type": "speeding",
          "startMs": 1738776600000,
          "maxSpeedMph": 65.5
        }
      ],
      "_no_driver_login": false,
      "_fuel_note": ""
    },
    {
      "id": "trip_48291004_20250205_003",
      "vehicleId": "48291004",
      "driverId": "22831003",
      "startMs": 1738776600000,
      "endMs": 1738781438573,
      "startLocation": {
        "latitude": 39.693414,
        "longitude": -105.048746
      },
      "endLocation": {
        "latitude": 39.786129,
        "longitude": -105.044994
      },
      "startAddress": "33536 Stephanie Pike",
      "endAddress": "342 Prince Shoal Suite 551",
      "startCoords": {
        "latitude": 39.739207,
        "longitude": -105.031637
      },
      "endCoords": {
        "latitude": 39.739185,
        "longitude": -105.022899
      },
      "distanceMeters": 21802.0,
      "durationMs": 4838574,
      "drivingDurationMs": 3927100,
      "idlingDurationMs": 911474,
      "fuelConsumedMl": 2771,
      "fuelConsumedGallons": 0.732,
      "maxSpeedMph": 61.3,
      "averageSpeedMph": 10.1,
      "safetyEvents": [],
      "_no_driver_login": false,
      "_fuel_note": ""
    },
    {
      "id": "trip_48291004_20250206_001",
      "vehicleId": "48291004",
      "driverId": "22831003",
      "startMs": 1738839780000,
      "endMs": 1738851259430,
      "startLocation": {
        "latitude": 39.782369,
        "longitude": -104.937888
      },
      "endLocation": {
        "latitude": 39.811888,
        "longitude": -104.938272
      },
      "startAddress": "92394 Schneider Stream",
      "endAddress": "838 Jones Summit",
      "startCoords": {
        "latitude": 39.81107,
        "longitude": -105.031762
      },
      "endCoords": {
        "latitude": 39.815497,
        "longitude": -105.005811
      },
      "distanceMeters": 59115.6,
      "durationMs": 11479430,
      "drivingDurationMs": 10179030,
      "idlingDurationMs": 1300400,
      "fuelConsumedMl": 7518,
      "fuelConsumedGallons": 1.986,
      "maxSpeedMph": 56.2,
      "averageSpeedMph": 11.5,
      "safetyEvents": [],
      "_no_driver_login": false,
      "_fuel_note": "QUIRK 5: fuelConsumedGallons is in US gallons. Multiply by 3.785 for litres. Samsara does not link fuel to specific Onfleet tasks."
    },
    {
      "id": "trip_48291004_20250206_002",
      "vehicleId": "48291004",
      "driverId": "22831003",
      "startMs": 1738835220000,
      "endMs": 1738842460421,
      "startLocation": {
        "latitude": 39.688263,
        "longitude": -105.01318
      },
      "endLocation": {
        "latitude": 39.716854,
        "longitude": -104.935511
      },
      "startAddress": "008 Jessica Inlet",
      "endAddress": "604 Kelly Islands Apt. 024",
      "startCoords": {
        "latitude": 39.774389,
        "longitude": -104.935762
      },
      "endCoords": {
        "latitude": 39.752263,
        "longitude": -104.958893
      },
      "distanceMeters": 46458.4,
      "durationMs": 7240421,
      "drivingDurationMs": 7027923,
      "idlingDurationMs": 212498,
      "fuelConsumedMl": 5905,
      "fuelConsumedGallons": 1.56,
      "maxSpeedMph": 30.1,
      "averageSpeedMph": 14.4,
      "safetyEvents": [],
      "_no_driver_login": false,
      "_fuel_note": ""
    },
    {
      "id": "trip_48291004_20250207_001",
      "vehicleId": "48291004",
      "driverId": "22831003",
      "startMs": 1738943340000,
      "endMs": 1738946143662,
      "startLocation": {
        "latitude": 39.784373,
        "longitude": -104.984096
      },
      "endLocation": {
        "latitude": 39.755802,
        "longitude": -104.942734
      },
      "startAddress": "125 Bowers Ford Suite 866",
      "endAddress": "4738 Joseph Cove",
      "startCoords": {
        "latitude": 39.739961,
        "longitude": -105.077792
      },
      "endCoords": {
        "latitude": 39.819894,
        "longitude": -105.067918
      },
      "distanceMeters": 18536.3,
      "durationMs": 2803662,
      "drivingDurationMs": 2505834,
      "idlingDurationMs": 297829,
      "fuelConsumedMl": 2358,
      "fuelConsumedGallons": 0.623,
      "maxSpeedMph": 56.4,
      "averageSpeedMph": 14.8,
      "safetyEvents": [],
      "_no_driver_login": false,
      "_fuel_note": "QUIRK 5: fuelConsumedGallons is in US gallons. Multiply by 3.785 for litres. Samsara does not link fuel to specific Onfleet tasks."
    },
    {
      "id": "trip_48291004_20250207_002",
      "vehicleId": "48291004",
      "driverId": "22831003",
      "startMs": 1738946040000,
      "endMs": 1738959193027,
      "startLocation": {
        "latitude": 39.788729,
        "longitude": -105.01545
      },
      "endLocation": {
        "latitude": 39.702181,
        "longitude": -105.06816
      },
      "startAddress": "59494 Donald Field Apt. 857",
      "endAddress": "7482 Wayne Cliffs",
      "startCoords": {
        "latitude": 39.712898,
        "longitude": -105.017721
      },
      "endCoords": {
        "latitude": 39.738155,
        "longitude": -104.958983
      },
      "distanceMeters": 75187.9,
      "durationMs": 13153028,
      "drivingDurationMs": 12446321,
      "idlingDurationMs": 706707,
      "fuelConsumedMl": 9558,
      "fuelConsumedGallons": 2.525,
      "maxSpeedMph": 45.4,
      "averageSpeedMph": 12.8,
      "safetyEvents": [],
      "_no_driver_login": false,
      "_fuel_note": ""
    },
    {
      "id": "trip_48291004_20250207_003",
      "vehicleId": "48291004",
      "driverId": "22831003",
      "startMs": 1738912560000,
      "endMs": 1738920170501,
      "startLocation": {
        "latitude": 39.786785,
        "longitude": -105.07721
      },
      "endLocation": {
        "latitude": 39.720759,
        "longitude": -105.059085
      },
      "startAddress": "822 Daniel Drive Suite 290",
      "endAddress": "583 Samantha Forks",
      "startCoords": {
        "latitude": 39.685948,
        "longitude": -105.005206
      },
      "endCoords": {
        "latitude": 39.741078,
        "longitude": -104.982218
      },
      "distanceMeters": 62350.8,
      "durationMs": 7610501,
      "drivingDurationMs": 7146673,
      "idlingDurationMs": 463829,
      "fuelConsumedMl": 7927,
      "fuelConsumedGallons": 2.094,
      "maxSpeedMph": 46.7,
      "averageSpeedMph": 18.3,
      "safetyEvents": [],
      "_no_driver_login": false,
      "_fuel_note": ""
    },
    {
      "id": "trip_48291004_20250207_004",
      "vehicleId": "48291004",
      "driverId": "22831003",
      "startMs": 1738939800000,
      "endMs": 1738941609653,
      "startLocation": {
        "latitude": 39.699383,
        "longitude": -104.990523
      },
      "endLocation": {
        "latitude": 39.788626,
        "longitude": -105.051784
      },
      "startAddress": "6618 Christopher Harbor",
      "endAddress": "7785 Jamie Cliff Apt. 398",
      "startCoords": {
        "latitude": 39.782387,
        "longitude": -104.946909
      },
      "endCoords": {
        "latitude": 39.798997,
        "longitude": -104.914397
      },
      "distanceMeters": 12556.5,
      "durationMs": 1809654,
      "drivingDurationMs": 1624688,
      "idlingDurationMs": 184966,
      "fuelConsumedMl": 1597,
      "fuelConsumedGallons": 0.422,
      "maxSpeedMph": 37.4,
      "averageSpeedMph": 15.5,
      "safetyEvents": [],
      "_no_driver_login": false,
      "_fuel_note": ""
    },
    {
      "id": "trip_48291004_20250207_005",
      "vehicleId": "48291004",
      "driverId": "22831003",
      "startMs": 1738930560000,
      "endMs": 1738943744713,
      "startLocation": {
        "latitude": 39.716186,
        "longitude": -104.961152
      },
      "endLocation": {
        "latitude": 39.778207,
        "longitude": -105.074184
      },
      "startAddress": "41197 Garcia Plaza Apt. 064",
      "endAddress": "20124 Michael Burgs",
      "startCoords": {
        "latitude": 39.740952,
        "longitude": -105.047885
      },
      "endCoords": {
        "latitude": 39.750632,
        "longitude": -104.95729
      },
      "distanceMeters": 76311.2,
      "durationMs": 13184714,
      "drivingDurationMs": 11901601,
      "idlingDurationMs": 1283113,
      "fuelConsumedMl": 9702,
      "fuelConsumedGallons": 2.563,
      "maxSpeedMph": 42.4,
      "averageSpeedMph": 12.9,
      "safetyEvents": [],
      "_no_driver_login": false,
      "_fuel_note": ""
    },
    {
      "id": "trip_48291004_20250207_006",
      "vehicleId": "48291004",
      "driverId": "22831003",
      "startMs": 1738947960000,
      "endMs": 1738948842888,
      "startLocation": {
        "latitude": 39.713387,
        "longitude": -105.027827
      },
      "endLocation": {
        "latitude": 39.751584,
        "longitude": -104.915442
      },
      "startAddress": "16561 Thomas Lakes Suite 155",
      "endAddress": "889 Kathryn Ramp Apt. 245",
      "startCoords": {
        "latitude": 39.798986,
        "longitude": -104.954894
      },
      "endCoords": {
        "latitude": 39.710264,
        "longitude": -104.945164
      },
      "distanceMeters": 6123.2,
      "durationMs": 882888,
      "drivingDurationMs": 705300,
      "idlingDurationMs": 177588,
      "fuelConsumedMl": 780,
      "fuelConsumedGallons": 0.206,
      "maxSpeedMph": 31.7,
      "averageSpeedMph": 15.5,
      "safetyEvents": [],
      "_no_driver_login": false,
      "_fuel_note": ""
    },
    {
      "id": "trip_48291004_20250208_001",
      "vehicleId": "48291004",
      "driverId": "22831003",
      "startMs": 1739025600000,
      "endMs": 1739034550624,
      "startLocation": {
        "latitude": 39.819045,
        "longitude": -104.902468
      },
      "endLocation": {
        "latitude": 39.744429,
        "longitude": -104.971906
      },
      "startAddress": "292 Ryan Port",
      "endAddress": "575 Fischer Burg",
      "startCoords": {
        "latitude": 39.820559,
        "longitude": -104.914963
      },
      "endCoords": {
        "latitude": 39.780559,
        "longitude": -104.905973
      },
      "distanceMeters": 51824.3,
      "durationMs": 8950624,
      "drivingDurationMs": 8634289,
      "idlingDurationMs": 316335,
      "fuelConsumedMl": 6590,
      "fuelConsumedGallons": 1.741,
      "maxSpeedMph": 49.7,
      "averageSpeedMph": 13.0,
      "safetyEvents": [],
      "_no_driver_login": false,
      "_fuel_note": "QUIRK 5: fuelConsumedGallons is in US gallons. Multiply by 3.785 for litres. Samsara does not link fuel to specific Onfleet tasks."
    },
    {
      "id": "trip_48291004_20250209_001",
      "vehicleId": "48291004",
      "driverId": "22831003",
      "startMs": 1739106780000,
      "endMs": 1739108349538,
      "startLocation": {
        "latitude": 39.705301,
        "longitude": -104.977778
      },
      "endLocation": {
        "latitude": 39.824956,
        "longitude": -104.94819
      },
      "startAddress": "896 Sanchez Forks Apt. 648",
      "endAddress": "038 Stuart Tunnel Suite 930",
      "startCoords": {
        "latitude": 39.726256,
        "longitude": -105.065804
      },
      "endCoords": {
        "latitude": 39.778707,
        "longitude": -105.058015
      },
      "distanceMeters": 9037.8,
      "durationMs": 1569538,
      "drivingDurationMs": 1349813,
      "idlingDurationMs": 219726,
      "fuelConsumedMl": 1151,
      "fuelConsumedGallons": 0.304,
      "maxSpeedMph": 40.2,
      "averageSpeedMph": 12.9,
      "safetyEvents": [],
      "_no_driver_login": false,
      "_fuel_note": "QUIRK 5: fuelConsumedGallons is in US gallons. Multiply by 3.785 for litres. Samsara does not link fuel to specific Onfleet tasks."
    },
    {
      "id": "trip_48291004_20250209_002",
      "vehicleId": "48291004",
      "driverId": null,
      "startMs": 1739115000000,
      "endMs": 1739129707701,
      "startLocation": {
        "latitude": 39.732445,
        "longitude": -104.903123
      },
      "endLocation": {
        "latitude": 39.760831,
        "longitude": -105.04455
      },
      "startAddress": "4256 Shelly Coves",
      "endAddress": "587 Johnny Knolls Apt. 476",
      "startCoords": {
        "latitude": 39.806157,
        "longitude": -104.922371
      },
      "endCoords": {
        "latitude": 39.729481,
        "longitude": -104.938185
      },
      "distanceMeters": 72879.7,
      "durationMs": 14707702,
      "drivingDurationMs": 12178934,
      "idlingDurationMs": 2528768,
      "fuelConsumedMl": 9267,
      "fuelConsumedGallons": 2.448,
      "maxSpeedMph": 33.7,
      "averageSpeedMph": 11.1,
      "safetyEvents": [],
      "_no_driver_login": true,
      "_fuel_note": ""
    },
    {
      "id": "trip_48291004_20250210_001",
      "vehicleId": "48291004",
      "driverId": "22831003",
      "startMs": 1739198040000,
      "endMs": 1739200209724,
      "startLocation": {
        "latitude": 39.789229,
        "longitude": -105.016979
      },
      "endLocation": {
        "latitude": 39.810388,
        "longitude": -104.929942
      },
      "startAddress": "3530 Michelle Springs Suite 426",
      "endAddress": "531 Bruce Ways",
      "startCoords": {
        "latitude": 39.736738,
        "longitude": -105.063707
      },
      "endCoords": {
        "latitude": 39.802454,
        "longitude": -104.996101
      },
      "distanceMeters": 12884.4,
      "durationMs": 2169725,
      "drivingDurationMs": 1762778,
      "idlingDurationMs": 406947,
      "fuelConsumedMl": 1639,
      "fuelConsumedGallons": 0.433,
      "maxSpeedMph": 45.1,
      "averageSpeedMph": 13.3,
      "safetyEvents": [],
      "_no_driver_login": false,
      "_fuel_note": "QUIRK 5: fuelConsumedGallons is in US gallons. Multiply by 3.785 for litres. Samsara does not link fuel to specific Onfleet tasks."
    },
    {
      "id": "trip_48291004_20250210_002",
      "vehicleId": "48291004",
      "driverId": "22831003",
      "startMs": 1739191800000,
      "endMs": 1739200927365,
      "startLocation": {
        "latitude": 39.739255,
        "longitude": -104.901872
      },
      "endLocation": {
        "latitude": 39.826143,
        "longitude": -105.011885
      },
      "startAddress": "98477 Amy Summit",
      "endAddress": "88848 Melissa Station",
      "startCoords": {
        "latitude": 39.72573,
        "longitude": -104.99654
      },
      "endCoords": {
        "latitude": 39.69737,
        "longitude": -105.054371
      },
      "distanceMeters": 55296.4,
      "durationMs": 9127365,
      "drivingDurationMs": 7592514,
      "idlingDurationMs": 1534852,
      "fuelConsumedMl": 7030,
      "fuelConsumedGallons": 1.857,
      "maxSpeedMph": 47.8,
      "averageSpeedMph": 13.6,
      "safetyEvents": [],
      "_no_driver_login": false,
      "_fuel_note": ""
    },
    {
      "id": "trip_48291004_20250210_003",
      "vehicleId": "48291004",
      "driverId": "22831003",
      "startMs": 1739191860000,
      "endMs": 1739197926028,
      "startLocation": {
        "latitude": 39.734101,
        "longitude": -105.002295
      },
      "endLocation": {
        "latitude": 39.733116,
        "longitude": -105.046043
      },
      "startAddress": "0325 Wu Gateway Suite 499",
      "endAddress": "275 Clark Crossroad Suite 225",
      "startCoords": {
        "latitude": 39.811333,
        "longitude": -104.968433
      },
      "endCoords": {
        "latitude": 39.705636,
        "longitude": -104.925514
      },
      "distanceMeters": 40899.1,
      "durationMs": 6066028,
      "drivingDurationMs": 5442341,
      "idlingDurationMs": 623687,
      "fuelConsumedMl": 5201,
      "fuelConsumedGallons": 1.374,
      "maxSpeedMph": 48.2,
      "averageSpeedMph": 15.1,
      "safetyEvents": [],
      "_no_driver_login": false,
      "_fuel_note": ""
    },
    {
      "id": "trip_48291004_20250211_001",
      "vehicleId": "48291004",
      "driverId": "22831003",
      "startMs": 1739290620000,
      "endMs": 1739301312462,
      "startLocation": {
        "latitude": 39.758573,
        "longitude": -105.078168
      },
      "endLocation": {
        "latitude": 39.709231,
        "longitude": -104.924248
      },
      "startAddress": "38155 Hogan Extension Suite 540",
      "endAddress": "0215 Alexander Path Suite 436",
      "startCoords": {
        "latitude": 39.693919,
        "longitude": -105.020546
      },
      "endCoords": {
        "latitude": 39.690777,
        "longitude": -104.902746
      },
      "distanceMeters": 68542.8,
      "durationMs": 10692463,
      "drivingDurationMs": 9801599,
      "idlingDurationMs": 890864,
      "fuelConsumedMl": 8714,
      "fuelConsumedGallons": 2.302,
      "maxSpeedMph": 59.1,
      "averageSpeedMph": 14.3,
      "safetyEvents": [],
      "_no_driver_login": false,
      "_fuel_note": "QUIRK 5: fuelConsumedGallons is in US gallons. Multiply by 3.785 for litres. Samsara does not link fuel to specific Onfleet tasks."
    },
    {
      "id": "trip_48291004_20250211_002",
      "vehicleId": "48291004",
      "driverId": "22831003",
      "startMs": 1739261280000,
      "endMs": 1739262765906,
      "startLocation": {
        "latitude": 39.797078,
        "longitude": -105.037205
      },
      "endLocation": {
        "latitude": 39.732054,
        "longitude": -105.084614
      },
      "startAddress": "0413 Olivia Keys",
      "endAddress": "0138 Danielle Inlet Apt. 100",
      "startCoords": {
        "latitude": 39.691589,
        "longitude": -104.984978
      },
      "endCoords": {
        "latitude": 39.697875,
        "longitude": -104.940937
      },
      "distanceMeters": 11555.9,
      "durationMs": 1485906,
      "drivingDurationMs": 1305454,
      "idlingDurationMs": 180453,
      "fuelConsumedMl": 1469,
      "fuelConsumedGallons": 0.388,
      "maxSpeedMph": 67.0,
      "averageSpeedMph": 17.4,
      "safetyEvents": [
        {
          "type": "speeding",
          "startMs": 1739261520000,
          "maxSpeedMph": 67.0
        }
      ],
      "_no_driver_login": false,
      "_fuel_note": ""
    },
    {
      "id": "trip_48291004_20250212_001",
      "vehicleId": "48291004",
      "driverId": "22831003",
      "startMs": 1739381640000,
      "endMs": 1739389308993,
      "startLocation": {
        "latitude": 39.711278,
        "longitude": -104.953658
      },
      "endLocation": {
        "latitude": 39.760484,
        "longitude": -105.036486
      },
      "startAddress": "900 Adkins Gateway Apt. 192",
      "endAddress": "036 Jeffery Manor Apt. 595",
      "startCoords": {
        "latitude": 39.771371,
        "longitude": -104.970176
      },
      "endCoords": {
        "latitude": 39.777422,
        "longitude": -104.979247
      },
      "distanceMeters": 55566.7,
      "durationMs": 7668993,
      "drivingDurationMs": 6583179,
      "idlingDurationMs": 1085814,
      "fuelConsumedMl": 7064,
      "fuelConsumedGallons": 1.866,
      "maxSpeedMph": 46.7,
      "averageSpeedMph": 16.2,
      "safetyEvents": [],
      "_no_driver_login": false,
      "_fuel_note": "QUIRK 5: fuelConsumedGallons is in US gallons. Multiply by 3.785 for litres. Samsara does not link fuel to specific Onfleet tasks."
    },
    {
      "id": "trip_48291004_20250212_002",
      "vehicleId": "48291004",
      "driverId": "22831003",
      "startMs": 1739342940000,
      "endMs": 1739358483673,
      "startLocation": {
        "latitude": 39.743099,
        "longitude": -104.924429
      },
      "endLocation": {
        "latitude": 39.721266,
        "longitude": -104.944044
      },
      "startAddress": "24748 Jessica Village Suite 636",
      "endAddress": "620 Wright Rapids",
      "startCoords": {
        "latitude": 39.715609,
        "longitude": -105.044053
      },
      "endCoords": {
        "latitude": 39.80829,
        "longitude": -105.028482
      },
      "distanceMeters": 73280.0,
      "durationMs": 15543673,
      "drivingDurationMs": 13679079,
      "idlingDurationMs": 1864594,
      "fuelConsumedMl": 9316,
      "fuelConsumedGallons": 2.461,
      "maxSpeedMph": 62.0,
      "averageSpeedMph": 10.5,
      "safetyEvents": [],
      "_no_driver_login": false,
      "_fuel_note": ""
    },
    {
      "id": "trip_48291004_20250212_003",
      "vehicleId": "48291004",
      "driverId": "22831003",
      "startMs": 1739375220000,
      "endMs": 1739378587665,
      "startLocation": {
        "latitude": 39.690807,
        "longitude": -104.932129
      },
      "endLocation": {
        "latitude": 39.819377,
        "longitude": -105.052536
      },
      "startAddress": "58061 Jones Unions",
      "endAddress": "747 Stephen Ports Suite 207",
      "startCoords": {
        "latitude": 39.732734,
        "longitude": -104.96594
      },
      "endCoords": {
        "latitude": 39.826296,
        "longitude": -104.944429
      },
      "distanceMeters": 19123.0,
      "durationMs": 3367666,
      "drivingDurationMs": 2795590,
      "idlingDurationMs": 572075,
      "fuelConsumedMl": 2430,
      "fuelConsumedGallons": 0.642,
      "maxSpeedMph": 32.0,
      "averageSpeedMph": 12.7,
      "safetyEvents": [],
      "_no_driver_login": false,
      "_fuel_note": ""
    },
    {
      "id": "trip_48291004_20250212_004",
      "vehicleId": "48291004",
      "driverId": "22831003",
      "startMs": 1739368740000,
      "endMs": 1739375382606,
      "startLocation": {
        "latitude": 39.807338,
        "longitude": -104.926097
      },
      "endLocation": {
        "latitude": 39.791857,
        "longitude": -105.072225
      },
      "startAddress": "76885 Heather Island Apt. 413",
      "endAddress": "94426 Conner Ports",
      "startCoords": {
        "latitude": 39.685331,
        "longitude": -104.952321
      },
      "endCoords": {
        "latitude": 39.740812,
        "longitude": -104.92768
      },
      "distanceMeters": 46786.4,
      "durationMs": 6642606,
      "drivingDurationMs": 6361775,
      "idlingDurationMs": 280831,
      "fuelConsumedMl": 5947,
      "fuelConsumedGallons": 1.571,
      "maxSpeedMph": 66.3,
      "averageSpeedMph": 15.8,
      "safetyEvents": [
        {
          "type": "speeding",
          "startMs": 1739372040000,
          "maxSpeedMph": 66.3
        }
      ],
      "_no_driver_login": false,
      "_fuel_note": ""
    },
    {
      "id": "trip_48291004_20250213_001",
      "vehicleId": "48291004",
      "driverId": null,
      "startMs": 1739459040000,
      "endMs": 1739469205266,
      "startLocation": {
        "latitude": 39.797694,
        "longitude": -104.924558
      },
      "endLocation": {
        "latitude": 39.743038,
        "longitude": -105.070893
      },
      "startAddress": "933 Mckay Drive",
      "endAddress": "0120 David Islands",
      "startCoords": {
        "latitude": 39.760181,
        "longitude": -105.034539
      },
      "endCoords": {
        "latitude": 39.701214,
        "longitude": -104.967872
      },
      "distanceMeters": 74960.4,
      "durationMs": 10165267,
      "drivingDurationMs": 8631961,
      "idlingDurationMs": 1533306,
      "fuelConsumedMl": 9532,
      "fuelConsumedGallons": 2.518,
      "maxSpeedMph": 50.2,
      "averageSpeedMph": 16.5,
      "safetyEvents": [],
      "_no_driver_login": true,
      "_fuel_note": "QUIRK 5: fuelConsumedGallons is in US gallons. Multiply by 3.785 for litres. Samsara does not link fuel to specific Onfleet tasks."
    },
    {
      "id": "trip_48291004_20250213_002",
      "vehicleId": "48291004",
      "driverId": "22831003",
      "startMs": 1739448420000,
      "endMs": 1739453065334,
      "startLocation": {
        "latitude": 39.791576,
        "longitude": -104.953241
      },
      "endLocation": {
        "latitude": 39.687296,
        "longitude": -104.929131
      },
      "startAddress": "428 Jon Via",
      "endAddress": "22106 Danny Springs Apt. 754",
      "startCoords": {
        "latitude": 39.746205,
        "longitude": -105.039594
      },
      "endCoords": {
        "latitude": 39.788664,
        "longitude": -104.998182
      },
      "distanceMeters": 33703.9,
      "durationMs": 4645334,
      "drivingDurationMs": 3899651,
      "idlingDurationMs": 745683,
      "fuelConsumedMl": 4285,
      "fuelConsumedGallons": 1.132,
      "maxSpeedMph": 62.7,
      "averageSpeedMph": 16.2,
      "safetyEvents": [],
      "_no_driver_login": false,
      "_fuel_note": ""
    },
    {
      "id": "trip_48291004_20250213_003",
      "vehicleId": "48291004",
      "driverId": "22831003",
      "startMs": 1739436240000,
      "endMs": 1739445798600,
      "startLocation": {
        "latitude": 39.774079,
        "longitude": -104.998508
      },
      "endLocation": {
        "latitude": 39.706997,
        "longitude": -105.065747
      },
      "startAddress": "9931 Williams Highway",
      "endAddress": "25199 Justin Inlet Suite 938",
      "startCoords": {
        "latitude": 39.711094,
        "longitude": -104.910731
      },
      "endCoords": {
        "latitude": 39.76669,
        "longitude": -105.086014
      },
      "distanceMeters": 66601.8,
      "durationMs": 9558601,
      "drivingDurationMs": 7871644,
      "idlingDurationMs": 1686957,
      "fuelConsumedMl": 8468,
      "fuelConsumedGallons": 2.237,
      "maxSpeedMph": 71.7,
      "averageSpeedMph": 15.6,
      "safetyEvents": [
        {
          "type": "speeding",
          "startMs": 1739443140000,
          "maxSpeedMph": 71.7
        }
      ],
      "_no_driver_login": false,
      "_fuel_note": ""
    },
    {
      "id": "trip_48291004_20250213_004",
      "vehicleId": "48291004",
      "driverId": "22831003",
      "startMs": 1739446560000,
      "endMs": 1739454902877,
      "startLocation": {
        "latitude": 39.740304,
        "longitude": -105.006126
      },
      "endLocation": {
        "latitude": 39.826981,
        "longitude": -105.033435
      },
      "startAddress": "60626 Kent Via Apt. 258",
      "endAddress": "15218 Jessica Junctions",
      "startCoords": {
        "latitude": 39.767066,
        "longitude": -105.084911
      },
      "endCoords": {
        "latitude": 39.78616,
        "longitude": -104.926157
      },
      "distanceMeters": 58605.8,
      "durationMs": 8342877,
      "drivingDurationMs": 7574391,
      "idlingDurationMs": 768487,
      "fuelConsumedMl": 7450,
      "fuelConsumedGallons": 1.968,
      "maxSpeedMph": 60.0,
      "averageSpeedMph": 15.7,
      "safetyEvents": [],
      "_no_driver_login": false,
      "_fuel_note": ""
    },
    {
      "id": "trip_48291004_20250214_001",
      "vehicleId": "48291004",
      "driverId": "22831003",
      "startMs": 1739538720000,
      "endMs": 1739543520805,
      "startLocation": {
        "latitude": 39.715059,
        "longitude": -105.0117
      },
      "endLocation": {
        "latitude": 39.743112,
        "longitude": -104.947743
      },
      "startAddress": "7062 Grimes Isle Apt. 123",
      "endAddress": "36445 Conley Road",
      "startCoords": {
        "latitude": 39.779064,
        "longitude": -105.069792
      },
      "endCoords": {
        "latitude": 39.792532,
        "longitude": -105.040545
      },
      "distanceMeters": 26481.1,
      "durationMs": 4800805,
      "drivingDurationMs": 4513627,
      "idlingDurationMs": 287178,
      "fuelConsumedMl": 3365,
      "fuelConsumedGallons": 0.889,
      "maxSpeedMph": 36.5,
      "averageSpeedMph": 12.3,
      "safetyEvents": [],
      "_no_driver_login": false,
      "_fuel_note": "QUIRK 5: fuelConsumedGallons is in US gallons. Multiply by 3.785 for litres. Samsara does not link fuel to specific Onfleet tasks."
    },
    {
      "id": "trip_48291004_20250214_002",
      "vehicleId": "48291004",
      "driverId": "22831003",
      "startMs": 1739523660000,
      "endMs": 1739528708081,
      "startLocation": {
        "latitude": 39.743701,
        "longitude": -105.069037
      },
      "endLocation": {
        "latitude": 39.689854,
        "longitude": -104.929892
      },
      "startAddress": "8230 Edwin Vista Suite 395",
      "endAddress": "9214 Jones Pike",
      "startCoords": {
        "latitude": 39.77272,
        "longitude": -104.928596
      },
      "endCoords": {
        "latitude": 39.795861,
        "longitude": -105.086512
      },
      "distanceMeters": 35311.6,
      "durationMs": 5048081,
      "drivingDurationMs": 4512118,
      "idlingDurationMs": 535963,
      "fuelConsumedMl": 4489,
      "fuelConsumedGallons": 1.186,
      "maxSpeedMph": 43.9,
      "averageSpeedMph": 15.6,
      "safetyEvents": [],
      "_no_driver_login": false,
      "_fuel_note": ""
    },
    {
      "id": "trip_48291004_20250214_003",
      "vehicleId": "48291004",
      "driverId": "22831003",
      "startMs": 1739522940000,
      "endMs": 1739525370104,
      "startLocation": {
        "latitude": 39.730111,
        "longitude": -104.998214
      },
      "endLocation": {
        "latitude": 39.813498,
        "longitude": -104.955894
      },
      "startAddress": "750 Hatfield Valley",
      "endAddress": "88643 Joshua Meadows",
      "startCoords": {
        "latitude": 39.687317,
        "longitude": -104.961255
      },
      "endCoords": {
        "latitude": 39.709018,
        "longitude": -104.920642
      },
      "distanceMeters": 16285.0,
      "durationMs": 2430105,
      "drivingDurationMs": 2182788,
      "idlingDurationMs": 247317,
      "fuelConsumedMl": 2071,
      "fuelConsumedGallons": 0.547,
      "maxSpeedMph": 57.7,
      "averageSpeedMph": 15.0,
      "safetyEvents": [],
      "_no_driver_login": false,
      "_fuel_note": ""
    },
    {
      "id": "trip_48291004_20250214_004",
      "vehicleId": "48291004",
      "driverId": "22831003",
      "startMs": 1739529900000,
      "endMs": 1739542947814,
      "startLocation": {
        "latitude": 39.747489,
        "longitude": -105.077915
      },
      "endLocation": {
        "latitude": 39.78718,
        "longitude": -105.016194
      },
      "startAddress": "98942 Aaron Curve Apt. 559",
      "endAddress": "462 Parrish Trafficway",
      "startCoords": {
        "latitude": 39.755441,
        "longitude": -105.021801
      },
      "endCoords": {
        "latitude": 39.736342,
        "longitude": -105.018198
      },
      "distanceMeters": 81025.0,
      "durationMs": 13047814,
      "drivingDurationMs": 10812310,
      "idlingDurationMs": 2235505,
      "fuelConsumedMl": 10300,
      "fuelConsumedGallons": 2.721,
      "maxSpeedMph": 35.0,
      "averageSpeedMph": 13.9,
      "safetyEvents": [],
      "_no_driver_login": false,
      "_fuel_note": ""
    },
    {
      "id": "trip_48291004_20250214_005",
      "vehicleId": "48291004",
      "driverId": "22831003",
      "startMs": 1739523240000,
      "endMs": 1739526808206,
      "startLocation": {
        "latitude": 39.756303,
        "longitude": -105.056843
      },
      "endLocation": {
        "latitude": 39.822667,
        "longitude": -104.985809
      },
      "startAddress": "4468 Miller Mountains Suite 495",
      "endAddress": "6743 Joseph Freeway Suite 609",
      "startCoords": {
        "latitude": 39.823163,
        "longitude": -104.997232
      },
      "endCoords": {
        "latitude": 39.788711,
        "longitude": -105.043974
      },
      "distanceMeters": 25086.6,
      "durationMs": 3568206,
      "drivingDurationMs": 3139346,
      "idlingDurationMs": 428860,
      "fuelConsumedMl": 3191,
      "fuelConsumedGallons": 0.843,
      "maxSpeedMph": 41.3,
      "averageSpeedMph": 15.7,
      "safetyEvents": [],
      "_no_driver_login": false,
      "_fuel_note": ""
    },
    {
      "id": "trip_48291004_20250214_006",
      "vehicleId": "48291004",
      "driverId": "22831003",
      "startMs": 1739523420000,
      "endMs": 1739526666615,
      "startLocation": {
        "latitude": 39.727257,
        "longitude": -105.009802
      },
      "endLocation": {
        "latitude": 39.819098,
        "longitude": -105.045163
      },
      "startAddress": "97752 Stephen Track",
      "endAddress": "6685 Armstrong Meadows",
      "startCoords": {
        "latitude": 39.796486,
        "longitude": -104.99985
      },
      "endCoords": {
        "latitude": 39.761674,
        "longitude": -105.051526
      },
      "distanceMeters": 16009.5,
      "durationMs": 3246615,
      "drivingDurationMs": 2641823,
      "idlingDurationMs": 604792,
      "fuelConsumedMl": 2037,
      "fuelConsumedGallons": 0.538,
      "maxSpeedMph": 54.4,
      "averageSpeedMph": 11.0,
      "safetyEvents": [],
      "_no_driver_login": false,
      "_fuel_note": ""
    },
    {
      "id": "trip_48291004_20250215_001",
      "vehicleId": "48291004",
      "driverId": "22831003",
      "startMs": 1739628660000,
      "endMs": 1739634862039,
      "startLocation": {
        "latitude": 39.789119,
        "longitude": -105.042649
      },
      "endLocation": {
        "latitude": 39.75524,
        "longitude": -104.935552
      },
      "startAddress": "242 Alex Roads",
      "endAddress": "356 Sharp Causeway",
      "startCoords": {
        "latitude": 39.722318,
        "longitude": -104.913942
      },
      "endCoords": {
        "latitude": 39.726293,
        "longitude": -104.999907
      },
      "distanceMeters": 33616.6,
      "durationMs": 6202040,
      "drivingDurationMs": 5910225,
      "idlingDurationMs": 291815,
      "fuelConsumedMl": 4274,
      "fuelConsumedGallons": 1.129,
      "maxSpeedMph": 35.7,
      "averageSpeedMph": 12.1,
      "safetyEvents": [],
      "_no_driver_login": false,
      "_fuel_note": "QUIRK 5: fuelConsumedGallons is in US gallons. Multiply by 3.785 for litres. Samsara does not link fuel to specific Onfleet tasks."
    },
    {
      "id": "trip_48291004_20250215_002",
      "vehicleId": "48291004",
      "driverId": "22831003",
      "startMs": 1739604120000,
      "endMs": 1739620109434,
      "startLocation": {
        "latitude": 39.754833,
        "longitude": -105.031233
      },
      "endLocation": {
        "latitude": 39.763294,
        "longitude": -104.981258
      },
      "startAddress": "35463 Frank Shoals Apt. 179",
      "endAddress": "2724 Christopher Key",
      "startCoords": {
        "latitude": 39.689671,
        "longitude": -105.054432
      },
      "endCoords": {
        "latitude": 39.761517,
        "longitude": -105.085435
      },
      "distanceMeters": 69241.0,
      "durationMs": 15989435,
      "drivingDurationMs": 12855446,
      "idlingDurationMs": 3133989,
      "fuelConsumedMl": 8805,
      "fuelConsumedGallons": 2.326,
      "maxSpeedMph": 59.8,
      "averageSpeedMph": 9.7,
      "safetyEvents": [],
      "_no_driver_login": false,
      "_fuel_note": ""
    },
    {
      "id": "trip_48291004_20250216_001",
      "vehicleId": "48291004",
      "driverId": "22831003",
      "startMs": 1739698680000,
      "endMs": 1739705874750,
      "startLocation": {
        "latitude": 39.767029,
        "longitude": -104.921874
      },
      "endLocation": {
        "latitude": 39.717757,
        "longitude": -104.998621
      },
      "startAddress": "4891 Paul Fall Apt. 458",
      "endAddress": "9532 Clay Isle",
      "startCoords": {
        "latitude": 39.79886,
        "longitude": -104.983782
      },
      "endCoords": {
        "latitude": 39.800529,
        "longitude": -105.028687
      },
      "distanceMeters": 52077.0,
      "durationMs": 7194751,
      "drivingDurationMs": 6309786,
      "idlingDurationMs": 884965,
      "fuelConsumedMl": 6621,
      "fuelConsumedGallons": 1.749,
      "maxSpeedMph": 57.8,
      "averageSpeedMph": 16.2,
      "safetyEvents": [],
      "_no_driver_login": false,
      "_fuel_note": "QUIRK 5: fuelConsumedGallons is in US gallons. Multiply by 3.785 for litres. Samsara does not link fuel to specific Onfleet tasks."
    },
    {
      "id": "trip_48291004_20250216_002",
      "vehicleId": "48291004",
      "driverId": "22831003",
      "startMs": 1739718540000,
      "endMs": 1739721052625,
      "startLocation": {
        "latitude": 39.813799,
        "longitude": -105.051361
      },
      "endLocation": {
        "latitude": 39.814969,
        "longitude": -105.022096
      },
      "startAddress": "38921 Sheri Land",
      "endAddress": "602 Danny Hollow Apt. 495",
      "startCoords": {
        "latitude": 39.700204,
        "longitude": -105.052249
      },
      "endCoords": {
        "latitude": 39.688946,
        "longitude": -105.01145
      },
      "distanceMeters": 18340.6,
      "durationMs": 2512625,
      "drivingDurationMs": 2241860,
      "idlingDurationMs": 270766,
      "fuelConsumedMl": 2332,
      "fuelConsumedGallons": 0.616,
      "maxSpeedMph": 59.4,
      "averageSpeedMph": 16.3,
      "safetyEvents": [],
      "_no_driver_login": false,
      "_fuel_note": ""
    },
    {
      "id": "trip_48291004_20250216_003",
      "vehicleId": "48291004",
      "driverId": "22831003",
      "startMs": 1739692500000,
      "endMs": 1739695247124,
      "startLocation": {
        "latitude": 39.758862,
        "longitude": -104.987663
      },
      "endLocation": {
        "latitude": 39.802966,
        "longitude": -104.914262
      },
      "startAddress": "4059 Anderson Via Apt. 351",
      "endAddress": "7209 Zachary Garden",
      "startCoords": {
        "latitude": 39.709137,
        "longitude": -105.05007
      },
      "endCoords": {
        "latitude": 39.747234,
        "longitude": -104.946138
      },
      "distanceMeters": 13669.6,
      "durationMs": 2747124,
      "drivingDurationMs": 2557564,
      "idlingDurationMs": 189560,
      "fuelConsumedMl": 1738,
      "fuelConsumedGallons": 0.459,
      "maxSpeedMph": 71.0,
      "averageSpeedMph": 11.1,
      "safetyEvents": [
        {
          "type": "speeding",
          "startMs": 1739693340000,
          "maxSpeedMph": 71.0
        }
      ],
      "_no_driver_login": false,
      "_fuel_note": ""
    },
    {
      "id": "trip_48291004_20250217_001",
      "vehicleId": "48291004",
      "driverId": "22831003",
      "startMs": 1739809980000,
      "endMs": 1739810944824,
      "startLocation": {
        "latitude": 39.75495,
        "longitude": -104.968605
      },
      "endLocation": {
        "latitude": 39.702429,
        "longitude": -104.93508
      },
      "startAddress": "93253 Hill Garden",
      "endAddress": "8031 Chandler Shore",
      "startCoords": {
        "latitude": 39.721076,
        "longitude": -104.903686
      },
      "endCoords": {
        "latitude": 39.759538,
        "longitude": -104.910053
      },
      "distanceMeters": 6343.4,
      "durationMs": 964825,
      "drivingDurationMs": 777350,
      "idlingDurationMs": 187475,
      "fuelConsumedMl": 806,
      "fuelConsumedGallons": 0.213,
      "maxSpeedMph": 44.5,
      "averageSpeedMph": 14.7,
      "safetyEvents": [],
      "_no_driver_login": false,
      "_fuel_note": "QUIRK 5: fuelConsumedGallons is in US gallons. Multiply by 3.785 for litres. Samsara does not link fuel to specific Onfleet tasks."
    },
    {
      "id": "trip_48291004_20250217_002",
      "vehicleId": "48291004",
      "driverId": "22831003",
      "startMs": 1739778900000,
      "endMs": 1739785912271,
      "startLocation": {
        "latitude": 39.770599,
        "longitude": -104.999453
      },
      "endLocation": {
        "latitude": 39.741464,
        "longitude": -104.906295
      },
      "startAddress": "85711 Joseph Turnpike Suite 311",
      "endAddress": "48057 Charles Trail",
      "startCoords": {
        "latitude": 39.738012,
        "longitude": -105.075851
      },
      "endCoords": {
        "latitude": 39.759647,
        "longitude": -104.946977
      },
      "distanceMeters": 47610.1,
      "durationMs": 7012271,
      "drivingDurationMs": 6528609,
      "idlingDurationMs": 483662,
      "fuelConsumedMl": 6053,
      "fuelConsumedGallons": 1.599,
      "maxSpeedMph": 48.5,
      "averageSpeedMph": 15.2,
      "safetyEvents": [],
      "_no_driver_login": false,
      "_fuel_note": ""
    },
    {
      "id": "trip_48291004_20250217_003",
      "vehicleId": "48291004",
      "driverId": "22831003",
      "startMs": 1739810940000,
      "endMs": 1739823951354,
      "startLocation": {
        "latitude": 39.743056,
        "longitude": -104.929068
      },
      "endLocation": {
        "latitude": 39.791207,
        "longitude": -105.037465
      },
      "startAddress": "3668 Turner Meadow Suite 389",
      "endAddress": "38202 Ibarra Harbors",
      "startCoords": {
        "latitude": 39.818434,
        "longitude": -105.050216
      },
      "endCoords": {
        "latitude": 39.804459,
        "longitude": -104.970007
      },
      "distanceMeters": 61671.7,
      "durationMs": 13011354,
      "drivingDurationMs": 11733986,
      "idlingDurationMs": 1277368,
      "fuelConsumedMl": 7840,
      "fuelConsumedGallons": 2.071,
      "maxSpeedMph": 57.2,
      "averageSpeedMph": 10.6,
      "safetyEvents": [],
      "_no_driver_login": false,
      "_fuel_note": ""
    },
    {
      "id": "trip_48291004_20250217_004",
      "vehicleId": "48291004",
      "driverId": "22831003",
      "startMs": 1739802300000,
      "endMs": 1739811560770,
      "startLocation": {
        "latitude": 39.737743,
        "longitude": -105.011469
      },
      "endLocation": {
        "latitude": 39.797466,
        "longitude": -105.047524
      },
      "startAddress": "80477 Dana Dam",
      "endAddress": "561 Green Walks",
      "startCoords": {
        "latitude": 39.72767,
        "longitude": -104.932934
      },
      "endCoords": {
        "latitude": 39.6991,
        "longitude": -104.916453
      },
      "distanceMeters": 65267.6,
      "durationMs": 9260770,
      "drivingDurationMs": 7475910,
      "idlingDurationMs": 1784860,
      "fuelConsumedMl": 8298,
      "fuelConsumedGallons": 2.192,
      "maxSpeedMph": 41.4,
      "averageSpeedMph": 15.8,
      "safetyEvents": [],
      "_no_driver_login": false,
      "_fuel_note": ""
    },
    {
      "id": "trip_48291004_20250217_005",
      "vehicleId": "48291004",
      "driverId": "22831003",
      "startMs": 1739794080000,
      "endMs": 1739801314520,
      "startLocation": {
        "latitude": 39.808348,
        "longitude": -104.925339
      },
      "endLocation": {
        "latitude": 39.693402,
        "longitude": -104.976996
      },
      "startAddress": "0889 Thompson Haven Suite 476",
      "endAddress": "122 Ferguson Crest",
      "startCoords": {
        "latitude": 39.690528,
        "longitude": -104.903706
      },
      "endCoords": {
        "latitude": 39.750384,
        "longitude": -105.000746
      },
      "distanceMeters": 34711.8,
      "durationMs": 7234521,
      "drivingDurationMs": 6893880,
      "idlingDurationMs": 340640,
      "fuelConsumedMl": 4414,
      "fuelConsumedGallons": 1.166,
      "maxSpeedMph": 48.3,
      "averageSpeedMph": 10.7,
      "safetyEvents": [],
      "_no_driver_login": false,
      "_fuel_note": ""
    },
    {
      "id": "trip_48291004_20250218_001",
      "vehicleId": "48291004",
      "driverId": "22831003",
      "startMs": 1739873100000,
      "endMs": 1739879860539,
      "startLocation": {
        "latitude": 39.699499,
        "longitude": -104.963955
      },
      "endLocation": {
        "latitude": 39.727358,
        "longitude": -104.957777
      },
      "startAddress": "5383 Morales Union",
      "endAddress": "637 Allen Cliffs",
      "startCoords": {
        "latitude": 39.812843,
        "longitude": -105.01341
      },
      "endCoords": {
        "latitude": 39.824951,
        "longitude": -104.997905
      },
      "distanceMeters": 55920.0,
      "durationMs": 6760539,
      "drivingDurationMs": 6517349,
      "idlingDurationMs": 243190,
      "fuelConsumedMl": 7109,
      "fuelConsumedGallons": 1.878,
      "maxSpeedMph": 58.9,
      "averageSpeedMph": 18.5,
      "safetyEvents": [],
      "_no_driver_login": false,
      "_fuel_note": "QUIRK 5: fuelConsumedGallons is in US gallons. Multiply by 3.785 for litres. Samsara does not link fuel to specific Onfleet tasks."
    },
    {
      "id": "trip_48291004_20250218_002",
      "vehicleId": "48291004",
      "driverId": "22831003",
      "startMs": 1739900640000,
      "endMs": 1739912400000,
      "startLocation": {
        "latitude": 39.708343,
        "longitude": -105.035374
      },
      "endLocation": {
        "latitude": 39.815709,
        "longitude": -105.019646
      },
      "startAddress": "288 Delgado Trail Suite 328",
      "endAddress": "634 Taylor Spur Suite 279",
      "startCoords": {
        "latitude": 39.752486,
        "longitude": -104.942753
      },
      "endCoords": {
        "latitude": 39.787446,
        "longitude": -105.053439
      },
      "distanceMeters": 59279.6,
      "durationMs": 11760000,
      "drivingDurationMs": 9408000,
      "idlingDurationMs": 2352000,
      "fuelConsumedMl": 7537,
      "fuelConsumedGallons": 1.991,
      "maxSpeedMph": 66.3,
      "averageSpeedMph": 11.3,
      "safetyEvents": [
        {
          "type": "speeding",
          "startMs": 1739906100000,
          "maxSpeedMph": 66.3
        }
      ],
      "_no_driver_login": false,
      "_fuel_note": ""
    },
    {
      "id": "trip_48291004_20250218_003",
      "vehicleId": "48291004",
      "driverId": "22831003",
      "startMs": 1739890020000,
      "endMs": 1739897913395,
      "startLocation": {
        "latitude": 39.797307,
        "longitude": -105.01257
      },
      "endLocation": {
        "latitude": 39.80278,
        "longitude": -105.025983
      },
      "startAddress": "7390 Price Bypass",
      "endAddress": "496 Morales Center",
      "startCoords": {
        "latitude": 39.777367,
        "longitude": -105.057118
      },
      "endCoords": {
        "latitude": 39.727798,
        "longitude": -105.059711
      },
      "distanceMeters": 58636.9,
      "durationMs": 7893396,
      "drivingDurationMs": 7464562,
      "idlingDurationMs": 428833,
      "fuelConsumedMl": 7453,
      "fuelConsumedGallons": 1.969,
      "maxSpeedMph": 33.0,
      "averageSpeedMph": 16.6,
      "safetyEvents": [],
      "_no_driver_login": false,
      "_fuel_note": ""
    },
    {
      "id": "trip_48291004_20250219_001",
      "vehicleId": "48291004",
      "driverId": "22831003",
      "startMs": 1739946000000,
      "endMs": 1739955547900,
      "startLocation": {
        "latitude": 39.777602,
        "longitude": -104.987122
      },
      "endLocation": {
        "latitude": 39.718044,
        "longitude": -105.017685
      },
      "startAddress": "232 Gregory Rapids",
      "endAddress": "73422 Adams Corner Suite 510",
      "startCoords": {
        "latitude": 39.758526,
        "longitude": -105.044283
      },
      "endCoords": {
        "latitude": 39.775688,
        "longitude": -104.928462
      },
      "distanceMeters": 69111.1,
      "durationMs": 9547901,
      "drivingDurationMs": 8109964,
      "idlingDurationMs": 1437937,
      "fuelConsumedMl": 8786,
      "fuelConsumedGallons": 2.321,
      "maxSpeedMph": 51.8,
      "averageSpeedMph": 16.2,
      "safetyEvents": [],
      "_no_driver_login": false,
      "_fuel_note": "QUIRK 5: fuelConsumedGallons is in US gallons. Multiply by 3.785 for litres. Samsara does not link fuel to specific Onfleet tasks."
    },
    {
      "id": "trip_48291004_20250219_002",
      "vehicleId": "48291004",
      "driverId": "22831003",
      "startMs": 1739958960000,
      "endMs": 1739963507412,
      "startLocation": {
        "latitude": 39.706532,
        "longitude": -105.077329
      },
      "endLocation": {
        "latitude": 39.695323,
        "longitude": -105.010178
      },
      "startAddress": "5563 Gillespie Glen",
      "endAddress": "60886 Alexander Estates",
      "startCoords": {
        "latitude": 39.728876,
        "longitude": -105.038169
      },
      "endCoords": {
        "latitude": 39.71459,
        "longitude": -104.995923
      },
      "distanceMeters": 27313.6,
      "durationMs": 4547413,
      "drivingDurationMs": 3679484,
      "idlingDurationMs": 867929,
      "fuelConsumedMl": 3471,
      "fuelConsumedGallons": 0.917,
      "maxSpeedMph": 52.8,
      "averageSpeedMph": 13.4,
      "safetyEvents": [],
      "_no_driver_login": false,
      "_fuel_note": ""
    },
    {
      "id": "trip_48291004_20250219_003",
      "vehicleId": "48291004",
      "driverId": "22831003",
      "startMs": 1739948220000,
      "endMs": 1739957882882,
      "startLocation": {
        "latitude": 39.823492,
        "longitude": -105.039431
      },
      "endLocation": {
        "latitude": 39.822119,
        "longitude": -105.033479
      },
      "startAddress": "655 Sanchez Oval",
      "endAddress": "32735 Jennifer Bridge",
      "startCoords": {
        "latitude": 39.788337,
        "longitude": -104.926317
      },
      "endCoords": {
        "latitude": 39.794761,
        "longitude": -104.914121
      },
      "distanceMeters": 67066.6,
      "durationMs": 9662882,
      "drivingDurationMs": 8926056,
      "idlingDurationMs": 736826,
      "fuelConsumedMl": 8529,
      "fuelConsumedGallons": 2.253,
      "maxSpeedMph": 48.7,
      "averageSpeedMph": 15.5,
      "safetyEvents": [],
      "_no_driver_login": false,
      "_fuel_note": ""
    },
    {
      "id": "trip_48291004_20250219_004",
      "vehicleId": "48291004",
      "driverId": "22831003",
      "startMs": 1739970660000,
      "endMs": 1739981749533,
      "startLocation": {
        "latitude": 39.799808,
        "longitude": -104.989
      },
      "endLocation": {
        "latitude": 39.704964,
        "longitude": -104.935014
      },
      "startAddress": "5202 Hardin Land Suite 151",
      "endAddress": "837 Lisa Circles",
      "startCoords": {
        "latitude": 39.778459,
        "longitude": -104.936495
      },
      "endCoords": {
        "latitude": 39.725238,
        "longitude": -104.944158
      },
      "distanceMeters": 69956.2,
      "durationMs": 11089533,
      "drivingDurationMs": 9477307,
      "idlingDurationMs": 1612226,
      "fuelConsumedMl": 8896,
      "fuelConsumedGallons": 2.35,
      "maxSpeedMph": 34.7,
      "averageSpeedMph": 14.1,
      "safetyEvents": [],
      "_no_driver_login": false,
      "_fuel_note": ""
    },
    {
      "id": "trip_48291004_20250219_005",
      "vehicleId": "48291004",
      "driverId": "22831003",
      "startMs": 1739948040000,
      "endMs": 1739955367416,
      "startLocation": {
        "latitude": 39.725485,
        "longitude": -105.000388
      },
      "endLocation": {
        "latitude": 39.736745,
        "longitude": -105.059675
      },
      "startAddress": "3906 Benjamin Corners",
      "endAddress": "6471 Randolph Run",
      "startCoords": {
        "latitude": 39.823082,
        "longitude": -105.077064
      },
      "endCoords": {
        "latitude": 39.767557,
        "longitude": -104.989946
      },
      "distanceMeters": 41638.0,
      "durationMs": 7327416,
      "drivingDurationMs": 5897245,
      "idlingDurationMs": 1430171,
      "fuelConsumedMl": 5296,
      "fuelConsumedGallons": 1.399,
      "maxSpeedMph": 63.8,
      "averageSpeedMph": 12.7,
      "safetyEvents": [],
      "_no_driver_login": false,
      "_fuel_note": ""
    },
    {
      "id": "trip_48291004_20250219_006",
      "vehicleId": "48291004",
      "driverId": "22831003",
      "startMs": 1739964600000,
      "endMs": 1739972076727,
      "startLocation": {
        "latitude": 39.756578,
        "longitude": -105.068353
      },
      "endLocation": {
        "latitude": 39.821667,
        "longitude": -105.004188
      },
      "startAddress": "7354 Rodriguez River",
      "endAddress": "21180 Burgess Court",
      "startCoords": {
        "latitude": 39.739045,
        "longitude": -105.037769
      },
      "endCoords": {
        "latitude": 39.743875,
        "longitude": -104.903125
      },
      "distanceMeters": 35954.9,
      "durationMs": 7476727,
      "drivingDurationMs": 6043208,
      "idlingDurationMs": 1433520,
      "fuelConsumedMl": 4573,
      "fuelConsumedGallons": 1.208,
      "maxSpeedMph": 52.8,
      "averageSpeedMph": 10.8,
      "safetyEvents": [],
      "_no_driver_login": false,
      "_fuel_note": ""
    },
    {
      "id": "trip_48291004_20250220_001",
      "vehicleId": "48291004",
      "driverId": "22831003",
      "startMs": 1740036180000,
      "endMs": 1740043162094,
      "startLocation": {
        "latitude": 39.801163,
        "longitude": -104.968205
      },
      "endLocation": {
        "latitude": 39.78888,
        "longitude": -104.977892
      },
      "startAddress": "60425 Hansen Glens Suite 630",
      "endAddress": "424 Kevin Plaza Suite 847",
      "startCoords": {
        "latitude": 39.779477,
        "longitude": -105.024527
      },
      "endCoords": {
        "latitude": 39.730833,
        "longitude": -105.083769
      },
      "distanceMeters": 32447.9,
      "durationMs": 6982094,
      "drivingDurationMs": 5900261,
      "idlingDurationMs": 1081833,
      "fuelConsumedMl": 4126,
      "fuelConsumedGallons": 1.09,
      "maxSpeedMph": 70.3,
      "averageSpeedMph": 10.4,
      "safetyEvents": [
        {
          "type": "speeding",
          "startMs": 1740036420000,
          "maxSpeedMph": 70.3
        }
      ],
      "_no_driver_login": false,
      "_fuel_note": "QUIRK 5: fuelConsumedGallons is in US gallons. Multiply by 3.785 for litres. Samsara does not link fuel to specific Onfleet tasks."
    },
    {
      "id": "trip_48291004_20250220_002",
      "vehicleId": "48291004",
      "driverId": "22831003",
      "startMs": 1740039240000,
      "endMs": 1740047195503,
      "startLocation": {
        "latitude": 39.701295,
        "longitude": -105.085672
      },
      "endLocation": {
        "latitude": 39.82704,
        "longitude": -104.947159
      },
      "startAddress": "87572 Hernandez Wells Suite 530",
      "endAddress": "405 Robyn Cape Suite 397",
      "startCoords": {
        "latitude": 39.703601,
        "longitude": -105.026255
      },
      "endCoords": {
        "latitude": 39.692344,
        "longitude": -105.031536
      },
      "distanceMeters": 36604.0,
      "durationMs": 7955503,
      "drivingDurationMs": 6574247,
      "idlingDurationMs": 1381256,
      "fuelConsumedMl": 4652,
      "fuelConsumedGallons": 1.229,
      "maxSpeedMph": 45.0,
      "averageSpeedMph": 10.3,
      "safetyEvents": [],
      "_no_driver_login": false,
      "_fuel_note": ""
    },
    {
      "id": "trip_48291004_20250220_003",
      "vehicleId": "48291004",
      "driverId": "22831003",
      "startMs": 1740067980000,
      "endMs": 1740072579951,
      "startLocation": {
        "latitude": 39.782703,
        "longitude": -104.976155
      },
      "endLocation": {
        "latitude": 39.774328,
        "longitude": -105.033494
      },
      "startAddress": "5896 Michelle Causeway Apt. 412",
      "endAddress": "6182 Michael Motorway",
      "startCoords": {
        "latitude": 39.798846,
        "longitude": -105.053288
      },
      "endCoords": {
        "latitude": 39.720335,
        "longitude": -104.93951
      },
      "distanceMeters": 33113.1,
      "durationMs": 4599951,
      "drivingDurationMs": 4021111,
      "idlingDurationMs": 578840,
      "fuelConsumedMl": 4209,
      "fuelConsumedGallons": 1.112,
      "maxSpeedMph": 59.0,
      "averageSpeedMph": 16.1,
      "safetyEvents": [],
      "_no_driver_login": false,
      "_fuel_note": ""
    },
    {
      "id": "trip_48291004_20250221_001",
      "vehicleId": "48291004",
      "driverId": "22831003",
      "startMs": 1740126600000,
      "endMs": 1740130552245,
      "startLocation": {
        "latitude": 39.782133,
        "longitude": -104.930481
      },
      "endLocation": {
        "latitude": 39.76024,
        "longitude": -105.014003
      },
      "startAddress": "596 Cantrell Springs Apt. 393",
      "endAddress": "8755 Mann Walks Suite 641",
      "startCoords": {
        "latitude": 39.80781,
        "longitude": -105.047256
      },
      "endCoords": {
        "latitude": 39.763872,
        "longitude": -104.937067
      },
      "distanceMeters": 23818.4,
      "durationMs": 3952245,
      "drivingDurationMs": 3185528,
      "idlingDurationMs": 766717,
      "fuelConsumedMl": 3028,
      "fuelConsumedGallons": 0.8,
      "maxSpeedMph": 68.5,
      "averageSpeedMph": 13.5,
      "safetyEvents": [
        {
          "type": "speeding",
          "startMs": 1740127920000,
          "maxSpeedMph": 68.5
        }
      ],
      "_no_driver_login": false,
      "_fuel_note": "QUIRK 5: fuelConsumedGallons is in US gallons. Multiply by 3.785 for litres. Samsara does not link fuel to specific Onfleet tasks."
    },
    {
      "id": "trip_48291004_20250221_002",
      "vehicleId": "48291004",
      "driverId": "22831003",
      "startMs": 1740163980000,
      "endMs": 1740165928276,
      "startLocation": {
        "latitude": 39.733524,
        "longitude": -104.988029
      },
      "endLocation": {
        "latitude": 39.798594,
        "longitude": -104.906504
      },
      "startAddress": "4646 White Ports",
      "endAddress": "7878 Katie Wall",
      "startCoords": {
        "latitude": 39.774487,
        "longitude": -105.015499
      },
      "endCoords": {
        "latitude": 39.810357,
        "longitude": -104.954885
      },
      "distanceMeters": 11135.0,
      "durationMs": 1948276,
      "drivingDurationMs": 1748108,
      "idlingDurationMs": 200168,
      "fuelConsumedMl": 1416,
      "fuelConsumedGallons": 0.374,
      "maxSpeedMph": 70.0,
      "averageSpeedMph": 12.8,
      "safetyEvents": [
        {
          "type": "speeding",
          "startMs": 1740165780000,
          "maxSpeedMph": 70.0
        }
      ],
      "_no_driver_login": false,
      "_fuel_note": ""
    },
    {
      "id": "trip_48291004_20250221_003",
      "vehicleId": "48291004",
      "driverId": "22831003",
      "startMs": 1740135480000,
      "endMs": 1740140482586,
      "startLocation": {
        "latitude": 39.727961,
        "longitude": -104.929172
      },
      "endLocation": {
        "latitude": 39.753116,
        "longitude": -105.021901
      },
      "startAddress": "9771 Renee Hollow",
      "endAddress": "81159 Matthew Terrace Suite 774",
      "startCoords": {
        "latitude": 39.714199,
        "longitude": -105.086849
      },
      "endCoords": {
        "latitude": 39.722993,
        "longitude": -104.93238
      },
      "distanceMeters": 28188.1,
      "durationMs": 5002586,
      "drivingDurationMs": 4426962,
      "idlingDurationMs": 575624,
      "fuelConsumedMl": 3585,
      "fuelConsumedGallons": 0.947,
      "maxSpeedMph": 56.2,
      "averageSpeedMph": 12.6,
      "safetyEvents": [],
      "_no_driver_login": false,
      "_fuel_note": ""
    },
    {
      "id": "trip_48291004_20250221_004",
      "vehicleId": "48291004",
      "driverId": "22831003",
      "startMs": 1740127680000,
      "endMs": 1740141804992,
      "startLocation": {
        "latitude": 39.803276,
        "longitude": -104.954548
      },
      "endLocation": {
        "latitude": 39.773748,
        "longitude": -104.965281
      },
      "startAddress": "68351 Davidson Gateway Apt. 170",
      "endAddress": "34401 Tran Drive",
      "startCoords": {
        "latitude": 39.748333,
        "longitude": -105.001664
      },
      "endCoords": {
        "latitude": 39.754366,
        "longitude": -105.038782
      },
      "distanceMeters": 64352.3,
      "durationMs": 14124993,
      "drivingDurationMs": 11627371,
      "idlingDurationMs": 2497622,
      "fuelConsumedMl": 8180,
      "fuelConsumedGallons": 2.161,
      "maxSpeedMph": 50.6,
      "averageSpeedMph": 10.2,
      "safetyEvents": [],
      "_no_driver_login": false,
      "_fuel_note": ""
    },
    {
      "id": "trip_48291004_20250221_005",
      "vehicleId": "48291004",
      "driverId": "22831003",
      "startMs": 1740122340000,
      "endMs": 1740130372825,
      "startLocation": {
        "latitude": 39.714267,
        "longitude": -105.068097
      },
      "endLocation": {
        "latitude": 39.709872,
        "longitude": -104.930841
      },
      "startAddress": "21573 Klein Points",
      "endAddress": "3038 Webb Islands",
      "startCoords": {
        "latitude": 39.774608,
        "longitude": -105.064852
      },
      "endCoords": {
        "latitude": 39.719314,
        "longitude": -104.937091
      },
      "distanceMeters": 44486.7,
      "durationMs": 8032825,
      "drivingDurationMs": 7475153,
      "idlingDurationMs": 557673,
      "fuelConsumedMl": 5655,
      "fuelConsumedGallons": 1.494,
      "maxSpeedMph": 68.2,
      "averageSpeedMph": 12.4,
      "safetyEvents": [
        {
          "type": "speeding",
          "startMs": 1740127560000,
          "maxSpeedMph": 68.2
        }
      ],
      "_no_driver_login": false,
      "_fuel_note": ""
    },
    {
      "id": "trip_48291004_20250222_001",
      "vehicleId": "48291004",
      "driverId": "22831003",
      "startMs": 1740211380000,
      "endMs": 1740217793908,
      "startLocation": {
        "latitude": 39.794339,
        "longitude": -104.965306
      },
      "endLocation": {
        "latitude": 39.693584,
        "longitude": -105.021464
      },
      "startAddress": "18068 Foster Center",
      "endAddress": "08508 Gutierrez Path Apt. 165",
      "startCoords": {
        "latitude": 39.793126,
        "longitude": -104.991251
      },
      "endCoords": {
        "latitude": 39.732635,
        "longitude": -105.039216
      },
      "distanceMeters": 27462.5,
      "durationMs": 6413909,
      "drivingDurationMs": 5454431,
      "idlingDurationMs": 959478,
      "fuelConsumedMl": 3490,
      "fuelConsumedGallons": 0.922,
      "maxSpeedMph": 68.0,
      "averageSpeedMph": 9.6,
      "safetyEvents": [
        {
          "type": "speeding",
          "startMs": 1740217020000,
          "maxSpeedMph": 68.0
        }
      ],
      "_no_driver_login": false,
      "_fuel_note": "QUIRK 5: fuelConsumedGallons is in US gallons. Multiply by 3.785 for litres. Samsara does not link fuel to specific Onfleet tasks."
    },
    {
      "id": "trip_48291004_20250222_002",
      "vehicleId": "48291004",
      "driverId": "22831003",
      "startMs": 1740215940000,
      "endMs": 1740218350599,
      "startLocation": {
        "latitude": 39.818449,
        "longitude": -104.919284
      },
      "endLocation": {
        "latitude": 39.816759,
        "longitude": -105.063437
      },
      "startAddress": "74180 Katherine Fork Apt. 723",
      "endAddress": "026 Brittany Shore Apt. 348",
      "startCoords": {
        "latitude": 39.735099,
        "longitude": -104.9193
      },
      "endCoords": {
        "latitude": 39.786681,
        "longitude": -104.941918
      },
      "distanceMeters": 16413.0,
      "durationMs": 2410599,
      "drivingDurationMs": 2084145,
      "idlingDurationMs": 326454,
      "fuelConsumedMl": 2086,
      "fuelConsumedGallons": 0.551,
      "maxSpeedMph": 58.4,
      "averageSpeedMph": 15.2,
      "safetyEvents": [],
      "_no_driver_login": false,
      "_fuel_note": ""
    },
    {
      "id": "trip_48291004_20250222_003",
      "vehicleId": "48291004",
      "driverId": "22831003",
      "startMs": 1740222720000,
      "endMs": 1740231933940,
      "startLocation": {
        "latitude": 39.753309,
        "longitude": -104.928694
      },
      "endLocation": {
        "latitude": 39.692627,
        "longitude": -104.962013
      },
      "startAddress": "4874 Jessica Bridge",
      "endAddress": "9426 Mary Centers",
      "startCoords": {
        "latitude": 39.721419,
        "longitude": -105.032087
      },
      "endCoords": {
        "latitude": 39.793604,
        "longitude": -104.981941
      },
      "distanceMeters": 55309.7,
      "durationMs": 9213940,
      "drivingDurationMs": 8872676,
      "idlingDurationMs": 341264,
      "fuelConsumedMl": 7033,
      "fuelConsumedGallons": 1.858,
      "maxSpeedMph": 67.4,
      "averageSpeedMph": 13.4,
      "safetyEvents": [
        {
          "type": "speeding",
          "startMs": 1740231240000,
          "maxSpeedMph": 67.4
        }
      ],
      "_no_driver_login": false,
      "_fuel_note": ""
    },
    {
      "id": "trip_48291004_20250223_001",
      "vehicleId": "48291004",
      "driverId": "22831003",
      "startMs": 1740319200000,
      "endMs": 1740324622110,
      "startLocation": {
        "latitude": 39.703028,
        "longitude": -105.077612
      },
      "endLocation": {
        "latitude": 39.692644,
        "longitude": -104.981844
      },
      "startAddress": "67988 Kelly Glens",
      "endAddress": "7040 Carly Neck",
      "startCoords": {
        "latitude": 39.753229,
        "longitude": -104.95099
      },
      "endCoords": {
        "latitude": 39.811055,
        "longitude": -104.96666
      },
      "distanceMeters": 45053.9,
      "durationMs": 5422110,
      "drivingDurationMs": 5230651,
      "idlingDurationMs": 191459,
      "fuelConsumedMl": 5727,
      "fuelConsumedGallons": 1.513,
      "maxSpeedMph": 30.4,
      "averageSpeedMph": 18.6,
      "safetyEvents": [],
      "_no_driver_login": false,
      "_fuel_note": "QUIRK 5: fuelConsumedGallons is in US gallons. Multiply by 3.785 for litres. Samsara does not link fuel to specific Onfleet tasks."
    },
    {
      "id": "trip_48291004_20250223_002",
      "vehicleId": "48291004",
      "driverId": "22831003",
      "startMs": 1740296220000,
      "endMs": 1740299873122,
      "startLocation": {
        "latitude": 39.743164,
        "longitude": -105.043172
      },
      "endLocation": {
        "latitude": 39.722104,
        "longitude": -104.98264
      },
      "startAddress": "61029 Jenkins Plains Suite 948",
      "endAddress": "379 Gina Mission",
      "startCoords": {
        "latitude": 39.734785,
        "longitude": -105.030089
      },
      "endCoords": {
        "latitude": 39.820481,
        "longitude": -105.078085
      },
      "distanceMeters": 19708.3,
      "durationMs": 3653122,
      "drivingDurationMs": 3032873,
      "idlingDurationMs": 620249,
      "fuelConsumedMl": 2506,
      "fuelConsumedGallons": 0.662,
      "maxSpeedMph": 57.0,
      "averageSpeedMph": 12.1,
      "safetyEvents": [],
      "_no_driver_login": false,
      "_fuel_note": ""
    },
    {
      "id": "trip_48291004_20250223_003",
      "vehicleId": "48291004",
      "driverId": "22831003",
      "startMs": 1740334680000,
      "endMs": 1740344400000,
      "startLocation": {
        "latitude": 39.792626,
        "longitude": -105.034105
      },
      "endLocation": {
        "latitude": 39.764441,
        "longitude": -105.010021
      },
      "startAddress": "9451 Tracy Forge",
      "endAddress": "266 Patrick Plaza Apt. 410",
      "startCoords": {
        "latitude": 39.811552,
        "longitude": -104.9321
      },
      "endCoords": {
        "latitude": 39.768132,
        "longitude": -105.041166
      },
      "distanceMeters": 52129.3,
      "durationMs": 9720000,
      "drivingDurationMs": 7776000,
      "idlingDurationMs": 1944000,
      "fuelConsumedMl": 6628,
      "fuelConsumedGallons": 1.751,
      "maxSpeedMph": 68.1,
      "averageSpeedMph": 12.0,
      "safetyEvents": [
        {
          "type": "speeding",
          "startMs": 1740339240000,
          "maxSpeedMph": 68.1
        }
      ],
      "_no_driver_login": false,
      "_fuel_note": ""
    },
    {
      "id": "trip_48291004_20250224_001",
      "vehicleId": "48291004",
      "driverId": "22831003",
      "startMs": 1740408780000,
      "endMs": 1740421437047,
      "startLocation": {
        "latitude": 39.7225,
        "longitude": -105.086545
      },
      "endLocation": {
        "latitude": 39.767302,
        "longitude": -104.96459
      },
      "startAddress": "80566 Ross Mall Suite 626",
      "endAddress": "2928 Hartman Isle",
      "startCoords": {
        "latitude": 39.794616,
        "longitude": -104.977618
      },
      "endCoords": {
        "latitude": 39.72634,
        "longitude": -105.002899
      },
      "distanceMeters": 64804.7,
      "durationMs": 12657047,
      "drivingDurationMs": 11341921,
      "idlingDurationMs": 1315126,
      "fuelConsumedMl": 8241,
      "fuelConsumedGallons": 2.177,
      "maxSpeedMph": 32.9,
      "averageSpeedMph": 11.5,
      "safetyEvents": [],
      "_no_driver_login": false,
      "_fuel_note": "QUIRK 5: fuelConsumedGallons is in US gallons. Multiply by 3.785 for litres. Samsara does not link fuel to specific Onfleet tasks."
    },
    {
      "id": "trip_48291004_20250224_002",
      "vehicleId": "48291004",
      "driverId": "22831003",
      "startMs": 1740380040000,
      "endMs": 1740382731311,
      "startLocation": {
        "latitude": 39.703071,
        "longitude": -104.904905
      },
      "endLocation": {
        "latitude": 39.753081,
        "longitude": -104.943642
      },
      "startAddress": "494 Mason Stream",
      "endAddress": "1970 Williams Alley",
      "startCoords": {
        "latitude": 39.761931,
        "longitude": -104.975726
      },
      "endCoords": {
        "latitude": 39.795217,
        "longitude": -104.904927
      },
      "distanceMeters": 16993.4,
      "durationMs": 2691311,
      "drivingDurationMs": 2326048,
      "idlingDurationMs": 365264,
      "fuelConsumedMl": 2161,
      "fuelConsumedGallons": 0.571,
      "maxSpeedMph": 37.5,
      "averageSpeedMph": 14.1,
      "safetyEvents": [],
      "_no_driver_login": false,
      "_fuel_note": ""
    },
    {
      "id": "trip_48291004_20250224_003",
      "vehicleId": "48291004",
      "driverId": "22831003",
      "startMs": 1740406020000,
      "endMs": 1740408852204,
      "startLocation": {
        "latitude": 39.7907,
        "longitude": -105.04815
      },
      "endLocation": {
        "latitude": 39.806242,
        "longitude": -104.969321
      },
      "startAddress": "9217 Huffman Fields",
      "endAddress": "614 Drake Heights",
      "startCoords": {
        "latitude": 39.807862,
        "longitude": -104.903688
      },
      "endCoords": {
        "latitude": 39.734847,
        "longitude": -104.988571
      },
      "distanceMeters": 14194.0,
      "durationMs": 2832205,
      "drivingDurationMs": 2573182,
      "idlingDurationMs": 259023,
      "fuelConsumedMl": 1806,
      "fuelConsumedGallons": 0.477,
      "maxSpeedMph": 52.6,
      "averageSpeedMph": 11.2,
      "safetyEvents": [],
      "_no_driver_login": false,
      "_fuel_note": ""
    },
    {
      "id": "trip_48291004_20250225_001",
      "vehicleId": "48291004",
      "driverId": "22831003",
      "startMs": 1740477300000,
      "endMs": 1740478849707,
      "startLocation": {
        "latitude": 39.762323,
        "longitude": -104.962948
      },
      "endLocation": {
        "latitude": 39.728954,
        "longitude": -104.917006
      },
      "startAddress": "96801 Michelle Land",
      "endAddress": "312 Autumn Dam Apt. 476",
      "startCoords": {
        "latitude": 39.756578,
        "longitude": -105.016002
      },
      "endCoords": {
        "latitude": 39.820522,
        "longitude": -105.035188
      },
      "distanceMeters": 11271.6,
      "durationMs": 1549707,
      "drivingDurationMs": 1289677,
      "idlingDurationMs": 260030,
      "fuelConsumedMl": 1435,
      "fuelConsumedGallons": 0.379,
      "maxSpeedMph": 28.7,
      "averageSpeedMph": 16.3,
      "safetyEvents": [],
      "_no_driver_login": false,
      "_fuel_note": "QUIRK 5: fuelConsumedGallons is in US gallons. Multiply by 3.785 for litres. Samsara does not link fuel to specific Onfleet tasks."
    },
    {
      "id": "trip_48291004_20250225_002",
      "vehicleId": "48291004",
      "driverId": "22831003",
      "startMs": 1740488880000,
      "endMs": 1740499908868,
      "startLocation": {
        "latitude": 39.780855,
        "longitude": -105.013714
      },
      "endLocation": {
        "latitude": 39.735349,
        "longitude": -105.007
      },
      "startAddress": "162 Walker Plains",
      "endAddress": "33017 Osborn Drive",
      "startCoords": {
        "latitude": 39.782844,
        "longitude": -104.927962
      },
      "endCoords": {
        "latitude": 39.715865,
        "longitude": -104.951288
      },
      "distanceMeters": 56152.7,
      "durationMs": 11028868,
      "drivingDurationMs": 9552906,
      "idlingDurationMs": 1475962,
      "fuelConsumedMl": 7139,
      "fuelConsumedGallons": 1.886,
      "maxSpeedMph": 57.8,
      "averageSpeedMph": 11.4,
      "safetyEvents": [],
      "_no_driver_login": false,
      "_fuel_note": ""
    },
    {
      "id": "trip_48291004_20250226_001",
      "vehicleId": "48291004",
      "driverId": "22831003",
      "startMs": 1740560880000,
      "endMs": 1740565659013,
      "startLocation": {
        "latitude": 39.814671,
        "longitude": -105.078665
      },
      "endLocation": {
        "latitude": 39.806622,
        "longitude": -104.97188
      },
      "startAddress": "3267 Michael Valley Suite 875",
      "endAddress": "28482 Love Stravenue",
      "startCoords": {
        "latitude": 39.71191,
        "longitude": -104.990244
      },
      "endCoords": {
        "latitude": 39.771552,
        "longitude": -105.00398
      },
      "distanceMeters": 38216.2,
      "durationMs": 4779013,
      "drivingDurationMs": 4514879,
      "idlingDurationMs": 264134,
      "fuelConsumedMl": 4860,
      "fuelConsumedGallons": 1.284,
      "maxSpeedMph": 65.9,
      "averageSpeedMph": 17.9,
      "safetyEvents": [
        {
          "type": "speeding",
          "startMs": 1740562500000,
          "maxSpeedMph": 65.9
        }
      ],
      "_no_driver_login": false,
      "_fuel_note": "QUIRK 5: fuelConsumedGallons is in US gallons. Multiply by 3.785 for litres. Samsara does not link fuel to specific Onfleet tasks."
    },
    {
      "id": "trip_48291004_20250226_002",
      "vehicleId": "48291004",
      "driverId": "22831003",
      "startMs": 1740582060000,
      "endMs": 1740589516705,
      "startLocation": {
        "latitude": 39.769671,
        "longitude": -104.984476
      },
      "endLocation": {
        "latitude": 39.709353,
        "longitude": -104.928231
      },
      "startAddress": "981 Griffin Stravenue Suite 001",
      "endAddress": "27407 Robert Fields",
      "startCoords": {
        "latitude": 39.709769,
        "longitude": -104.981539
      },
      "endCoords": {
        "latitude": 39.807081,
        "longitude": -104.99656
      },
      "distanceMeters": 33127.1,
      "durationMs": 7456706,
      "drivingDurationMs": 6242494,
      "idlingDurationMs": 1214211,
      "fuelConsumedMl": 4213,
      "fuelConsumedGallons": 1.113,
      "maxSpeedMph": 38.1,
      "averageSpeedMph": 9.9,
      "safetyEvents": [],
      "_no_driver_login": false,
      "_fuel_note": ""
    },
    {
      "id": "trip_48291004_20250226_003",
      "vehicleId": "48291004",
      "driverId": null,
      "startMs": 1740551700000,
      "endMs": 1740558258358,
      "startLocation": {
        "latitude": 39.707886,
        "longitude": -104.914016
      },
      "endLocation": {
        "latitude": 39.715289,
        "longitude": -104.924502
      },
      "startAddress": "3119 Thomas Freeway Apt. 547",
      "endAddress": "6897 Michael Fort Suite 472",
      "startCoords": {
        "latitude": 39.815284,
        "longitude": -105.021914
      },
      "endCoords": {
        "latitude": 39.813811,
        "longitude": -105.063968
      },
      "distanceMeters": 45947.8,
      "durationMs": 6558359,
      "drivingDurationMs": 5360713,
      "idlingDurationMs": 1197646,
      "fuelConsumedMl": 5841,
      "fuelConsumedGallons": 1.543,
      "maxSpeedMph": 70.7,
      "averageSpeedMph": 15.7,
      "safetyEvents": [
        {
          "type": "speeding",
          "startMs": 1740553740000,
          "maxSpeedMph": 70.7
        }
      ],
      "_no_driver_login": true,
      "_fuel_note": ""
    },
    {
      "id": "trip_48291004_20250226_004",
      "vehicleId": "48291004",
      "driverId": "22831003",
      "startMs": 1740557040000,
      "endMs": 1740574131222,
      "startLocation": {
        "latitude": 39.742843,
        "longitude": -105.037857
      },
      "endLocation": {
        "latitude": 39.800976,
        "longitude": -104.97577
      },
      "startAddress": "76832 Scott Tunnel Suite 426",
      "endAddress": "04676 Bush Ridges",
      "startCoords": {
        "latitude": 39.768753,
        "longitude": -104.923321
      },
      "endCoords": {
        "latitude": 39.801307,
        "longitude": -104.995156
      },
      "distanceMeters": 84286.2,
      "durationMs": 17091222,
      "drivingDurationMs": 16131648,
      "idlingDurationMs": 959574,
      "fuelConsumedMl": 10716,
      "fuelConsumedGallons": 2.831,
      "maxSpeedMph": 51.0,
      "averageSpeedMph": 11.0,
      "safetyEvents": [],
      "_no_driver_login": false,
      "_fuel_note": ""
    },
    {
      "id": "trip_48291004_20250226_005",
      "vehicleId": "48291004",
      "driverId": "22831003",
      "startMs": 1740572460000,
      "endMs": 1740584343208,
      "startLocation": {
        "latitude": 39.802343,
        "longitude": -105.061405
      },
      "endLocation": {
        "latitude": 39.724418,
        "longitude": -105.051552
      },
      "startAddress": "0231 Michael Road",
      "endAddress": "8784 Kristen Club",
      "startCoords": {
        "latitude": 39.75339,
        "longitude": -104.909195
      },
      "endCoords": {
        "latitude": 39.755764,
        "longitude": -105.021076
      },
      "distanceMeters": 60466.2,
      "durationMs": 11883208,
      "drivingDurationMs": 10254285,
      "idlingDurationMs": 1628923,
      "fuelConsumedMl": 7688,
      "fuelConsumedGallons": 2.031,
      "maxSpeedMph": 38.6,
      "averageSpeedMph": 11.4,
      "safetyEvents": [],
      "_no_driver_login": false,
      "_fuel_note": ""
    },
    {
      "id": "trip_48291004_20250227_001",
      "vehicleId": "48291004",
      "driverId": "22831003",
      "startMs": 1740656220000,
      "endMs": 1740668374056,
      "startLocation": {
        "latitude": 39.793424,
        "longitude": -105.025444
      },
      "endLocation": {
        "latitude": 39.803809,
        "longitude": -104.934619
      },
      "startAddress": "4714 Lewis Cliff Suite 236",
      "endAddress": "144 Benson Street",
      "startCoords": {
        "latitude": 39.748293,
        "longitude": -104.941944
      },
      "endCoords": {
        "latitude": 39.720565,
        "longitude": -105.048187
      },
      "distanceMeters": 70765.7,
      "durationMs": 12154057,
      "drivingDurationMs": 9828280,
      "idlingDurationMs": 2325777,
      "fuelConsumedMl": 8998,
      "fuelConsumedGallons": 2.377,
      "maxSpeedMph": 61.4,
      "averageSpeedMph": 13.0,
      "safetyEvents": [],
      "_no_driver_login": false,
      "_fuel_note": "QUIRK 5: fuelConsumedGallons is in US gallons. Multiply by 3.785 for litres. Samsara does not link fuel to specific Onfleet tasks."
    },
    {
      "id": "trip_48291004_20250227_002",
      "vehicleId": "48291004",
      "driverId": "22831003",
      "startMs": 1740680760000,
      "endMs": 1740687883299,
      "startLocation": {
        "latitude": 39.811635,
        "longitude": -104.901845
      },
      "endLocation": {
        "latitude": 39.739029,
        "longitude": -104.937361
      },
      "startAddress": "83701 John Meadow Apt. 750",
      "endAddress": "88795 Charles Land Apt. 372",
      "startCoords": {
        "latitude": 39.718221,
        "longitude": -105.063519
      },
      "endCoords": {
        "latitude": 39.782091,
        "longitude": -104.952194
      },