{
  "vehicleId": "41090742",
  "vehicleName": "DEN-MOTO-04",
  "month": "2025_02",
  "pagination": {
    "endCursor": "trip_41090742_20250228_8121",
    "hasNextPage": false
  },
  "trips": [
    {
      "id": "trip_41090742_20250201_4241",
      "vehicleId": "41090742",
      "driverId": "20000002",
      "startMs": 1738368089000,
      "endMs": 1738370530000,
      "startAddress": "655 Brandi Bridge",
      "endAddress": "19430 Fuller Plains Suite 716",
      "startCoords": {
        "latitude": 39.806571,
        "longitude": -104.922514
      },
      "endCoords": {
        "latitude": 39.687079,
        "longitude": -104.955927
      },
      "distanceMeters": 12592.6,
      "durationMs": 2441000,
      "drivingDurationMs": 1942889,
      "idlingDurationMs": 498111,
      "fuelConsumedMl": 568,
      "fuelConsumedGallons": 0.15,
      "maxSpeedMph": 44.5,
      "averageSpeedMph": 11.5,
      "safetyEvents": []
    },
    {
      "id": "trip_41090742_20250201_4272",
      "vehicleId": "41090742",
      "driverId": "20000015",
      "startMs": 1738388374000,
      "endMs": 1738389934000,
      "startAddress": "82736 Daniel Streets",
      "endAddress": "677 Kristin Pine",
      "startCoords": {
        "latitude": 39.764261,
        "longitude": -105.082907
      },
      "endCoords": {
        "latitude": 39.778711,
        "longitude": -105.038195
      },
      "distanceMeters": 12257.2,
      "durationMs": 1560000,
      "drivingDurationMs": 1297496,
      "idlingDurationMs": 262504,
      "fuelConsumedMl": 553,
      "fuelConsumedGallons": 0.146,
      "maxSpeedMph": 38.3,
      "averageSpeedMph": 17.6,
      "safetyEvents": []
    },
    {
      "id": "trip_41090742_20250201_4299",
      "vehicleId": "41090742",
      "driverId": "20000015",
      "startMs": 1738406750000,
      "endMs": 1738409390000,
      "startAddress": "76523 Leslie Cape Apt. 916",
      "endAddress": "92980 Bass Keys Apt. 527",
      "startCoords": {
        "latitude": 39.776499,
        "longitude": -105.015892
      },
      "endCoords": {
        "latitude": 39.697661,
        "longitude": -105.068544
      },
      "distanceMeters": 14544.7,
      "durationMs": 2640000,
      "drivingDurationMs": 2052920,
      "idlingDurationMs": 587080,
      "fuelConsumedMl": 659,
      "fuelConsumedGallons": 0.174,
      "maxSpeedMph": 38.9,
      "averageSpeedMph": 12.3,
      "safetyEvents": []
    },
    {
      "id": "trip_41090742_20250201_4328",
      "vehicleId": "41090742",
      "driverId": "20000021",
      "startMs": 1738422648000,
      "endMs": 1738428047000,
      "startAddress": "3921 Donald Ports Suite 187",
      "endAddress": "001 Derrick Ferry",
      "startCoords": {
        "latitude": 39.752346,
        "longitude": -104.90433
      },
      "endCoords": {
        "latitude": 39.802005,
        "longitude": -105.076192
      },
      "distanceMeters": 45844.5,
      "durationMs": 5399000,
      "drivingDurationMs": 4361193,
      "idlingDurationMs": 1037807,
      "fuelConsumedMl": 2074,
      "fuelConsumedGallons": 0.548,
      "maxSpeedMph": 43.2,
      "averageSpeedMph": 19.0,
      "safetyEvents": []
    },
    {
      "id": "trip_41090742_20250201_4357",
      "vehicleId": "41090742",
      "driverId": "20000005",
      "startMs": 1738439263000,
      "endMs": 1738441123000,
      "startAddress": "5171 Hudson Valleys",
      "endAddress": "83153 Wayne Loop Apt. 105",
      "startCoords": {
        "latitude": 39.689394,
        "longitude": -104.937264
      },
      "endCoords": {
        "latitude": 39.761414,
        "longitude": -104.96923
      },
      "distanceMeters": 14813.9,
      "durationMs": 1860000,
      "drivingDurationMs": 1498025,
      "idlingDurationMs": 361975,
      "fuelConsumedMl": 670,
      "fuelConsumedGallons": 0.177,
      "maxSpeedMph": 43.5,
      "averageSpeedMph": 17.8,
      "safetyEvents": []
    },
    {
      "id": "trip_41090742_20250202_4383",
      "vehicleId": "41090742",
      "driverId": "20000012",
      "startMs": 1738456540000,
      "endMs": 1738462915000,
      "startAddress": "9109 Dorothy Curve Apt. 896",
      "endAddress": "251 Padilla Road Apt. 455",
      "startCoords": {
        "latitude": 39.795782,
        "longitude": -104.916397
      },
      "endCoords": {
        "latitude": 39.737413,
        "longitude": -104.978246
      },
      "distanceMeters": 37469.0,
      "durationMs": 6375000,
      "drivingDurationMs": 5519297,
      "idlingDurationMs": 855703,
      "fuelConsumedMl": 1696,
      "fuelConsumedGallons": 0.448,
      "maxSpeedMph": 32.8,
      "averageSpeedMph": 13.1,
      "safetyEvents": []
    },
    {
      "id": "trip_41090742_20250202_4407",
      "vehicleId": "41090742",
      "driverId": "20000003",
      "startMs": 1738479539000,
      "endMs": 1738487091000,
      "startAddress": "8755 Stephanie Shore",
      "endAddress": "787 Sanchez Freeway Suite 642",
      "startCoords": {
        "latitude": 39.775438,
        "longitude": -104.903146
      },
      "endCoords": {
        "latitude": 39.800458,
        "longitude": -104.932326
      },
      "distanceMeters": 66192.4,
      "durationMs": 7552000,
      "drivingDurationMs": 6617380,
      "idlingDurationMs": 934620,
      "fuelConsumedMl": 2994,
      "fuelConsumedGallons": 0.791,
      "maxSpeedMph": 41.5,
      "averageSpeedMph": 19.6,
      "safetyEvents": []
    },
    {
      "id": "trip_41090742_20250202_4432",
      "vehicleId": "41090742",
      "driverId": "20000005",
      "startMs": 1738498345000,
      "endMs": 1738500205000,
      "startAddress": "809 Perez Mount",
      "endAddress": "6930 Zamora Tunnel Suite 105",
      "startCoords": {
        "latitude": 39.757342,
        "longitude": -105.011439
      },
      "endCoords": {
        "latitude": 39.768064,
        "longitude": -105.036259
      },
      "distanceMeters": 11607.4,
      "durationMs": 1860000,
      "drivingDurationMs": 1599543,
      "idlingDurationMs": 260457,
      "fuelConsumedMl": 526,
      "fuelConsumedGallons": 0.139,
      "maxSpeedMph": 36.9,
      "averageSpeedMph": 14.0,
      "safetyEvents": []
    },
    {
      "id": "trip_41090742_20250202_4457",
      "vehicleId": "41090742",
      "driverId": "20000016",
      "startMs": 1738517766000,
      "endMs": 1738519266000,
      "startAddress": "21249 Hill Spring",
      "endAddress": "903 Matthew Manor",
      "startCoords": {
        "latitude": 39.792906,
        "longitude": -105.056297
      },
      "endCoords": {
        "latitude": 39.757871,
        "longitude": -105.022427
      },
      "distanceMeters": 10038.2,
      "durationMs": 1500000,
      "drivingDurationMs": 1153791,
      "idlingDurationMs": 346209,
      "fuelConsumedMl": 454,
      "fuelConsumedGallons": 0.12,
      "maxSpeedMph": 35.8,
      "averageSpeedMph": 15.0,
      "safetyEvents": []
    },
    {
      "id": "trip_41090742_20250203_4488",
      "vehicleId": "41090742",
      "driverId": "20000022",
      "startMs": 1738561320000,
      "endMs": 1738563840000,
      "startAddress": "867 Cook Divide",
      "endAddress": "839 Kyle Summit",
      "startCoords": {
        "latitude": 39.819299,
        "longitude": -104.939238
      },
      "endCoords": {
        "latitude": 39.755083,
        "longitude": -104.922856
      },
      "distanceMeters": 17981.8,
      "durationMs": 2520000,
      "drivingDurationMs": 1954699,
      "idlingDurationMs": 565301,
      "fuelConsumedMl": 814,
      "fuelConsumedGallons": 0.215,
      "maxSpeedMph": 42.4,
      "averageSpeedMph": 16.0,
      "safetyEvents": []
    },
    {
      "id": "trip_41090742_20250203_4518",
      "vehicleId": "41090742",
      "driverId": "20000005",
      "startMs": 1738581185000,
      "endMs": 1738585099000,
      "startAddress": "7267 Jefferson Forge Suite 588",
      "endAddress": "533 Luis Park",
      "startCoords": {
        "latitude": 39.78937,
        "longitude": -105.049232
      },
      "endCoords": {
        "latitude": 39.792941,
        "longitude": -105.072128
      },
      "distanceMeters": 25827.8,
      "durationMs": 3914000,
      "drivingDurationMs": 3110286,
      "idlingDurationMs": 803714,
      "fuelConsumedMl": 1170,
      "fuelConsumedGallons": 0.309,
      "maxSpeedMph": 38.4,
      "averageSpeedMph": 14.8,
      "safetyEvents": []
    },
    {
      "id": "trip_41090742_20250203_4549",
      "vehicleId": "41090742",
      "driverId": "20000018",
      "startMs": 1738595217000,
      "endMs": 1738605186000,
      "startAddress": "6919 Hughes Port",
      "endAddress": "30241 Juarez River Suite 496",
      "startCoords": {
        "latitude": 39.82135,
        "longitude": -104.952193
      },
      "endCoords": {
        "latitude": 39.685179,
        "longitude": -105.05791
      },
      "distanceMeters": 75394.9,
      "durationMs": 9969000,
      "drivingDurationMs": 8027560,
      "idlingDurationMs": 1941440,
      "fuelConsumedMl": 3411,
      "fuelConsumedGallons": 0.901,
      "maxSpeedMph": 34.2,
      "averageSpeedMph": 16.9,
      "safetyEvents": []
    },
    {
      "id": "trip_41090742_20250203_4579",
      "vehicleId": "41090742",
      "driverId": "20000019",
      "startMs": 1738608565000,
      "endMs": 1738620087000,
      "startAddress": "190 Joan Trail",
      "endAddress": "28401 Taylor Forges",
      "startCoords": {
        "latitude": 39.826872,
        "longitude": -104.924566
      },
      "endCoords": {
        "latitude": 39.753819,
        "longitude": -104.934294
      },
      "distanceMeters": 89249.1,
      "durationMs": 11522000,
      "drivingDurationMs": 9101733,
      "idlingDurationMs": 2420267,
      "fuelConsumedMl": 4035,
      "fuelConsumedGallons": 1.066,
      "maxSpeedMph": 37.1,
      "averageSpeedMph": 17.3,
      "safetyEvents": []
    },
    {
      "id": "trip_41090742_20250203_4609",
      "vehicleId": "41090742",
      "driverId": "20000011",
      "startMs": 1738626123000,
      "endMs": 1738627863000,
      "startAddress": "911 Barber Inlet Suite 618",
      "endAddress": "20540 Romero Trail Suite 576",
      "startCoords": {
        "latitude": 39.749471,
        "longitude": -105.023902
      },
      "endCoords": {
        "latitude": 39.793635,
        "longitude": -104.901966
      },
      "distanceMeters": 9046.9,
      "durationMs": 1740000,
      "drivingDurationMs": 1342864,
      "idlingDurationMs": 397136,
      "fuelConsumedMl": 409,
      "fuelConsumedGallons": 0.108,
      "maxSpeedMph": 39.9,
      "averageSpeedMph": 11.6,
      "safetyEvents": []
    },
    {
      "id": "trip_41090742_20250204_4637",
      "vehicleId": "41090742",
      "driverId": "20000012",
      "startMs": 1738642354000,
      "endMs": 1738645813000,
      "startAddress": "02023 Lawson Lakes Apt. 961",
      "endAddress": "38628 Melissa Points",
      "startCoords": {
        "latitude": 39.723152,
        "longitude": -104.971613
      },
      "endCoords": {
        "latitude": 39.734095,
        "longitude": -104.924726
      },
      "distanceMeters": 20990.1,
      "durationMs": 3459000,
      "drivingDurationMs": 2874833,
      "idlingDurationMs": 584167,
      "fuelConsumedMl": 950,
      "fuelConsumedGallons": 0.251,
      "maxSpeedMph": 46.1,
      "averageSpeedMph": 13.6,
      "safetyEvents": []
    },
    {
      "id": "trip_41090742_20250204_4665",
      "vehicleId": "41090742",
      "driverId": "20000011",
      "startMs": 1738658475000,
      "endMs": 1738682959000,
      "startAddress": "335 Flores Mission",
      "endAddress": "5825 Henson Extension Apt. 772",
      "startCoords": {
        "latitude": 39.768215,
        "longitude": -105.051382
      },
      "endCoords": {
        "latitude": 39.686569,
        "longitude": -104.975075
      },
      "distanceMeters": 195411.8,
      "durationMs": 24484000,
      "drivingDurationMs": 18677209,
      "idlingDurationMs": 5806791,
      "fuelConsumedMl": 8839,
      "fuelConsumedGallons": 2.335,
      "maxSpeedMph": 43.1,
      "averageSpeedMph": 17.9,
      "safetyEvents": []
    },
    {
      "id": "trip_41090742_20250204_4720",
      "vehicleId": "41090742",
      "driverId": "20000003",
      "startMs": 1738684240000,
      "endMs": 1738701259000,
      "startAddress": "9433 Michael Road Apt. 166",
      "endAddress": "445 Danielle Spring Suite 217",
      "startCoords": {
        "latitude": 39.794307,
        "longitude": -104.986132
      },
      "endCoords": {
        "latitude": 39.69104,
        "longitude": -104.963728
      },
      "distanceMeters": 139859.1,
      "durationMs": 17019000,
      "drivingDurationMs": 14430436,
      "idlingDurationMs": 2588564,
      "fuelConsumedMl": 6325,
      "fuelConsumedGallons": 1.671,
      "maxSpeedMph": 31.9,
      "averageSpeedMph": 18.4,
      "safetyEvents": []
    },
    {
      "id": "trip_41090742_20250204_4748",
      "vehicleId": "41090742",
      "driverId": "20000007",
      "startMs": 1738701546000,
      "endMs": 1738705349000,
      "startAddress": "7441 Justin Loop",
      "endAddress": "071 Jones Landing Apt. 465",
      "startCoords": {
        "latitude": 39.79244,
        "longitude": -104.924212
      },
      "endCoords": {
        "latitude": 39.763392,
        "longitude": -104.987986
      },
      "distanceMeters": 20968.3,
      "durationMs": 3803000,
      "drivingDurationMs": 3298263,
      "idlingDurationMs": 504737,
      "fuelConsumedMl": 950,
      "fuelConsumedGallons": 0.251,
      "maxSpeedMph": 39.1,
      "averageSpeedMph": 12.3,
      "safetyEvents": []
    },
    {
      "id": "trip_41090742_20250205_4775",
      "vehicleId": "41090742",
      "driverId": "20000021",
      "startMs": 1738723177000,
      "endMs": 1738727247000,
      "startAddress": "015 Cannon Island",
      "endAddress": "69595 Ashley Islands Apt. 989",
      "startCoords": {
        "latitude": 39.809305,
        "longitude": -104.929131
      },
      "endCoords": {
        "latitude": 39.777902,
        "longitude": -104.918107
      },
      "distanceMeters": 30842.7,
      "durationMs": 4070000,
      "drivingDurationMs": 3300786,
      "idlingDurationMs": 769214,
      "fuelConsumedMl": 1397,
      "fuelConsumedGallons": 0.369,
      "maxSpeedMph": 32.0,
      "averageSpeedMph": 17.0,
      "safetyEvents": []
    },
    {
      "id": "trip_41090742_20250205_4803",
      "vehicleId": "41090742",
      "driverId": "20000021",
      "startMs": 1738745820000,
      "endMs": 1738747560000,
      "startAddress": "383 Stanley Way",
      "endAddress": "2842 Miller Road Suite 565",
      "startCoords": {
        "latitude": 39.727674,
        "longitude": -105.061584
      },
      "endCoords": {
        "latitude": 39.698101,
        "longitude": -104.943786
      },
      "distanceMeters": 13760.2,
      "durationMs": 1740000,
      "drivingDurationMs": 1435674,
      "idlingDurationMs": 304326,
      "fuelConsumedMl": 621,
      "fuelConsumedGallons": 0.164,
      "maxSpeedMph": 44.8,
      "averageSpeedMph": 17.7,
      "safetyEvents": []
    },
    {
      "id": "trip_41090742_20250205_4834",
      "vehicleId": "41090742",
      "driverId": "20000006",
      "startMs": 1738761487000,
      "endMs": 1738762687000,
      "startAddress": "39746 Mendez Turnpike Apt. 464",
      "endAddress": "7520 Orozco Trace",
      "startCoords": {
        "latitude": 39.768782,
        "longitude": -104.90896
      },
      "endCoords": {
        "latitude": 39.712687,
        "longitude": -105.039913
      },
      "distanceMeters": 6870.9,
      "durationMs": 1200000,
      "drivingDurationMs": 948853,
      "idlingDurationMs": 251147,
      "fuelConsumedMl": 310,
      "fuelConsumedGallons": 0.082,
      "maxSpeedMph": 40.4,
      "averageSpeedMph": 12.8,
      "safetyEvents": []
    },
    {
      "id": "trip_41090742_20250205_4864",
      "vehicleId": "41090742",
      "driverId": "20000002",
      "startMs": 1738777712000,
      "endMs": 1738780321000,
      "startAddress": "733 Kevin Valley Apt. 597",
      "endAddress": "351 Matthew Lakes",
      "startCoords": {
        "latitude": 39.782382,
        "longitude": -105.025399
      },
      "endCoords": {
        "latitude": 39.813772,
        "longitude": -105.074195
      },
      "distanceMeters": 22002.6,
      "durationMs": 2609000,
      "drivingDurationMs": 2325749,
      "idlingDurationMs": 283251,
      "fuelConsumedMl": 996,
      "fuelConsumedGallons": 0.263,
      "maxSpeedMph": 40.8,
      "averageSpeedMph": 18.9,
      "safetyEvents": []
    },
    {
      "id": "trip_41090742_20250205_4889",
      "vehicleId": "41090742",
      "driverId": "20000016",
      "startMs": 1738787352000,
      "endMs": 1738794836000,
      "startAddress": "817 Weeks Plaza Apt. 794",
      "endAddress": "1303 Jessica Valleys Suite 622",
      "startCoords": {
        "latitude": 39.816717,
        "longitude": -105.012465
      },
      "endCoords": {
        "latitude": 39.732753,
        "longitude": -105.039608
      },
      "distanceMeters": 43842.4,
      "durationMs": 7484000,
      "drivingDurationMs": 6517752,
      "idlingDurationMs": 966248,
      "fuelConsumedMl": 1984,
      "fuelConsumedGallons": 0.524,
      "maxSpeedMph": 38.8,
      "averageSpeedMph": 13.1,
      "safetyEvents": []
    },
    {
      "id": "trip_41090742_20250206_4918",
      "vehicleId": "41090742",
      "driverId": "20000009",
      "startMs": 1738810456000,
      "endMs": 1738812496000,
      "startAddress": "7506 Joshua Mountain Apt. 944",
      "endAddress": "74076 Ramirez Heights Apt. 061",
      "startCoords": {
        "latitude": 39.822433,
        "longitude": -105.045514
      },
      "endCoords": {
        "latitude": 39.735393,
        "longitude": -104.932094
      },
      "distanceMeters": 10673.8,
      "durationMs": 2040000,
      "drivingDurationMs": 1710303,
      "idlingDurationMs": 329697,
      "fuelConsumedMl": 485,
      "fuelConsumedGallons": 0.128,
      "maxSpeedMph": 39.0,
      "averageSpeedMph": 11.7,
      "safetyEvents": []
    },
    {
      "id": "trip_41090742_20250206_4947",
      "vehicleId": "41090742",
      "driverId": "20000008",
      "startMs": 1738827798000,
      "endMs": 1738830138000,
      "startAddress": "645 Ricardo Plaza Suite 051",
      "endAddress": "701 Cynthia Landing",
      "startCoords": {
        "latitude": 39.819692,
        "longitude": -104.900268
      },
      "endCoords": {
        "latitude": 39.811448,
        "longitude": -105.077048
      },
      "distanceMeters": 18127.4,
      "durationMs": 2340000,
      "drivingDurationMs": 1982563,
      "idlingDurationMs": 357437,
      "fuelConsumedMl": 821,
      "fuelConsumedGallons": 0.217,
      "maxSpeedMph": 37.7,
      "averageSpeedMph": 17.3,
      "safetyEvents": []
    },
    {
      "id": "trip_41090742_20250206_4972",
      "vehicleId": "41090742",
      "driverId": "20000020",
      "startMs": 1738840163000,
      "endMs": 1738870905000,
      "startAddress": "8678 Nichole Parkway",
      "endAddress": "78381 Perkins Square Suite 234",
      "startCoords": {
        "latitude": 39.691747,
        "longitude": -104.925707
      },
      "endCoords": {
        "latitude": 39.817259,
        "longitude": -104.929202
      },
      "distanceMeters": 198561.6,
      "durationMs": 30742000,
      "drivingDurationMs": 26450263,
      "idlingDurationMs": 4291737,
      "fuelConsumedMl": 8983,
      "fuelConsumedGallons": 2.373,
      "maxSpeedMph": 38.8,
      "averageSpeedMph": 14.4,
      "safetyEvents": []
    },
    {
      "id": "trip_41090742_20250206_5038",
      "vehicleId": "41090742",
      "driverId": "20000006",
      "startMs": 1738870995000,
      "endMs": 1738878014000,
      "startAddress": "0190 Hutchinson Knoll",
      "endAddress": "313 Watson Mill",
      "startCoords": {
        "latitude": 39.698558,
        "longitude": -105.006885
      },
      "endCoords": {
        "latitude": 39.804163,
        "longitude": -104.995519
      },
      "distanceMeters": 51249.5,
      "durationMs": 7019000,
      "drivingDurationMs": 5396898,
      "idlingDurationMs": 1622102,
      "fuelConsumedMl": 2317,
      "fuelConsumedGallons": 0.612,
      "maxSpeedMph": 31.3,
      "averageSpeedMph": 16.3,
      "safetyEvents": []
    },
    {
      "id": "trip_41090742_20250207_5068",
      "vehicleId": "41090742",
      "driverId": "20000014",
      "startMs": 1738889094000,
      "endMs": 1738900036000,
      "startAddress": "80533 Lewis Lane Suite 882",
      "endAddress": "8815 Kimberly Place Suite 002",
      "startCoords": {
        "latitude": 39.712843,
        "longitude": -105.050667
      },
      "endCoords": {
        "latitude": 39.771534,
        "longitude": -104.958533
      },
      "distanceMeters": 67351.9,
      "durationMs": 10942000,
      "drivingDurationMs": 8758219,
      "idlingDurationMs": 2183781,
      "fuelConsumedMl": 3047,
      "fuelConsumedGallons": 0.805,
      "maxSpeedMph": 45.2,
      "averageSpeedMph": 13.8,
      "safetyEvents": []
    },
    {
      "id": "trip_41090742_20250207_5097",
      "vehicleId": "41090742",
      "driverId": "20000004",
      "startMs": 1738910356000,
      "endMs": 1738912756000,
      "startAddress": "876 Reid Neck",
      "endAddress": "240 Joseph Knoll Suite 839",
      "startCoords": {
        "latitude": 39.762766,
        "longitude": -105.044138
      },
      "endCoords": {
        "latitude": 39.767063,
        "longitude": -105.036091
      },
      "distanceMeters": 14156.3,
      "durationMs": 2400000,
      "drivingDurationMs": 1808994,
      "idlingDurationMs": 591006,
      "fuelConsumedMl": 640,
      "fuelConsumedGallons": 0.169,
      "maxSpeedMph": 35.0,
      "averageSpeedMph": 13.2,
      "safetyEvents": []
    },
    {
      "id": "trip_41090742_20250207_5122",
      "vehicleId": "41090742",
      "driverId": "20000006",
      "startMs": 1738923124000,
      "endMs": 1738925044000,
      "startAddress": "77376 Brooks Camp",
      "endAddress": "6220 Ricardo Rapid Suite 753",
      "startCoords": {
        "latitude": 39.704521,
        "longitude": -105.073139
      },
      "endCoords": {
        "latitude": 39.743094,
        "longitude": -105.004258
      },
      "distanceMeters": 10259.2,
      "durationMs": 1920000,
      "drivingDurationMs": 1505270,
      "idlingDurationMs": 414730,
      "fuelConsumedMl": 466,
      "fuelConsumedGallons": 0.123,
      "maxSpeedMph": 35.9,
      "averageSpeedMph": 12.0,
      "safetyEvents": []
    },
    {
      "id": "trip_41090742_20250207_5153",
      "vehicleId": "41090742",
      "driverId": "20000019",
      "startMs": 1738936541000,
      "endMs": 1738938401000,
      "startAddress": "8028 Maria Cape Apt. 101",
      "endAddress": "70266 Michelle Wells",
      "startCoords": {
        "latitude": 39.700678,
        "longitude": -104.956938
      },
      "endCoords": {
        "latitude": 39.782725,
        "longitude": -104.995661
      },
      "distanceMeters": 11424.2,
      "durationMs": 1860000,
      "drivingDurationMs": 1641291,
      "idlingDurationMs": 218709,
      "fuelConsumedMl": 519,
      "fuelConsumedGallons": 0.137,
      "maxSpeedMph": 34.7,
      "averageSpeedMph": 13.7,
      "safetyEvents": []
    },
    {
      "id": "trip_41090742_20250207_5182",
      "vehicleId": "41090742",
      "driverId": "20000015",
      "startMs": 1738948431000,
      "endMs": 1738949811000,
      "startAddress": "73556 Benjamin Spur",
      "endAddress": "494 Burch Fields",
      "startCoords": {
        "latitude": 39.76421,
        "longitude": -105.087258
      },
      "endCoords": {
        "latitude": 39.734689,
        "longitude": -105.04922
      },
      "distanceMeters": 9153.1,
      "durationMs": 1380000,
      "drivingDurationMs": 1230413,
      "idlingDurationMs": 149587,
      "fuelConsumedMl": 413,
      "fuelConsumedGallons": 0.109,
      "maxSpeedMph": 34.1,
      "averageSpeedMph": 14.8,
      "safetyEvents": []
    },
    {
      "id": "trip_41090742_20250207_5215",
      "vehicleId": "41090742",
      "driverId": "20000003",
      "startMs": 1738972432000,
      "endMs": 1738974952000,
      "startAddress": "12178 Lawrence Branch",
      "endAddress": "60253 Laura Plaza",
      "startCoords": {
        "latitude": 39.708723,
        "longitude": -104.935304
      },
      "endCoords": {
        "latitude": 39.809711,
        "longitude": -105.083555
      },
      "distanceMeters": 12911.9,
      "durationMs": 2520000,
      "drivingDurationMs": 1962384,
      "idlingDurationMs": 557616,
      "fuelConsumedMl": 583,
      "fuelConsumedGallons": 0.154,
      "maxSpeedMph": 41.7,
      "averageSpeedMph": 11.5,
      "safetyEvents": []
    },
    {
      "id": "trip_41090742_20250208_5238",
      "vehicleId": "41090742",
      "driverId": "20000006",
      "startMs": 1738988838000,
      "endMs": 1738990818000,
      "startAddress": "5384 Murray Freeway",
      "endAddress": "623 Thompson Keys",
      "startCoords": {
        "latitude": 39.82701,
        "longitude": -105.032988
      },
      "endCoords": {
        "latitude": 39.772057,
        "longitude": -104.943972
      },
      "distanceMeters": 15241.4,
      "durationMs": 1980000,
      "drivingDurationMs": 1728521,
      "idlingDurationMs": 251479,
      "fuelConsumedMl": 689,
      "fuelConsumedGallons": 0.182,
      "maxSpeedMph": 43.7,
      "averageSpeedMph": 17.2,
      "safetyEvents": []
    },
    {
      "id": "trip_41090742_20250208_5263",
      "vehicleId": "41090742",
      "driverId": "20000003",
      "startMs": 1739009187000,
      "endMs": 1739013871000,
      "startAddress": "0971 Lopez Garden",
      "endAddress": "5480 Melissa Drive Apt. 467",
      "startCoords": {
        "latitude": 39.71074,
        "longitude": -104.932974
      },
      "endCoords": {
        "latitude": 39.694143,
        "longitude": -104.93538
      },
      "distanceMeters": 36010.5,
      "durationMs": 4684000,
      "drivingDurationMs": 4057553,
      "idlingDurationMs": 626447,
      "fuelConsumedMl": 1628,
      "fuelConsumedGallons": 0.43,
      "maxSpeedMph": 46.2,
      "averageSpeedMph": 17.2,
      "safetyEvents": []
    },
    {
      "id": "trip_41090742_20250208_5293",
      "vehicleId": "41090742",
      "driverId": "20000018",
      "startMs": 1739025480000,
      "endMs": 1739030184000,
      "startAddress": "098 Suzanne Plaza Apt. 219",
      "endAddress": "93738 John Trafficway",
      "startCoords": {
        "latitude": 39.740748,
        "longitude": -104.915121
      },
      "endCoords": {
        "latitude": 39.746326,
        "longitude": -104.924198
      },
      "distanceMeters": 38378.0,
      "durationMs": 4704000,
      "drivingDurationMs": 3915048,
      "idlingDurationMs": 788952,
      "fuelConsumedMl": 1738,
      "fuelConsumedGallons": 0.459,
      "maxSpeedMph": 32.5,
      "averageSpeedMph": 18.3,
      "safetyEvents": []
    },
    {
      "id": "trip_41090742_20250208_5324",
      "vehicleId": "41090742",
      "driverId": "20000007",
      "startMs": 1739041113000,
      "endMs": 1739053553000,
      "startAddress": "39731 Sloan Avenue Suite 756",
      "endAddress": "9048 Gardner Lakes",
      "startCoords": {
        "latitude": 39.758296,
        "longitude": -104.98885
      },
      "endCoords": {
        "latitude": 39.795234,
        "longitude": -104.931157
      },
      "distanceMeters": 86291.6,
      "durationMs": 12440000,
      "drivingDurationMs": 9390053,
      "idlingDurationMs": 3049947,
      "fuelConsumedMl": 3903,
      "fuelConsumedGallons": 1.031,
      "maxSpeedMph": 32.5,
      "averageSpeedMph": 15.5,
      "safetyEvents": []
    },
    {
      "id": "trip_41090742_20250209_5359",
      "vehicleId": "41090742",
      "driverId": "20000020",
      "startMs": 1739065903000,
      "endMs": 1739067763000,
      "startAddress": "06508 Anderson Centers Apt. 883",
      "endAddress": "4729 James Trail",
      "startCoords": {
        "latitude": 39.756917,
        "longitude": -105.045032
      },
      "endCoords": {
        "latitude": 39.801811,
        "longitude": -105.010741
      },
      "distanceMeters": 10876.5,
      "durationMs": 1860000,
      "drivingDurationMs": 1547838,
      "idlingDurationMs": 312162,
      "fuelConsumedMl": 492,
      "fuelConsumedGallons": 0.13,
      "maxSpeedMph": 40.0,
      "averageSpeedMph": 13.1,
      "safetyEvents": []
    },
    {
      "id": "trip_41090742_20250209_5382",
      "vehicleId": "41090742",
      "driverId": "20000020",
      "startMs": 1739087595000,
      "endMs": 1739089515000,
      "startAddress": "533 Carol Spring Apt. 965",
      "endAddress": "6213 Paul Estates",
      "startCoords": {
        "latitude": 39.716688,
        "longitude": -105.045907
      },
      "endCoords": {
        "latitude": 39.73248,
        "longitude": -104.930851
      },
      "distanceMeters": 11660.8,
      "durationMs": 1920000,
      "drivingDurationMs": 1490012,
      "idlingDurationMs": 429988,
      "fuelConsumedMl": 526,
      "fuelConsumedGallons": 0.139,
      "maxSpeedMph": 31.9,
      "averageSpeedMph": 13.6,
      "safetyEvents": []
    },
    {
      "id": "trip_41090742_20250209_5406",
      "vehicleId": "41090742",
      "driverId": "20000011",
      "startMs": 1739111445000,
      "endMs": 1739113545000,
      "startAddress": "87182 David Place Apt. 758",
      "endAddress": "4596 Pamela Port Apt. 227",
      "startCoords": {
        "latitude": 39.823198,
        "longitude": -105.052382
      },
      "endCoords": {
        "latitude": 39.735742,
        "longitude": -105.064143
      },
      "distanceMeters": 13290.5,
      "durationMs": 2100000,
      "drivingDurationMs": 1594849,
      "idlingDurationMs": 505151,
      "fuelConsumedMl": 602,
      "fuelConsumedGallons": 0.159,
      "maxSpeedMph": 40.9,
      "averageSpeedMph": 14.2,
      "safetyEvents": []
    },
    {
      "id": "trip_41090742_20250209_5434",
      "vehicleId": "41090742",
      "driverId": "20000008",
      "startMs": 1739141601000,
      "endMs": 1739143761000,
      "startAddress": "2140 Craig Inlet",
      "endAddress": "361 Heather Crest",
      "startCoords": {
        "latitude": 39.721125,
        "longitude": -105.048609
      },
      "endCoords": {
        "latitude": 39.745668,
        "longitude": -104.92838
      },
      "distanceMeters": 12229.5,
      "durationMs": 2160000,
      "drivingDurationMs": 1721083,
      "idlingDurationMs": 438917,
      "fuelConsumedMl": 553,
      "fuelConsumedGallons": 0.146,
      "maxSpeedMph": 42.6,
      "averageSpeedMph": 12.7,
      "safetyEvents": []
    },
    {
      "id": "trip_41090742_20250210_5465",
      "vehicleId": "41090742",
      "driverId": "20000013",
      "startMs": 1739179779000,
      "endMs": 1739205244000,
      "startAddress": "39004 Sharp Junction",
      "endAddress": "8975 Foster Branch Apt. 037",
      "startCoords": {
        "latitude": 39.703939,
        "longitude": -105.066574
      },
      "endCoords": {
        "latitude": 39.712077,
        "longitude": -105.062118
      },
      "distanceMeters": 181145.7,
      "durationMs": 25465000,
      "drivingDurationMs": 21741121,
      "idlingDurationMs": 3723879,
      "fuelConsumedMl": 8195,
      "fuelConsumedGallons": 2.165,
      "maxSpeedMph": 45.4,
      "averageSpeedMph": 15.9,
      "safetyEvents": []
    },
    {
      "id": "trip_41090742_20250210_5513",
      "vehicleId": "41090742",
      "driverId": "20000016",
      "startMs": 1739205552000,
      "endMs": 1739228079000,
      "startAddress": "28851 Merritt Views Apt. 292",
      "endAddress": "6571 Christine Rest Suite 879",
      "startCoords": {
        "latitude": 39.70607,
        "longitude": -105.035718
      },
      "endCoords": {
        "latitude": 39.779417,
        "longitude": -104.948347
      },
      "distanceMeters": 159964.1,
      "durationMs": 22527000,
      "drivingDurationMs": 19634648,
      "idlingDurationMs": 2892352,
      "fuelConsumedMl": 7234,
      "fuelConsumedGallons": 1.911,
      "maxSpeedMph": 32.1,
      "averageSpeedMph": 15.9,
      "safetyEvents": []
    },
    {
      "id": "trip_41090742_20250210_5559",
      "vehicleId": "41090742",
      "driverId": "20000015",
      "startMs": 1739230855000,
      "endMs": 1739233255000,
      "startAddress": "972 Austin Center",
      "endAddress": "03273 Tina Garden Suite 436",
      "startCoords": {
        "latitude": 39.727145,
        "longitude": -104.96415
      },
      "endCoords": {
        "latitude": 39.686688,
        "longitude": -104.992484
      },
      "distanceMeters": 18357.8,
      "durationMs": 2400000,
      "drivingDurationMs": 2004904,
      "idlingDurationMs": 395096,
      "fuelConsumedMl": 829,
      "fuelConsumedGallons": 0.219,
      "maxSpeedMph": 31.0,
      "averageSpeedMph": 17.1,
      "safetyEvents": []
    },
    {
      "id": "trip_41090742_20250211_5589",
      "vehicleId": "41090742",
      "driverId": "20000004",
      "startMs": 1739251022000,
      "endMs": 1739253002000,
      "startAddress": "271 Jennifer Loop Suite 695",
      "endAddress": "491 Benson Route",
      "startCoords": {
        "latitude": 39.699604,
        "longitude": -104.943055
      },
      "endCoords": {
        "latitude": 39.736456,
        "longitude": -104.975977
      },
      "distanceMeters": 17406.6,
      "durationMs": 1980000,
      "drivingDurationMs": 1714316,
      "idlingDurationMs": 265684,
      "fuelConsumedMl": 787,
      "fuelConsumedGallons": 0.208,
      "maxSpeedMph": 46.2,
      "averageSpeedMph": 19.7,
      "safetyEvents": []
    },
    {
      "id": "trip_41090742_20250211_5618",
      "vehicleId": "41090742",
      "driverId": "20000006",
      "startMs": 1739270165000,
      "endMs": 1739279519000,
      "startAddress": "5764 Danielle Roads",
      "endAddress": "206 Dean Throughway",
      "startCoords": {
        "latitude": 39.824075,
        "longitude": -105.078628
      },
      "endCoords": {
        "latitude": 39.734686,
        "longitude": -105.011144
      },
      "distanceMeters": 48994.0,
      "durationMs": 9354000,
      "drivingDurationMs": 7719338,
      "idlingDurationMs": 1634662,
      "fuelConsumedMl": 2214,
      "fuelConsumedGallons": 0.585,
      "maxSpeedMph": 44.5,
      "averageSpeedMph": 11.7,
      "safetyEvents": []
    },
    {
      "id": "trip_41090742_20250211_5651",
      "vehicleId": "41090742",
      "driverId": "20000018",
      "startMs": 1739286258000,
      "endMs": 1739288118000,
      "startAddress": "9676 Aguilar Ridges Suite 671",
      "endAddress": "963 Graham Inlet Suite 749",
      "startCoords": {
        "latitude": 39.785211,
        "longitude": -105.021991
      },
      "endCoords": {
        "latitude": 39.728223,
        "longitude": -105.080988
      },
      "distanceMeters": 11860.5,
      "durationMs": 1860000,
      "drivingDurationMs": 1496023,
      "idlingDurationMs": 363977,
      "fuelConsumedMl": 538,
      "fuelConsumedGallons": 0.142,
      "maxSpeedMph": 37.5,
      "averageSpeedMph": 14.3,
      "safetyEvents": []
    },
    {
      "id": "trip_41090742_20250211_5686",
      "vehicleId": "41090742",
      "driverId": "20000002",
      "startMs": 1739304917000,
      "endMs": 1739307077000,
      "startAddress": "99703 Juarez Landing",
      "endAddress": "9536 Rojas Way Apt. 379",
      "startCoords": {
        "latitude": 39.773732,
        "longitude": -104.937539
      },
      "endCoords": {
        "latitude": 39.763104,
        "longitude": -104.922459
      },
      "distanceMeters": 12497.6,
      "durationMs": 2160000,
      "drivingDurationMs": 1816776,
      "idlingDurationMs": 343224,
      "fuelConsumedMl": 564,
      "fuelConsumedGallons": 0.149,
      "maxSpeedMph": 32.8,
      "averageSpeedMph": 12.9,
      "safetyEvents": []
    },
    {
      "id": "trip_41090742_20250212_5714",
      "vehicleId": "41090742",
      "driverId": "20000022",
      "startMs": 1739319809000,
      "endMs": 1739321669000,
      "startAddress": "2317 Smith Canyon",
      "endAddress": "280 Olson Forges",
      "startCoords": {
        "latitude": 39.782705,
        "longitude": -105.008078
      },
      "endCoords": {
        "latitude": 39.821635,
        "longitude": -105.017894
      },
      "distanceMeters": 14091.2,
      "durationMs": 1860000,
      "drivingDurationMs": 1433820,
      "idlingDurationMs": 426180,
      "fuelConsumedMl": 636,
      "fuelConsumedGallons": 0.168,
      "maxSpeedMph": 45.5,
      "averageSpeedMph": 16.9,
      "safetyEvents": []
    },
    {
      "id": "trip_41090742_20250212_5746",
      "vehicleId": "41090742",
      "driverId": "20000005",
      "startMs": 1739339565000,
      "endMs": 1739345654000,
      "startAddress": "7227 Flores Trail",
      "endAddress": "776 Tammy Heights",
      "startCoords": {
        "latitude": 39.819396,
        "longitude": -104.958938
      },
      "endCoords": {
        "latitude": 39.813428,
        "longitude": -104.907534
      },
      "distanceMeters": 48020.8,
      "durationMs": 6089000,
      "drivingDurationMs": 5071347,
      "idlingDurationMs": 1017653,
      "fuelConsumedMl": 2173,
      "fuelConsumedGallons": 0.574,
      "maxSpeedMph": 32.5,
      "averageSpeedMph": 17.6,
      "safetyEvents": []
    },
    {
      "id": "trip_41090742_20250212_5771",
      "vehicleId": "41090742",
      "driverId": "20000012",
      "startMs": 1739352648000,
      "endMs": 1739356362000,
      "startAddress": "69746 Steven Ports",
      "endAddress": "9091 Sarah Trail Suite 906",
      "startCoords": {
        "latitude": 39.707597,
        "longitude": -104.930427
      },
      "endCoords": {
        "latitude": 39.813396,
        "longitude": -105.008498
      },
      "distanceMeters": 25783.2,
      "durationMs": 3714000,
      "drivingDurationMs": 3208904,
      "idlingDurationMs": 505096,
      "fuelConsumedMl": 1166,
      "fuelConsumedGallons": 0.308,
      "maxSpeedMph": 42.3,
      "averageSpeedMph": 15.5,
      "safetyEvents": []
    },
    {
      "id": "trip_41090742_20250212_5800",
      "vehicleId": "41090742",
      "driverId": "20000009",
      "startMs": 1739365757000,
      "endMs": 1739367437000,
      "startAddress": "872 Danielle Ports",
      "endAddress": "584 Jennifer Turnpike Apt. 823",
      "startCoords": {
        "latitude": 39.813717,
        "longitude": -105.054154
      },
      "endCoords": {
        "latitude": 39.750363,
        "longitude": -104.944306
      },
      "distanceMeters": 10551.6,
      "durationMs": 1680000,
      "drivingDurationMs": 1306012,
      "idlingDurationMs": 373988,
      "fuelConsumedMl": 477,
      "fuelConsumedGallons": 0.126,
      "maxSpeedMph": 43.1,
      "averageSpeedMph": 14.0,
      "safetyEvents": []
    },
    {
      "id": "trip_41090742_20250212_5826",
      "vehicleId": "41090742",
      "driverId": "20000014",
      "startMs": 1739378242000,
      "endMs": 1739380402000,
      "startAddress": "4705 Romero Loaf",
      "endAddress": "0021 Wang Extensions Apt. 645",
      "startCoords": {
        "latitude": 39.692284,
        "longitude": -105.056404
      },
      "endCoords": {
        "latitude": 39.782124,
        "longitude": -105.049741
      },
      "distanceMeters": 17729.5,
      "durationMs": 2160000,
      "drivingDurationMs": 1853203,
      "idlingDurationMs": 306797,
      "fuelConsumedMl": 803,
      "fuelConsumedGallons": 0.212,
      "maxSpeedMph": 41.5,
      "averageSpeedMph": 18.4,
      "safetyEvents": []
    },
    {
      "id": "trip_41090742_20250212_5855",
      "vehicleId": "41090742",
      "driverId": "20000005",
      "startMs": 1739391951000,
      "endMs": 1739398797000,
      "startAddress": "65946 Holt Junction",
      "endAddress": "95409 Travis Walk Apt. 514",
      "startCoords": {
        "latitude": 39.686711,
        "longitude": -104.92568
      },
      "endCoords": {
        "latitude": 39.807884,
        "longitude": -105.014169
      },
      "distanceMeters": 55622.9,
      "durationMs": 6846000,
      "drivingDurationMs": 6072294,
      "idlingDurationMs": 773706,
      "fuelConsumedMl": 2517,
      "fuelConsumedGallons": 0.665,
      "maxSpeedMph": 33.7,
      "averageSpeedMph": 18.2,
      "safetyEvents": []
    },
    {
      "id": "trip_41090742_20250213_5887",
      "vehicleId": "41090742",
      "driverId": "20000017",
      "startMs": 1739410147000,
      "endMs": 1739417070000,
      "startAddress": "4927 Holloway Pine Apt. 063",
      "endAddress": "1718 Roy Ports Suite 652",
      "startCoords": {
        "latitude": 39.773668,
        "longitude": -105.06638
      },
      "endCoords": {
        "latitude": 39.728338,
        "longitude": -105.021502
      },
      "distanceMeters": 55831.9,
      "durationMs": 6923000,
      "drivingDurationMs": 5542782,
      "idlingDurationMs": 1380218,
      "fuelConsumedMl": 2525,
      "fuelConsumedGallons": 0.667,
      "maxSpeedMph": 31.1,
      "averageSpeedMph": 18.0,
      "safetyEvents": []
    },
    {
      "id": "trip_41090742_20250213_5917",
      "vehicleId": "41090742",
      "driverId": "20000002",
      "startMs": 1739432465000,
      "endMs": 1739444566000,
      "startAddress": "12215 Joyce Harbor Suite 558",
      "endAddress": "6299 Donovan Brook",
      "startCoords": {
        "latitude": 39.696195,
        "longitude": -104.920399
      },
      "endCoords": {
        "latitude": 39.751201,
        "longitude": -104.928586
      },
      "distanceMeters": 68734.9,
      "durationMs": 12101000,
      "drivingDurationMs": 9446072,
      "idlingDurationMs": 2654928,
      "fuelConsumedMl": 3108,
      "fuelConsumedGallons": 0.821,
      "maxSpeedMph": 43.4,
      "averageSpeedMph": 12.7,
      "safetyEvents": []
    },
    {
      "id": "trip_41090742_20250213_5950",
      "vehicleId": "41090742",
      "driverId": "20000011",
      "startMs": 1739448807000,
      "endMs": 1739471293000,
      "startAddress": "55290 Johnson Loaf Suite 258",
      "endAddress": "3400 Bell Wall",
      "startCoords": {
        "latitude": 39.783101,
        "longitude": -104.995184
      },
      "endCoords": {
        "latitude": 39.752277,
        "longitude": -104.973065
      },
      "distanceMeters": 164754.5,
      "durationMs": 22486000,
      "drivingDurationMs": 20037775,
      "idlingDurationMs": 2448225,
      "fuelConsumedMl": 7453,
      "fuelConsumedGallons": 1.969,
      "maxSpeedMph": 40.6,
      "averageSpeedMph": 16.4,
      "safetyEvents": []
    },
    {
      "id": "trip_41090742_20250213_5998",
      "vehicleId": "41090742",
      "driverId": "20000003",
      "startMs": 1739471634000,
      "endMs": 1739475581000,
      "startAddress": "278 Christine Crossing Suite 519",
      "endAddress": "0991 Martinez Loop",
      "startCoords": {
        "latitude": 39.761482,
        "longitude": -104.920609
      },
      "endCoords": {
        "latitude": 39.728113,
        "longitude": -104.937598
      },
      "distanceMeters": 23569.4,
      "durationMs": 3947000,
      "drivingDurationMs": 3489359,
      "idlingDurationMs": 457641,
      "fuelConsumedMl": 1067,
      "fuelConsumedGallons": 0.282,
      "maxSpeedMph": 33.0,
      "averageSpeedMph": 13.4,
      "safetyEvents": []
    },
    {
      "id": "trip_41090742_20250213_6025",
      "vehicleId": "41090742",
      "driverId": "20000002",
      "startMs": 1739483135000,
      "endMs": 1739486059000,
      "startAddress": "8896 Mayer Drive Apt. 901",
      "endAddress": "2747 Lutz Stream",
      "startCoords": {
        "latitude": 39.71382,
        "longitude": -104.925089
      },
      "endCoords": {
        "latitude": 39.716782,
        "longitude": -105.010573
      },
      "distanceMeters": 20808.0,
      "durationMs": 2924000,
      "drivingDurationMs": 2352194,
      "idlingDurationMs": 571806,
      "fuelConsumedMl": 943,
      "fuelConsumedGallons": 0.249,
      "maxSpeedMph": 46.4,
      "averageSpeedMph": 15.9,
      "safetyEvents": []
    },
    {
      "id": "trip_41090742_20250214_6055",
      "vehicleId": "41090742",
      "driverId": "20000008",
      "startMs": 1739504508000,
      "endMs": 1739508559000,
      "startAddress": "428 King Center",
      "endAddress": "529 Munoz Dale",
      "startCoords": {
        "latitude": 39.79187,
        "longitude": -104.900946
      },
      "endCoords": {
        "latitude": 39.738073,
        "longitude": -104.958992
      },
      "distanceMeters": 23066.3,
      "durationMs": 4051000,
      "drivingDurationMs": 3087922,
      "idlingDurationMs": 963078,
      "fuelConsumedMl": 1045,
      "fuelConsumedGallons": 0.276,
      "maxSpeedMph": 39.0,
      "averageSpeedMph": 12.7,
      "safetyEvents": []
    },
    {
      "id": "trip_41090742_20250214_6083",
      "vehicleId": "41090742",
      "driverId": "20000003",
      "startMs": 1739521727000,
      "endMs": 1739538531000,
      "startAddress": "86515 Hensley Streets Suite 515",
      "endAddress": "2013 Frost Causeway",
      "startCoords": {
        "latitude": 39.819346,
        "longitude": -105.038226
      },
      "endCoords": {
        "latitude": 39.716018,
        "longitude": -104.985665
      },
      "distanceMeters": 137710.2,
      "durationMs": 16804000,
      "drivingDurationMs": 14230447,
      "idlingDurationMs": 2573553,
      "fuelConsumedMl": 6231,
      "fuelConsumedGallons": 1.646,
      "maxSpeedMph": 32.2,
      "averageSpeedMph": 18.3,
      "safetyEvents": []
    },
    {
      "id": "trip_41090742_20250214_6117",
      "vehicleId": "41090742",
      "driverId": "20000005",
      "startMs": 1739539497000,
      "endMs": 1739541717000,
      "startAddress": "4196 Keith Centers",
      "endAddress": "0387 Kenneth Keys Suite 889",
      "startCoords": {
        "latitude": 39.723137,
        "longitude": -105.046911
      },
      "endCoords": {
        "latitude": 39.725361,
        "longitude": -105.0137
      },
      "distanceMeters": 17043.4,
      "durationMs": 2220000,
      "drivingDurationMs": 1994883,
      "idlingDurationMs": 225117,
      "fuelConsumedMl": 772,
      "fuelConsumedGallons": 0.204,
      "maxSpeedMph": 31.1,
      "averageSpeedMph": 17.2,
      "safetyEvents": []
    },
    {
      "id": "trip_41090742_20250214_6147",
      "vehicleId": "41090742",
      "driverId": "20000021",
      "startMs": 1739553119000,
      "endMs": 1739559855000,
      "startAddress": "234 Amber Manors",
      "endAddress": "907 Harrington Drive",
      "startCoords": {
        "latitude": 39.73568,
        "longitude": -105.050674
      },
      "endCoords": {
        "latitude": 39.773103,
        "longitude": -105.057015
      },
      "distanceMeters": 40893.4,
      "durationMs": 6736000,
      "drivingDurationMs": 5292404,
      "idlingDurationMs": 1443596,
      "fuelConsumedMl": 1851,
      "fuelConsumedGallons": 0.489,
      "maxSpeedMph": 40.2,
      "averageSpeedMph": 13.6,
      "safetyEvents": []
    },
    {
      "id": "trip_41090742_20250214_6176",
      "vehicleId": "41090742",
      "driverId": "20000005",
      "startMs": 1739572908000,
      "endMs": 1739575068000,
      "startAddress": "557 Anderson Cliff Suite 308",
      "endAddress": "8640 Mark Square",
      "startCoords": {
        "latitude": 39.817934,
        "longitude": -105.055092
      },
      "endCoords": {
        "latitude": 39.715986,
        "longitude": -104.900615
      },
      "distanceMeters": 17012.0,
      "durationMs": 2160000,
      "drivingDurationMs": 1649531,
      "idlingDurationMs": 510469,
      "fuelConsumedMl": 768,
      "fuelConsumedGallons": 0.203,
      "maxSpeedMph": 32.2,
      "averageSpeedMph": 17.6,
      "safetyEvents": []
    },
    {
      "id": "trip_41090742_20250215_6202",
      "vehicleId": "41090742",
      "driverId": "20000013",
      "startMs": 1739587339000,
      "endMs": 1739589019000,
      "startAddress": "744 Singh Station",
      "endAddress": "12680 Rodriguez Fork Suite 550",
      "startCoords": {
        "latitude": 39.8092,
        "longitude": -104.991132
      },
      "endCoords": {
        "latitude": 39.791432,
        "longitude": -105.04431
      },
      "distanceMeters": 9490.6,
      "durationMs": 1680000,
      "drivingDurationMs": 1468878,
      "idlingDurationMs": 211122,
      "fuelConsumedMl": 428,
      "fuelConsumedGallons": 0.113,
      "maxSpeedMph": 34.1,
      "averageSpeedMph": 12.6,
      "safetyEvents": []
    },
    {
      "id": "trip_41090742_20250215_6230",
      "vehicleId": "41090742",
      "driverId": "20000008",
      "startMs": 1739603617000,
      "endMs": 1739605417000,
      "startAddress": "66921 Wright Stravenue",
      "endAddress": "82671 Allen Knolls",
      "startCoords": {
        "latitude": 39.786245,
        "longitude": -105.002559
      },
      "endCoords": {
        "latitude": 39.773132,
        "longitude": -104.914358
      },
      "distanceMeters": 15740.9,
      "durationMs": 1800000,
      "drivingDurationMs": 1580550,
      "idlingDurationMs": 219450,
      "fuelConsumedMl": 712,
      "fuelConsumedGallons": 0.188,
      "maxSpeedMph": 38.0,
      "averageSpeedMph": 19.6,
      "safetyEvents": []
    },
    {
      "id": "trip_41090742_20250215_6259",
      "vehicleId": "41090742",
      "driverId": "20000005",
      "startMs": 1739617372000,
      "endMs": 1739619772000,
      "startAddress": "262 Walker Squares Apt. 032",
      "endAddress": "3435 Ronald Falls",
      "startCoords": {
        "latitude": 39.827394,
        "longitude": -105.025877
      },
      "endCoords": {
        "latitude": 39.75348,
        "longitude": -105.060145
      },
      "distanceMeters": 14654.5,
      "durationMs": 2400000,
      "drivingDurationMs": 2028625,
      "idlingDurationMs": 371375,
      "fuelConsumedMl": 662,
      "fuelConsumedGallons": 0.175,
      "maxSpeedMph": 33.0,
      "averageSpeedMph": 13.7,
      "safetyEvents": []
    },
    {
      "id": "trip_41090742_20250215_6285",
      "vehicleId": "41090742",
      "driverId": "20000019",
      "startMs": 1739629757000,
      "endMs": 1739634161000,
      "startAddress": "69851 Tammy Walk",
      "endAddress": "8473 Colon Skyway Suite 817",
      "startCoords": {
        "latitude": 39.760564,
        "longitude": -104.996336
      },
      "endCoords": {
        "latitude": 39.789126,
        "longitude": -105.009561
      },
      "distanceMeters": 32615.9,
      "durationMs": 4404000,
      "drivingDurationMs": 3923937,
      "idlingDurationMs": 480063,
      "fuelConsumedMl": 1476,
      "fuelConsumedGallons": 0.39,
      "maxSpeedMph": 46.4,
      "averageSpeedMph": 16.6,
      "safetyEvents": []
    },
    {
      "id": "trip_41090742_20250215_6315",
      "vehicleId": "41090742",
      "driverId": "20000019",
      "startMs": 1739647002000,
      "endMs": 1739656022000,
      "startAddress": "0879 Waters Alley",
      "endAddress": "245 Peter Pike",
      "startCoords": {
        "latitude": 39.793858,
        "longitude": -105.051332
      },
      "endCoords": {
        "latitude": 39.751392,
        "longitude": -105.064106
      },
      "distanceMeters": 52985.7,
      "durationMs": 9020000,
      "drivingDurationMs": 7823745,
      "idlingDurationMs": 1196255,
      "fuelConsumedMl": 2396,
      "fuelConsumedGallons": 0.633,
      "maxSpeedMph": 39.0,
      "averageSpeedMph": 13.1,
      "safetyEvents": []
    },
    {
      "id": "trip_41090742_20250216_6343",
      "vehicleId": "41090742",
      "driverId": "20000009",
      "startMs": 1739674859000,
      "endMs": 1739676659000,
      "startAddress": "80128 Ian Lights",
      "endAddress": "888 Nichols Spring",
      "startCoords": {
        "latitude": 39.782379,
        "longitude": -105.007027
      },
      "endCoords": {
        "latitude": 39.725353,
        "longitude": -105.014705
      },
      "distanceMeters": 13479.8,
      "durationMs": 1800000,
      "drivingDurationMs": 1378349,
      "idlingDurationMs": 421651,
      "fuelConsumedMl": 609,
      "fuelConsumedGallons": 0.161,
      "maxSpeedMph": 32.2,
      "averageSpeedMph": 16.8,
      "safetyEvents": []
    },
    {
      "id": "trip_41090742_20250216_6372",
      "vehicleId": "41090742",
      "driverId": "20000016",
      "startMs": 1739702257000,
      "endMs": 1739704657000,
      "startAddress": "7010 Julia Lane Apt. 935",
      "endAddress": "527 Cox Circle",
      "startCoords": {
        "latitude": 39.814359,
        "longitude": -105.034847
      },
      "endCoords": {
        "latitude": 39.771932,
        "longitude": -105.021229
      },
      "distanceMeters": 15633.1,
      "durationMs": 2400000,
      "drivingDurationMs": 2119407,
      "idlingDurationMs": 280593,
      "fuelConsumedMl": 708,
      "fuelConsumedGallons": 0.187,
      "maxSpeedMph": 44.0,
      "averageSpeedMph": 14.6,
      "safetyEvents": []
    },
    {
      "id": "trip_41090742_20250216_6406",
      "vehicleId": "41090742",
      "driverId": "20000006",
      "startMs": 1739737246000,
      "endMs": 1739744734000,
      "startAddress": "801 Brown Circle Suite 764",
      "endAddress": "02752 Shannon Pine",
      "startCoords": {
        "latitude": 39.808799,
        "longitude": -104.92942
      },
      "endCoords": {
        "latitude": 39.734633,
        "longitude": -105.05916
      },
      "distanceMeters": 49402.7,
      "durationMs": 7488000,
      "drivingDurationMs": 6613112,
      "idlingDurationMs": 874888,
      "fuelConsumedMl": 2233,
      "fuelConsumedGallons": 0.59,
      "maxSpeedMph": 46.6,
      "averageSpeedMph": 14.8,
      "safetyEvents": []
    },
    {
      "id": "trip_41090742_20250217_6437",
      "vehicleId": "41090742",
      "driverId": "20000017",
      "startMs": 1739781363000,
      "endMs": 1739783523000,
      "startAddress": "781 Myers Groves",
      "endAddress": "679 Karen Plain Apt. 114",
      "startCoords": {
        "latitude": 39.812542,
        "longitude": -104.900201
      },
      "endCoords": {
        "latitude": 39.709813,
        "longitude": -104.928134
      },
      "distanceMeters": 15695.3,
      "durationMs": 2160000,
      "drivingDurationMs": 1698089,
      "idlingDurationMs": 461911,
      "fuelConsumedMl": 712,
      "fuelConsumedGallons": 0.188,
      "maxSpeedMph": 46.6,
      "averageSpeedMph": 16.3,
      "safetyEvents": []
    },
    {
      "id": "trip_41090742_20250217_6463",
      "vehicleId": "41090742",
      "driverId": "20000016",
      "startMs": 1739791755000,
      "endMs": 1739797935000,
      "startAddress": "4768 Sims Brook Apt. 484",
      "endAddress": "16612 Jason Lodge Suite 862",
      "startCoords": {
        "latitude": 39.697366,
        "longitude": -104.963166
      },
      "endCoords": {
        "latitude": 39.707277,
        "longitude": -105.03321
      },
      "distanceMeters": 42864.1,
      "durationMs": 6180000,
      "drivingDurationMs": 5028971,
      "idlingDurationMs": 1151029,
      "fuelConsumedMl": 1938,
      "fuelConsumedGallons": 0.512,
      "maxSpeedMph": 42.3,
      "averageSpeedMph": 15.5,
      "safetyEvents": []
    },
    {
      "id": "trip_41090742_20250217_6491",
      "vehicleId": "41090742",
      "driverId": "20000018",
      "startMs": 1739805652000,
      "endMs": 1739810267000,
      "startAddress": "76774 Wendy Mews Suite 871",
      "endAddress": "703 Webster Plains Suite 224",
      "startCoords": {
        "latitude": 39.795673,
        "longitude": -105.008507
      },
      "endCoords": {
        "latitude": 39.786697,
        "longitude": -104.939998
      },
      "distanceMeters": 38637.8,
      "durationMs": 4615000,
      "drivingDurationMs": 3678406,
      "idlingDurationMs": 936594,
      "fuelConsumedMl": 1749,
      "fuelConsumedGallons": 0.462,
      "maxSpeedMph": 44.0,
      "averageSpeedMph": 18.7,
      "safetyEvents": []
    },
    {
      "id": "trip_41090742_20250217_6522",
      "vehicleId": "41090742",
      "driverId": "20000015",
      "startMs": 1739822034000,
      "endMs": 1739830000000,
      "startAddress": "212 Nicole Freeway Apt. 722",
      "endAddress": "569 Garrett Viaduct",
      "startCoords": {
        "latitude": 39.691252,
        "longitude": -104.954741
      },
      "endCoords": {
        "latitude": 39.808401,
        "longitude": -104.969946
      },
      "distanceMeters": 44610.9,
      "durationMs": 7966000,
      "drivingDurationMs": 6226809,
      "idlingDurationMs": 1739191,
      "fuelConsumedMl": 2018,
      "fuelConsumedGallons": 0.533,
      "maxSpeedMph": 32.1,
      "averageSpeedMph": 12.5,
      "safetyEvents": []
    },
    {
      "id": "trip_41090742_20250218_6550",
      "vehicleId": "41090742",
      "driverId": "20000017",
      "startMs": 1739840556000,
      "endMs": 1739843173000,
      "startAddress": "3998 Joshua Track Suite 633",
      "endAddress": "630 Hatfield Bypass Suite 969",
      "startCoords": {
        "latitude": 39.703372,
        "longitude": -104.975229
      },
      "endCoords": {
        "latitude": 39.693385,
        "longitude": -104.974757
      },
      "distanceMeters": 20419.5,
      "durationMs": 2617000,
      "drivingDurationMs": 2342353,
      "idlingDurationMs": 274647,
      "fuelConsumedMl": 924,
      "fuelConsumedGallons": 0.244,
      "maxSpeedMph": 44.2,
      "averageSpeedMph": 17.5,
      "safetyEvents": []
    },
    {
      "id": "trip_41090742_20250218_6577",
      "vehicleId": "41090742",
      "driverId": "20000014",
      "startMs": 1739858083000,
      "endMs": 1739864050000,
      "startAddress": "54876 Melissa Flat Suite 691",
      "endAddress": "099 Brown Oval Apt. 707",
      "startCoords": {
        "latitude": 39.770454,
        "longitude": -104.931594
      },
      "endCoords": {
        "latitude": 39.768308,
        "longitude": -105.062851
      },
      "distanceMeters": 40831.6,
      "durationMs": 5967000,
      "drivingDurationMs": 4692501,
      "idlingDurationMs": 1274499,
      "fuelConsumedMl": 1847,
      "fuelConsumedGallons": 0.488,
      "maxSpeedMph": 42.1,
      "averageSpeedMph": 15.3,
      "safetyEvents": []
    },
    {
      "id": "trip_41090742_20250218_6604",
      "vehicleId": "41090742",
      "driverId": "20000020",
      "startMs": 1739872157000,
      "endMs": 1739873777000,
      "startAddress": "290 Wood Mission",
      "endAddress": "76915 Hudson Corner",
      "startCoords": {
        "latitude": 39.727281,
        "longitude": -105.013491
      },
      "endCoords": {
        "latitude": 39.74767,
        "longitude": -105.009379
      },
      "distanceMeters": 11551.4,
      "durationMs": 1620000,
      "drivingDurationMs": 1418373,
      "idlingDurationMs": 201627,
      "fuelConsumedMl": 522,
      "fuelConsumedGallons": 0.138,
      "maxSpeedMph": 44.1,
      "averageSpeedMph": 16.0,
      "safetyEvents": []
    },
    {
      "id": "trip_41090742_20250218_6632",
      "vehicleId": "41090742",
      "driverId": "20000005",
      "startMs": 1739885907000,
      "endMs": 1739888607000,
      "startAddress": "20546 Johnson Plain Suite 068",
      "endAddress": "857 Faulkner Turnpike",
      "startCoords": {
        "latitude": 39.703957,
        "longitude": -105.000442
      },
      "endCoords": {
        "latitude": 39.80383,
        "longitude": -105.068397
      },
      "distanceMeters": 22357.7,
      "durationMs": 2700000,
      "drivingDurationMs": 2378299,
      "idlingDurationMs": 321701,
      "fuelConsumedMl": 1011,
      "fuelConsumedGallons": 0.267,
      "maxSpeedMph": 34.0,
      "averageSpeedMph": 18.5,
      "safetyEvents": []
    },
    {
      "id": "trip_41090742_20250218_6659",
      "vehicleId": "41090742",
      "driverId": "20000021",
      "startMs": 1739901025000,
      "endMs": 1739902949000,
      "startAddress": "0152 Mcknight Ridge Suite 819",
      "endAddress": "27310 David Parks",
      "startCoords": {
        "latitude": 39.718582,
        "longitude": -104.999845
      },
      "endCoords": {
        "latitude": 39.686014,
        "longitude": -104.968298
      },
      "distanceMeters": 15221.3,
      "durationMs": 1924000,
      "drivingDurationMs": 1625636,
      "idlingDurationMs": 298364,
      "fuelConsumedMl": 689,
      "fuelConsumedGallons": 0.182,
      "maxSpeedMph": 43.9,
      "averageSpeedMph": 17.7,
      "safetyEvents": []
    },
    {
      "id": "trip_41090742_20250218_6687",
      "vehicleId": "41090742",
      "driverId": "20000016",
      "startMs": 1739915279000,
      "endMs": 1739916779000,
      "startAddress": "127 Baker Plains Suite 191",
      "endAddress": "777 Valencia Branch Suite 814",
      "startCoords": {
        "latitude": 39.721482,
        "longitude": -104.940036
      },
      "endCoords": {
        "latitude": 39.783708,
        "longitude": -104.994016
      },
      "distanceMeters": 12385.1,
      "durationMs": 1500000,
      "drivingDurationMs": 1231018,
      "idlingDurationMs": 268982,
      "fuelConsumedMl": 560,
      "fuelConsumedGallons": 0.148,
      "maxSpeedMph": 42.7,
      "averageSpeedMph": 18.5,
      "safetyEvents": []
    },
    {
      "id": "trip_41090742_20250219_6717",
      "vehicleId": "41090742",
      "driverId": "20000014",
      "startMs": 1739937350000,
      "endMs": 1739938910000,
      "startAddress": "963 Thompson Walks",
      "endAddress": "61269 Allen Walks Suite 769",
      "startCoords": {
        "latitude": 39.783813,
        "longitude": -104.957015
      },
      "endCoords": {
        "latitude": 39.689803,
        "longitude": -104.968613
      },
      "distanceMeters": 10738.4,
      "durationMs": 1560000,
      "drivingDurationMs": 1192043,
      "idlingDurationMs": 367957,
      "fuelConsumedMl": 485,
      "fuelConsumedGallons": 0.128,
      "maxSpeedMph": 41.7,
      "averageSpeedMph": 15.4,
      "safetyEvents": []
    },
    {
      "id": "trip_41090742_20250219_6747",
      "vehicleId": "41090742",
      "driverId": "20000016",
      "startMs": 1739957500000,
      "endMs": 1739965003000,
      "startAddress": "13011 Ryan Field",
      "endAddress": "06387 Tony Center",
      "startCoords": {
        "latitude": 39.696867,
        "longitude": -104.986942
      },
      "endCoords": {
        "latitude": 39.7954,
        "longitude": -104.969175
      },
      "distanceMeters": 58158.6,
      "durationMs": 7503000,
      "drivingDurationMs": 5713922,
      "idlingDurationMs": 1789078,
      "fuelConsumedMl": 2631,
      "fuelConsumedGallons": 0.695,
      "maxSpeedMph": 45.9,
      "averageSpeedMph": 17.3,
      "safetyEvents": []
    },
    {
      "id": "trip_41090742_20250219_6775",
      "vehicleId": "41090742",
      "driverId": "20000022",
      "startMs": 1739973364000,
      "endMs": 1739975284000,
      "startAddress": "160 Moore Shoal Apt. 275",
      "endAddress": "4780 William Summit",
      "startCoords": {
        "latitude": 39.68817,
        "longitude": -105.074106
      },
      "endCoords": {
        "latitude": 39.703542,
        "longitude": -105.052924
      },
      "distanceMeters": 12387.1,
      "durationMs": 1920000,
      "drivingDurationMs": 1513730,
      "idlingDurationMs": 406270,
      "fuelConsumedMl": 560,
      "fuelConsumedGallons": 0.148,
      "maxSpeedMph": 46.0,
      "averageSpeedMph": 14.4,
      "safetyEvents": []
    },
    {
      "id": "trip_41090742_20250219_6804",
      "vehicleId": "41090742",
      "driverId": "20000004",
      "startMs": 1739984868000,
      "endMs": 1739994637000,
      "startAddress": "845 Troy Divide Suite 087",
      "endAddress": "766 Angela Avenue Suite 635",
      "startCoords": {
        "latitude": 39.721046,
        "longitude": -104.935452
      },
      "endCoords": {
        "latitude": 39.712722,
        "longitude": -104.943381
      },
      "distanceMeters": 80164.1,
      "durationMs": 9769000,
      "drivingDurationMs": 8294429,
      "idlingDurationMs": 1474571,
      "fuelConsumedMl": 3626,
      "fuelConsumedGallons": 0.958,
      "maxSpeedMph": 39.9,
      "averageSpeedMph": 18.4,
      "safetyEvents": []
    },
    {
      "id": "trip_41090742_20250219_6832",
      "vehicleId": "41090742",
      "driverId": "20000021",
      "startMs": 1740002851000,
      "endMs": 1740034161000,
      "startAddress": "1475 Case Path Suite 598",
      "endAddress": "978 Megan Roads",
      "startCoords": {
        "latitude": 39.826261,
        "longitude": -105.071185
      },
      "endCoords": {
        "latitude": 39.821825,
        "longitude": -104.912825
      },
      "distanceMeters": 251481.9,
      "durationMs": 31310000,
      "drivingDurationMs": 24911293,
      "idlingDurationMs": 6398707,
      "fuelConsumedMl": 11375,
      "fuelConsumedGallons": 3.005,
      "maxSpeedMph": 37.5,
      "averageSpeedMph": 18.0,
      "safetyEvents": []
    },
    {
      "id": "trip_41090742_20250220_6883",
      "vehicleId": "41090742",
      "driverId": "20000017",
      "startMs": 1740034581000,
      "endMs": 1740043249000,
      "startAddress": "570 Bruce Way Apt. 922",
      "endAddress": "22337 Ryan Lane",
      "startCoords": {
        "latitude": 39.724037,
        "longitude": -104.967909
      },
      "endCoords": {
        "latitude": 39.723963,
        "longitude": -105.045798
      },
      "distanceMeters": 47440.7,
      "durationMs": 8668000,
      "drivingDurationMs": 7325859,
      "idlingDurationMs": 1342141,
      "fuelConsumedMl": 2146,
      "fuelConsumedGallons": 0.567,
      "maxSpeedMph": 33.5,
      "averageSpeedMph": 12.2,
      "safetyEvents": []
    },
    {
      "id": "trip_41090742_20250220_6908",
      "vehicleId": "41090742",
      "driverId": "20000021",
      "startMs": 1740045678000,
      "endMs": 1740047178000,
      "startAddress": "79066 Hale Knolls",
      "endAddress": "829 Rodriguez Forges Suite 916",
      "startCoords": {
        "latitude": 39.683746,
        "longitude": -104.955976
      },
      "endCoords": {
        "latitude": 39.746903,
        "longitude": -104.905448
      },
      "distanceMeters": 7759.4,
      "durationMs": 1500000,
      "drivingDurationMs": 1170149,
      "idlingDurationMs": 329851,
      "fuelConsumedMl": 352,
      "fuelConsumedGallons": 0.093,
      "maxSpeedMph": 43.4,
      "averageSpeedMph": 11.6,
      "safetyEvents": []
    },
    {
      "id": "trip_41090742_20250220_6942",
      "vehicleId": "41090742",
      "driverId": "20000015",
      "startMs": 1740060014000,
      "endMs": 1740061634000,
      "startAddress": "05247 Jones Creek",
      "endAddress": "78238 Williams Manor",
      "startCoords": {
        "latitude": 39.701437,
        "longitude": -104.91594
      },
      "endCoords": {
        "latitude": 39.694168,
        "longitude": -104.986258
      },
      "distanceMeters": 12439.8,
      "durationMs": 1620000,
      "drivingDurationMs": 1361790,
      "idlingDurationMs": 258210,
      "fuelConsumedMl": 564,
      "fuelConsumedGallons": 0.149,
      "maxSpeedMph": 33.7,
      "averageSpeedMph": 17.2,
      "safetyEvents": []
    },
    {
      "id": "trip_41090742_20250220_6971",
      "vehicleId": "41090742",
      "driverId": "20000013",
      "startMs": 1740073487000,
      "endMs": 1740075107000,
      "startAddress": "75754 Melissa Plains",
      "endAddress": "2888 Boyd Fords",
      "startCoords": {
        "latitude": 39.709708,
        "longitude": -104.911673
      },
      "endCoords": {
        "latitude": 39.826838,
        "longitude": -105.014067
      },
      "distanceMeters": 11472.9,
      "durationMs": 1620000,
      "drivingDurationMs": 1382486,
      "idlingDurationMs": 237514,
      "fuelConsumedMl": 519,
      "fuelConsumedGallons": 0.137,
      "maxSpeedMph": 33.4,
      "averageSpeedMph": 15.8,
      "safetyEvents": []
    },
    {
      "id": "trip_41090742_20250220_7001",
      "vehicleId": "41090742",
      "driverId": "20000017",
      "startMs": 1740085235000,
      "endMs": 1740089220000,
      "startAddress": "4181 King Station Suite 162",
      "endAddress": "285 Vega Crest",
      "startCoords": {
        "latitude": 39.827719,
        "longitude": -105.011499
      },
      "endCoords": {
        "latitude": 39.690202,
        "longitude": -105.016888
      },
      "distanceMeters": 33181.3,
      "durationMs": 3985000,
      "drivingDurationMs": 3574268,
      "idlingDurationMs": 410732,
      "fuelConsumedMl": 1499,
      "fuelConsumedGallons": 0.396,
      "maxSpeedMph": 45.2,
      "averageSpeedMph": 18.6,
      "safetyEvents": []
    },
    {
      "id": "trip_41090742_20250221_7029",
      "vehicleId": "41090742",
      "driverId": "20000007",
      "startMs": 1740103463000,
      "endMs": 1740110846000,
      "startAddress": "36516 Miguel Rue",
      "endAddress": "44973 Jones Shoals",
      "startCoords": {
        "latitude": 39.742249,
        "longitude": -104.911321
      },
      "endCoords": {
        "latitude": 39.694477,
        "longitude": -104.971611
      },
      "distanceMeters": 46206.2,
      "durationMs": 7383000,
      "drivingDurationMs": 6590027,
      "idlingDurationMs": 792973,
      "fuelConsumedMl": 2090,
      "fuelConsumedGallons": 0.552,
      "maxSpeedMph": 40.8,
      "averageSpeedMph": 14.0,
      "safetyEvents": []
    },
    {
      "id": "trip_41090742_20250221_7058",
      "vehicleId": "41090742",
      "driverId": "20000012",
      "startMs": 1740123521000,
      "endMs": 1740133049000,
      "startAddress": "6083 Tonya Junctions",
      "endAddress": "33812 Sara Flats",
      "startCoords": {
        "latitude": 39.778901,
        "longitude": -104.902375
      },
      "endCoords": {
        "latitude": 39.792366,
        "longitude": -104.9736
      },
      "distanceMeters": 64024.4,
      "durationMs": 9528000,
      "drivingDurationMs": 7397886,
      "idlingDurationMs": 2130114,
      "fuelConsumedMl": 2896,
      "fuelConsumedGallons": 0.765,
      "maxSpeedMph": 41.5,
      "averageSpeedMph": 15.0,
      "safetyEvents": []
    },
    {
      "id": "trip_41090742_20250221_7087",
      "vehicleId": "41090742",
      "driverId": "20000020",
      "startMs": 1740141177000,
      "endMs": 1740155158000,
      "startAddress": "836 Cynthia Glen Suite 380",
      "endAddress": "02751 Adam Junction Suite 973",
      "startCoords": {
        "latitude": 39.701442,
        "longitude": -104.92736
      },
      "endCoords": {
        "latitude": 39.755106,
        "longitude": -104.919457
      },
      "distanceMeters": 106914.4,
      "durationMs": 13981000,
      "drivingDurationMs": 11943429,
      "idlingDurationMs": 2037571,
      "fuelConsumedMl": 4838,
      "fuelConsumedGallons": 1.278,
      "maxSpeedMph": 44.0,
      "averageSpeedMph": 17.1,
      "safetyEvents": []
    },
    {
      "id": "trip_41090742_20250221_7119",
      "vehicleId": "41090742",
      "driverId": "20000012",
      "startMs": 1740155929000,
      "endMs": 1740158449000,
      "startAddress": "34390 Sean Pass Suite 382",
      "endAddress": "822 Katelyn Plains Apt. 359",
      "startCoords": {
        "latitude": 39.710508,
        "longitude": -104.974762
      },
      "endCoords": {
        "latitude": 39.704969,
        "longitude": -105.045685
      },
      "distanceMeters": 13391.0,
      "durationMs": 2520000,
      "drivingDurationMs": 2008979,
      "idlingDurationMs": 511021,
      "fuelConsumedMl": 606,
      "fuelConsumedGallons": 0.16,
      "maxSpeedMph": 36.1,
      "averageSpeedMph": 11.9,
      "safetyEvents": []
    },
    {
      "id": "trip_41090742_20250221_7144",
      "vehicleId": "41090742",
      "driverId": "20000007",
      "startMs": 1740165951000,
      "endMs": 1740167871000,
      "startAddress": "504 John Plaza",
      "endAddress": "7624 Deborah Stravenue Apt. 659",
      "startCoords": {
        "latitude": 39.818981,
        "longitude": -105.001574
      },
      "endCoords": {
        "latitude": 39.797111,
        "longitude": -104.975842
      },
      "distanceMeters": 12372.7,
      "durationMs": 1920000,
      "drivingDurationMs": 1708350,
      "idlingDurationMs": 211650,
      "fuelConsumedMl": 560,
      "fuelConsumedGallons": 0.148,
      "maxSpeedMph": 45.1,
      "averageSpeedMph": 14.4,
      "safetyEvents": []
    },
    {
      "id": "trip_41090742_20250222_7175",
      "vehicleId": "41090742",
      "driverId": "20000011",
      "startMs": 1740184583000,
      "endMs": 1740186083000,
      "startAddress": "159 Bowers Stravenue Suite 031",
      "endAddress": "109 John Island Apt. 401",
      "startCoords": {
        "latitude": 39.760573,
        "longitude": -104.92525
      },
      "endCoords": {
        "latitude": 39.732539,
        "longitude": -105.048645
      },
      "distanceMeters": 10646.9,
      "durationMs": 1500000,
      "drivingDurationMs": 1157643,
      "idlingDurationMs": 342357,
      "fuelConsumedMl": 481,
      "fuelConsumedGallons": 0.127,
      "maxSpeedMph": 46.4,
      "averageSpeedMph": 15.9,
      "safetyEvents": []
    },
    {
      "id": "trip_41090742_20250222_7204",
      "vehicleId": "41090742",
      "driverId": "20000009",
      "startMs": 1740206122000,
      "endMs": 1740207982000,
      "startAddress": "14254 Olson Ranch",
      "endAddress": "02715 Sally Village Apt. 693",
      "startCoords": {
        "latitude": 39.763981,
        "longitude": -104.914731
      },
      "endCoords": {
        "latitude": 39.819398,
        "longitude": -104.910334
      },
      "distanceMeters": 11749.5,
      "durationMs": 1860000,
      "drivingDurationMs": 1518387,
      "idlingDurationMs": 341613,
      "fuelConsumedMl": 530,
      "fuelConsumedGallons": 0.14,
      "maxSpeedMph": 43.2,
      "averageSpeedMph": 14.1,
      "safetyEvents": []
    },
    {
      "id": "trip_41090742_20250222_7231",
      "vehicleId": "41090742",
      "driverId": "20000003",
      "startMs": 1740218519000,
      "endMs": 1740223624000,
      "startAddress": "05815 Jensen Coves",
      "endAddress": "83682 Jeffery Union Suite 634",
      "startCoords": {
        "latitude": 39.8243,
        "longitude": -104.984004
      },
      "endCoords": {
        "latitude": 39.685042,
        "longitude": -104.936537
      },
      "distanceMeters": 40245.3,
      "durationMs": 5105000,
      "drivingDurationMs": 4119311,
      "idlingDurationMs": 985689,
      "fuelConsumedMl": 1821,
      "fuelConsumedGallons": 0.481,
      "maxSpeedMph": 34.1,
      "averageSpeedMph": 17.6,
      "safetyEvents": []
    },
    {
      "id": "trip_41090742_20250222_7269",
      "vehicleId": "41090742",
      "driverId": "20000020",
      "startMs": 1740241771000,
      "endMs": 1740246966000,
      "startAddress": "6262 Mendez Flats Apt. 925",
      "endAddress": "67767 Joel Burg Suite 109",
      "startCoords": {
        "latitude": 39.796986,
        "longitude": -105.009628
      },
      "endCoords": {
        "latitude": 39.74837,
        "longitude": -104.976178
      },
      "distanceMeters": 36694.9,
      "durationMs": 5195000,
      "drivingDurationMs": 4464213,
      "idlingDurationMs": 730787,
      "fuelConsumedMl": 1658,
      "fuelConsumedGallons": 0.438,
      "maxSpeedMph": 34.2,
      "averageSpeedMph": 15.8,
      "safetyEvents": []
    },
    {
      "id": "trip_41090742_20250222_7296",
      "vehicleId": "41090742",
      "driverId": "20000013",
      "startMs": 1740255902000,
      "endMs": 1740258182000,
      "startAddress": "14077 Hill Rapid",
      "endAddress": "8953 Johnson Stream Suite 674",
      "startCoords": {
        "latitude": 39.806845,
        "longitude": -105.018023
      },
      "endCoords": {
        "latitude": 39.803271,
        "longitude": -104.919144
      },
      "distanceMeters": 12110.0,
      "durationMs": 2280000,
      "drivingDurationMs": 1783629,
      "idlingDurationMs": 496371,
      "fuelConsumedMl": 549,
      "fuelConsumedGallons": 0.145,
      "maxSpeedMph": 44.3,
      "averageSpeedMph": 11.9,
      "safetyEvents": []
    },
    {
      "id": "trip_41090742_20250223_7327",
      "vehicleId": "41090742",
      "driverId": "20000012",
      "startMs": 1740276898000,
      "endMs": 1740280511000,
      "startAddress": "4008 Carol Corners Suite 573",
      "endAddress": "551 Cochran Gateway Suite 288",
      "startCoords": {
        "latitude": 39.760739,
        "longitude": -105.078154
      },
      "endCoords": {
        "latitude": 39.819807,
        "longitude": -104.919959
      },
      "distanceMeters": 28331.2,
      "durationMs": 3613000,
      "drivingDurationMs": 2766964,
      "idlingDurationMs": 846036,
      "fuelConsumedMl": 1283,
      "fuelConsumedGallons": 0.339,
      "maxSpeedMph": 44.9,
      "averageSpeedMph": 17.5,
      "safetyEvents": []
    },
    {
      "id": "trip_41090742_20250223_7351",
      "vehicleId": "41090742",
      "driverId": "20000019",
      "startMs": 1740296699000,
      "endMs": 1740301122000,
      "startAddress": "62480 Daniel Lock Suite 967",
      "endAddress": "5295 Alvarado Crossing Suite 272",
      "startCoords": {
        "latitude": 39.703438,
        "longitude": -104.933559
      },
      "endCoords": {
        "latitude": 39.82278,
        "longitude": -105.028923
      },
      "distanceMeters": 30008.1,
      "durationMs": 4423000,
      "drivingDurationMs": 3453562,
      "idlingDurationMs": 969438,
      "fuelConsumedMl": 1359,
      "fuelConsumedGallons": 0.359,
      "maxSpeedMph": 31.0,
      "averageSpeedMph": 15.2,
      "safetyEvents": []
    },
    {
      "id": "trip_41090742_20250223_7381",
      "vehicleId": "41090742",
      "driverId": "20000001",
      "startMs": 1740320442000,
      "endMs": 1740326557000,
      "startAddress": "7632 Aaron Hills",
      "endAddress": "86662 Kathryn Row",
      "startCoords": {
        "latitude": 39.735199,
        "longitude": -105.038007
      },
      "endCoords": {
        "latitude": 39.783406,
        "longitude": -105.019678
      },
      "distanceMeters": 44552.7,
      "durationMs": 6115000,
      "drivingDurationMs": 5105564,
      "idlingDurationMs": 1009436,
      "fuelConsumedMl": 2014,
      "fuelConsumedGallons": 0.532,
      "maxSpeedMph": 37.2,
      "averageSpeedMph": 16.3,
      "safetyEvents": []
    },
    {
      "id": "trip_41090742_20250223_7410",
      "vehicleId": "41090742",
      "driverId": "20000003",
      "startMs": 1740346271000,
      "endMs": 1740348131000,
      "startAddress": "44120 Molly Place Suite 284",
      "endAddress": "0129 Nichols Streets",
      "startCoords": {
        "latitude": 39.772171,
        "longitude": -104.993858
      },
      "endCoords": {
        "latitude": 39.709671,
        "longitude": -105.007406
      },
      "distanceMeters": 14883.0,
      "durationMs": 1860000,
      "drivingDurationMs": 1496907,
      "idlingDurationMs": 363093,
      "fuelConsumedMl": 674,
      "fuelConsumedGallons": 0.178,
      "maxSpeedMph": 34.4,
      "averageSpeedMph": 17.9,
      "safetyEvents": []
    },
    {
      "id": "trip_41090742_20250224_7441",
      "vehicleId": "41090742",
      "driverId": "20000001",
      "startMs": 1740388160000,
      "endMs": 1740398334000,
      "startAddress": "47279 Schmidt Stream",
      "endAddress": "7676 Lopez Drive Suite 478",
      "startCoords": {
        "latitude": 39.785134,
        "longitude": -105.013719
      },
      "endCoords": {
        "latitude": 39.755613,
        "longitude": -104.968938
      },
      "distanceMeters": 65257.4,
      "durationMs": 10174000,
      "drivingDurationMs": 7849492,
      "idlingDurationMs": 2324508,
      "fuelConsumedMl": 2953,
      "fuelConsumedGallons": 0.78,
      "maxSpeedMph": 35.0,
      "averageSpeedMph": 14.3,
      "safetyEvents": []
    },
    {
      "id": "trip_41090742_20250224_7470",
      "vehicleId": "41090742",
      "driverId": "20000013",
      "startMs": 1740402217000,
      "endMs": 1740405489000,
      "startAddress": "8242 Massey Forks Suite 332",
      "endAddress": "331 Clements Crescent Apt. 913",
      "startCoords": {
        "latitude": 39.685904,
        "longitude": -104.921694
      },
      "endCoords": {
        "latitude": 39.691706,
        "longitude": -104.938521
      },
      "distanceMeters": 28790.1,
      "durationMs": 3272000,
      "drivingDurationMs": 2926805,
      "idlingDurationMs": 345195,
      "fuelConsumedMl": 1302,
      "fuelConsumedGallons": 0.344,
      "maxSpeedMph": 39.8,
      "averageSpeedMph": 19.7,
      "safetyEvents": []
    },
    {
      "id": "trip_41090742_20250224_7498",
      "vehicleId": "41090742",
      "driverId": "20000021",
      "startMs": 1740417239000,
      "endMs": 1740434400000,
      "startAddress": "9637 Boone Creek Suite 277",
      "endAddress": "3045 Horton Cove Suite 506",
      "startCoords": {
        "latitude": 39.827434,
        "longitude": -104.921421
      },
      "endCoords": {
        "latitude": 39.723191,
        "longitude": -105.038583
      },
      "distanceMeters": 147647.8,
      "durationMs": 17161000,
      "drivingDurationMs": 14987758,
      "idlingDurationMs": 2173242,
      "fuelConsumedMl": 6677,
      "fuelConsumedGallons": 1.764,
      "maxSpeedMph": 36.2,
      "averageSpeedMph": 19.2,
      "safetyEvents": []
    },
    {
      "id": "trip_41090742_20250224_7532",
      "vehicleId": "41090742",
      "driverId": "20000018",
      "startMs": 1740435263000,
      "endMs": 1740442522000,
      "startAddress": "027 David Spurs",
      "endAddress": "790 Barbara Crossing Apt. 602",
      "startCoords": {
        "latitude": 39.785237,
        "longitude": -104.937287
      },
      "endCoords": {
        "latitude": 39.806153,
        "longitude": -105.078104
      },
      "distanceMeters": 55888.4,
      "durationMs": 7259000,
      "drivingDurationMs": 6375250,
      "idlingDurationMs": 883750,
      "fuelConsumedMl": 2529,
      "fuelConsumedGallons": 0.668,
      "maxSpeedMph": 38.3,
      "averageSpeedMph": 17.2,
      "safetyEvents": []
    },
    {
      "id": "trip_41090742_20250225_7562",
      "vehicleId": "41090742",
      "driverId": "20000021",
      "startMs": 1740456205000,
      "endMs": 1740462518000,
      "startAddress": "399 Lisa Neck Apt. 801",
      "endAddress": "4422 Becky Radial Apt. 809",
      "startCoords": {
        "latitude": 39.745841,
        "longitude": -105.075736
      },
      "endCoords": {
        "latitude": 39.81589,
        "longitude": -105.049767
      },
      "distanceMeters": 47696.7,
      "durationMs": 6313000,
      "drivingDurationMs": 5519446,
      "idlingDurationMs": 793554,
      "fuelConsumedMl": 2158,
      "fuelConsumedGallons": 0.57,
      "maxSpeedMph": 42.9,
      "averageSpeedMph": 16.9,
      "safetyEvents": []
    },
    {
      "id": "trip_41090742_20250225_7593",
      "vehicleId": "41090742",
      "driverId": "20000015",
      "startMs": 1740475873000,
      "endMs": 1740477493000,
      "startAddress": "969 Padilla Land Suite 146",
      "endAddress": "483 Cindy Knoll",
      "startCoords": {
        "latitude": 39.823189,
        "longitude": -104.931454
      },
      "endCoords": {
        "latitude": 39.716995,
        "longitude": -104.991742
      },
      "distanceMeters": 11386.3,
      "durationMs": 1620000,
      "drivingDurationMs": 1289502,
      "idlingDurationMs": 330498,
      "fuelConsumedMl": 515,
      "fuelConsumedGallons": 0.136,
      "maxSpeedMph": 32.1,
      "averageSpeedMph": 15.7,
      "safetyEvents": []
    },
    {
      "id": "trip_41090742_20250225_7624",
      "vehicleId": "41090742",
      "driverId": "20000022",
      "startMs": 1740493302000,
      "endMs": 1740494922000,
      "startAddress": "88102 Taylor Plaza",
      "endAddress": "1309 Wright Hills",
      "startCoords": {
        "latitude": 39.701076,
        "longitude": -105.042842
      },
      "endCoords": {
        "latitude": 39.775294,
        "longitude": -104.990811
      },
      "distanceMeters": 9969.4,
      "durationMs": 1620000,
      "drivingDurationMs": 1264607,
      "idlingDurationMs": 355393,
      "fuelConsumedMl": 450,
      "fuelConsumedGallons": 0.119,
      "maxSpeedMph": 36.7,
      "averageSpeedMph": 13.8,
      "safetyEvents": []
    },
    {
      "id": "trip_41090742_20250225_7649",
      "vehicleId": "41090742",
      "driverId": "20000005",
      "startMs": 1740504918000,
      "endMs": 1740510942000,
      "startAddress": "1100 Taylor Harbor Apt. 675",
      "endAddress": "9851 Anderson Keys Apt. 117",
      "startCoords": {
        "latitude": 39.806869,
        "longitude": -104.93425
      },
      "endCoords": {
        "latitude": 39.819246,
        "longitude": -105.084855
      },
      "distanceMeters": 31977.1,
      "durationMs": 6024000,
      "drivingDurationMs": 5150845,
      "idlingDurationMs": 873155,
      "fuelConsumedMl": 1446,
      "fuelConsumedGallons": 0.382,
      "maxSpeedMph": 31.8,
      "averageSpeedMph": 11.9,
      "safetyEvents": []
    },
    {
      "id": "trip_41090742_20250225_7673",
      "vehicleId": "41090742",
      "driverId": "20000015",
      "startMs": 1740519722000,
      "endMs": 1740521822000,
      "startAddress": "3720 Riley Mission",
      "endAddress": "220 Adkins Fords",
      "startCoords": {
        "latitude": 39.709747,
        "longitude": -105.069038
      },
      "endCoords": {
        "latitude": 39.708257,
        "longitude": -104.959863
      },
      "distanceMeters": 15428.3,
      "durationMs": 2100000,
      "drivingDurationMs": 1753757,
      "idlingDurationMs": 346243,
      "fuelConsumedMl": 697,
      "fuelConsumedGallons": 0.184,
      "maxSpeedMph": 45.4,
      "averageSpeedMph": 16.4,
      "safetyEvents": []
    },
    {
      "id": "trip_41090742_20250226_7700",
      "vehicleId": "41090742",
      "driverId": "20000008",
      "startMs": 1740535155000,
      "endMs": 1740542547000,
      "startAddress": "7610 Bowen Pine",
      "endAddress": "36441 Melinda Station",
      "startCoords": {
        "latitude": 39.698306,
        "longitude": -104.968947
      },
      "endCoords": {
        "latitude": 39.76204,
        "longitude": -105.037139
      },
      "distanceMeters": 48181.1,
      "durationMs": 7392000,
      "drivingDurationMs": 6173210,
      "idlingDurationMs": 1218790,
      "fuelConsumedMl": 2180,
      "fuelConsumedGallons": 0.576,
      "maxSpeedMph": 34.3,
      "averageSpeedMph": 14.6,
      "safetyEvents": []
    },
    {
      "id": "trip_41090742_20250226_7729",
      "vehicleId": "41090742",
      "driverId": "20000015",
      "startMs": 1740553957000,
      "endMs": 1740575226000,
      "startAddress": "0383 Bond Isle Suite 310",
      "endAddress": "02550 Tonya Walk",
      "startCoords": {
        "latitude": 39.826866,
        "longitude": -105.06423
      },
      "endCoords": {
        "latitude": 39.749051,
        "longitude": -104.925583
      },
      "distanceMeters": 110238.0,
      "durationMs": 21269000,
      "drivingDurationMs": 16388585,
      "idlingDurationMs": 4880415,
      "fuelConsumedMl": 4985,
      "fuelConsumedGallons": 1.317,
      "maxSpeedMph": 34.7,
      "averageSpeedMph": 11.6,
      "safetyEvents": []
    },
    {
      "id": "trip_41090742_20250226_7769",
      "vehicleId": "41090742",
      "driverId": "20000022",
      "startMs": 1740576187000,
      "endMs": 1740577687000,
      "startAddress": "18896 Butler Dale",
      "endAddress": "246 Melissa Point",
      "startCoords": {
        "latitude": 39.75276,
        "longitude": -105.039047
      },
      "endCoords": {
        "latitude": 39.703432,
        "longitude": -104.901171
      },
      "distanceMeters": 10199.1,
      "durationMs": 1500000,
      "drivingDurationMs": 1318108,
      "idlingDurationMs": 181892,
      "fuelConsumedMl": 462,
      "fuelConsumedGallons": 0.122,
      "maxSpeedMph": 35.0,
      "averageSpeedMph": 15.2,
      "safetyEvents": []
    },
    {
      "id": "trip_41090742_20250226_7800",
      "vehicleId": "41090742",
      "driverId": "20000006",
      "startMs": 1740589019000,
      "endMs": 1740615290000,
      "startAddress": "922 Page Keys Apt. 161",
      "endAddress": "1599 Fowler Views",
      "startCoords": {
        "latitude": 39.698174,
        "longitude": -105.061689
      },
      "endCoords": {
        "latitude": 39.775724,
        "longitude": -104.94601
      },
      "distanceMeters": 183075.0,
      "durationMs": 26271000,
      "drivingDurationMs": 20173523,
      "idlingDurationMs": 6097477,
      "fuelConsumedMl": 8282,
      "fuelConsumedGallons": 2.188,
      "maxSpeedMph": 32.6,
      "averageSpeedMph": 15.6,
      "safetyEvents": []
    },
    {
      "id": "trip_41090742_20250227_7838",
      "vehicleId": "41090742",
      "driverId": "20000017",
      "startMs": 1740615434000,
      "endMs": 1740617174000,
      "startAddress": "81493 Holly Way",
      "endAddress": "634 Patricia Alley",
      "startCoords": {
        "latitude": 39.753523,
        "longitude": -104.908567
      },
      "endCoords": {
        "latitude": 39.745421,
        "longitude": -105.036005
      },
      "distanceMeters": 9494.4,
      "durationMs": 1740000,
      "drivingDurationMs": 1489687,
      "idlingDurationMs": 250313,
      "fuelConsumedMl": 428,
      "fuelConsumedGallons": 0.113,
      "maxSpeedMph": 36.3,
      "averageSpeedMph": 12.2,
      "safetyEvents": []
    },
    {
      "id": "trip_41090742_20250227_7867",
      "vehicleId": "41090742",
      "driverId": "20000017",
      "startMs": 1740634804000,
      "endMs": 1740640476000,
      "startAddress": "482 James Turnpike",
      "endAddress": "03430 Smith Views Suite 292",
      "startCoords": {
        "latitude": 39.807994,
        "longitude": -104.971638
      },
      "endCoords": {
        "latitude": 39.763833,
        "longitude": -105.037471
      },
      "distanceMeters": 35950.3,
      "durationMs": 5672000,
      "drivingDurationMs": 4367411,
      "idlingDurationMs": 1304589,
      "fuelConsumedMl": 1628,
      "fuelConsumedGallons": 0.43,
      "maxSpeedMph": 46.6,
      "averageSpeedMph": 14.2,
      "safetyEvents": []
    },
    {
      "id": "trip_41090742_20250227_7893",
      "vehicleId": "41090742",
      "driverId": "20000012",
      "startMs": 1740647152000,
      "endMs": 1740650032000,
      "startAddress": "0949 Janet Forges Apt. 615",
      "endAddress": "12474 Walker Freeway",
      "startCoords": {
        "latitude": 39.743231,
        "longitude": -105.026423
      },
      "endCoords": {
        "latitude": 39.815561,
        "longitude": -105.07665
      },
      "distanceMeters": 21347.3,
      "durationMs": 2880000,
      "drivingDurationMs": 2412127,
      "idlingDurationMs": 467873,
      "fuelConsumedMl": 965,
      "fuelConsumedGallons": 0.255,
      "maxSpeedMph": 32.8,
      "averageSpeedMph": 16.6,
      "safetyEvents": []
    },
    {
      "id": "trip_41090742_20250227_7926",
      "vehicleId": "41090742",
      "driverId": "20000020",
      "startMs": 1740664864000,
      "endMs": 1740669309000,
      "startAddress": "429 Jeremiah Circles",
      "endAddress": "3438 Lisa Street Apt. 760",
      "startCoords": {
        "latitude": 39.765316,
        "longitude": -104.995868
      },
      "endCoords": {
        "latitude": 39.768625,
        "longitude": -105.019919
      },
      "distanceMeters": 36191.6,
      "durationMs": 4445000,
      "drivingDurationMs": 3838275,
      "idlingDurationMs": 606725,
      "fuelConsumedMl": 1635,
      "fuelConsumedGallons": 0.432,
      "maxSpeedMph": 35.0,
      "averageSpeedMph": 18.2,
      "safetyEvents": []
    },
    {
      "id": "trip_41090742_20250227_7953",
      "vehicleId": "41090742",
      "driverId": "20000021",
      "startMs": 1740678178000,
      "endMs": 1740683930000,
      "startAddress": "861 Evans Ranch Apt. 965",
      "endAddress": "55461 Shaun Forks",
      "startCoords": {
        "latitude": 39.701472,
        "longitude": -105.022696
      },
      "endCoords": {
        "latitude": 39.794136,
        "longitude": -105.028059
      },
      "distanceMeters": 38630.6,
      "durationMs": 5752000,
      "drivingDurationMs": 4383367,
      "idlingDurationMs": 1368633,
      "fuelConsumedMl": 1749,
      "fuelConsumedGallons": 0.462,
      "maxSpeedMph": 31.5,
      "averageSpeedMph": 15.0,
      "safetyEvents": []
    },
    {
      "id": "trip_41090742_20250227_7979",
      "vehicleId": "41090742",
      "driverId": "20000008",
      "startMs": 1740691717000,
      "endMs": 1740694576000,
      "startAddress": "744 Steven Crescent",
      "endAddress": "4836 Ward Circle Suite 251",
      "startCoords": {
        "latitude": 39.700441,
        "longitude": -104.973578
      },
      "endCoords": {
        "latitude": 39.751126,
        "longitude": -105.052416
      },
      "distanceMeters": 17359.3,
      "durationMs": 2859000,
      "drivingDurationMs": 2329090,
      "idlingDurationMs": 529910,
      "fuelConsumedMl": 784,
      "fuelConsumedGallons": 0.207,
      "maxSpeedMph": 41.2,
      "averageSpeedMph": 13.6,
      "safetyEvents": []
    },
    {
      "id": "trip_41090742_20250228_8006",
      "vehicleId": "41090742",
      "driverId": "20000021",
      "startMs": 1740712922000,
      "endMs": 1740725169000,
      "startAddress": "0698 Arthur Walk Suite 552",
      "endAddress": "205 Tucker Canyon Suite 812",
      "startCoords": {
        "latitude": 39.751783,
        "longitude": -104.97583
      },
      "endCoords": {
        "latitude": 39.690348,
        "longitude": -105.042125
      },
      "distanceMeters": 98772.0,
      "durationMs": 12247000,
      "drivingDurationMs": 9520251,
      "idlingDurationMs": 2726749,
      "fuelConsumedMl": 4467,
      "fuelConsumedGallons": 1.18,
      "maxSpeedMph": 33.5,
      "averageSpeedMph": 18.0,
      "safetyEvents": []
    },
    {
      "id": "trip_41090742_20250228_8037",
      "vehicleId": "41090742",
      "driverId": "20000011",
      "startMs": 1740732172000,
      "endMs": 1740734032000,
      "startAddress": "848 Sherry Islands Suite 995",
      "endAddress": "3140 Hughes Mews Suite 309",
      "startCoords": {
        "latitude": 39.751275,
        "longitude": -105.061607
      },
      "endCoords": {
        "latitude": 39.825927,
        "longitude": -104.926707
      },
      "distanceMeters": 10717.0,
      "durationMs": 1860000,
      "drivingDurationMs": 1413129,
      "idlingDurationMs": 446871,
      "fuelConsumedMl": 485,
      "fuelConsumedGallons": 0.128,
      "maxSpeedMph": 41.9,
      "averageSpeedMph": 12.9,
      "safetyEvents": []
    },
    {
      "id": "trip_41090742_20250228_8066",
      "vehicleId": "41090742",
      "driverId": "20000004",
      "startMs": 1740746141000,
      "endMs": 1740753648000,
      "startAddress": "475 Chaney Meadows",
      "endAddress": "2172 Joel Spur",
      "startCoords": {
        "latitude": 39.725847,
        "longitude": -104.961178
      },
      "endCoords": {
        "latitude": 39.718681,
        "longitude": -104.93764
      },
      "distanceMeters": 61088.0,
      "durationMs": 7507000,
      "drivingDurationMs": 6161419,
      "idlingDurationMs": 1345581,
      "fuelConsumedMl": 2763,
      "fuelConsumedGallons": 0.73,
      "maxSpeedMph": 37.2,
      "averageSpeedMph": 18.2,
      "safetyEvents": []
    },
    {
      "id": "trip_41090742_20250228_8094",
      "vehicleId": "41090742",
      "driverId": "20000015",
      "startMs": 1740762226000,
      "endMs": 1740763726000,
      "startAddress": "69205 Emily Run",
      "endAddress": "038 Jennifer Crossing Suite 679",
      "startCoords": {
        "latitude": 39.758949,
        "longitude": -105.033925
      },
      "endCoords": {
        "latitude": 39.739798,
        "longitude": -104.91398
      },
      "distanceMeters": 9297.6,
      "durationMs": 1500000,
      "drivingDurationMs": 1261041,
      "idlingDurationMs": 238959,
      "fuelConsumedMl": 420,
      "fuelConsumedGallons": 0.111,
      "maxSpeedMph": 41.6,
      "averageSpeedMph": 13.9,
      "safetyEvents": []
    },
    {
      "id": "trip_41090742_20250228_8121",
      "vehicleId": "41090742",
      "driverId": "20000013",
      "startMs": 1740774242000,
      "endMs": 1740775922000,
      "startAddress": "730 James Road Apt. 576",
      "endAddress": "60681 Ellis Grove",
      "startCoords": {
        "latitude": 39.726863,
        "longitude": -104.957411
      },
      "endCoords": {
        "latitude": 39.710175,
        "longitude": -105.085638
      },
      "distanceMeters": 13245.2,
      "durationMs": 1680000,
      "drivingDurationMs": 1431099,
      "idlingDurationMs": 248901,
      "fuelConsumedMl": 598,
      "fuelConsumedGallons": 0.158,
      "maxSpeedMph": 43.5,
      "averageSpeedMph": 17.6,
      "safetyEvents": []
    }
  ]
}