{
  "vehicleId": "42031656",
  "vehicleName": "DEN-VAN-09",
  "month": "2025_02",
  "pagination": {
    "endCursor": "trip_42031656_20250228_8127",
    "hasNextPage": false
  },
  "trips": [
    {
      "id": "trip_42031656_20250201_4255",
      "vehicleId": "42031656",
      "driverId": "20000009",
      "startMs": 1738379279000,
      "endMs": 1738380479000,
      "startAddress": "29887 Butler Light",
      "endAddress": "1612 Justin Meadow",
      "startCoords": {
        "latitude": 39.708599,
        "longitude": -104.944412
      },
      "endCoords": {
        "latitude": 39.719748,
        "longitude": -104.998726
      },
      "distanceMeters": 8236.3,
      "durationMs": 1200000,
      "drivingDurationMs": 1061386,
      "idlingDurationMs": 138614,
      "fuelConsumedMl": 1049,
      "fuelConsumedGallons": 0.277,
      "maxSpeedMph": 26.3,
      "averageSpeedMph": 15.4,
      "safetyEvents": []
    },
    {
      "id": "trip_42031656_20250201_4280",
      "vehicleId": "42031656",
      "driverId": "20000004",
      "startMs": 1738395907000,
      "endMs": 1738397467000,
      "startAddress": "9043 Bowman Streets",
      "endAddress": "151 Lewis Squares",
      "startCoords": {
        "latitude": 39.802867,
        "longitude": -105.072304
      },
      "endCoords": {
        "latitude": 39.68869,
        "longitude": -104.952663
      },
      "distanceMeters": 11590.3,
      "durationMs": 1560000,
      "drivingDurationMs": 1369143,
      "idlingDurationMs": 190857,
      "fuelConsumedMl": 1473,
      "fuelConsumedGallons": 0.389,
      "maxSpeedMph": 33.3,
      "averageSpeedMph": 16.6,
      "safetyEvents": []
    },
    {
      "id": "trip_42031656_20250201_4308",
      "vehicleId": "42031656",
      "driverId": "20000002",
      "startMs": 1738411082000,
      "endMs": 1738413002000,
      "startAddress": "66305 Wagner Forges",
      "endAddress": "233 Timothy Park",
      "startCoords": {
        "latitude": 39.784811,
        "longitude": -105.07871
      },
      "endCoords": {
        "latitude": 39.797241,
        "longitude": -104.99328
      },
      "distanceMeters": 11680.8,
      "durationMs": 1920000,
      "drivingDurationMs": 1658379,
      "idlingDurationMs": 261621,
      "fuelConsumedMl": 1484,
      "fuelConsumedGallons": 0.392,
      "maxSpeedMph": 34.1,
      "averageSpeedMph": 13.6,
      "safetyEvents": []
    },
    {
      "id": "trip_42031656_20250201_4339",
      "vehicleId": "42031656",
      "driverId": "20000004",
      "startMs": 1738428029000,
      "endMs": 1738429229000,
      "startAddress": "6655 Morgan Plaza",
      "endAddress": "238 Kristopher Brooks Apt. 666",
      "startCoords": {
        "latitude": 39.818187,
        "longitude": -104.988391
      },
      "endCoords": {
        "latitude": 39.727721,
        "longitude": -105.036499
      },
      "distanceMeters": 5190.2,
      "durationMs": 1200000,
      "drivingDurationMs": 962922,
      "idlingDurationMs": 237078,
      "fuelConsumedMl": 659,
      "fuelConsumedGallons": 0.174,
      "maxSpeedMph": 38.7,
      "averageSpeedMph": 9.7,
      "safetyEvents": []
    },
    {
      "id": "trip_42031656_20250201_4366",
      "vehicleId": "42031656",
      "driverId": "20000017",
      "startMs": 1738444581000,
      "endMs": 1738446861000,
      "startAddress": "595 Nicholson Pike",
      "endAddress": "48718 Henry Isle Apt. 608",
      "startCoords": {
        "latitude": 39.764173,
        "longitude": -105.016158
      },
      "endCoords": {
        "latitude": 39.811157,
        "longitude": -104.943812
      },
      "distanceMeters": 17758.6,
      "durationMs": 2280000,
      "drivingDurationMs": 2027793,
      "idlingDurationMs": 252207,
      "fuelConsumedMl": 2256,
      "fuelConsumedGallons": 0.596,
      "maxSpeedMph": 27.2,
      "averageSpeedMph": 17.4,
      "safetyEvents": []
    },
    {
      "id": "trip_42031656_20250202_4392",
      "vehicleId": "42031656",
      "driverId": "20000002",
      "startMs": 1738463968000,
      "endMs": 1738466128000,
      "startAddress": "73350 Kayla Meadows Suite 238",
      "endAddress": "8146 Ayala Lane",
      "startCoords": {
        "latitude": 39.74395,
        "longitude": -105.073386
      },
      "endCoords": {
        "latitude": 39.701258,
        "longitude": -104.968018
      },
      "distanceMeters": 13536.1,
      "durationMs": 2160000,
      "drivingDurationMs": 1649622,
      "idlingDurationMs": 510378,
      "fuelConsumedMl": 1722,
      "fuelConsumedGallons": 0.455,
      "maxSpeedMph": 27.7,
      "averageSpeedMph": 14.0,
      "safetyEvents": []
    },
    {
      "id": "trip_42031656_20250202_4416",
      "vehicleId": "42031656",
      "driverId": "20000011",
      "startMs": 1738485179000,
      "endMs": 1738486859000,
      "startAddress": "5808 Valerie Park",
      "endAddress": "772 Wang Meadows Apt. 511",
      "startCoords": {
        "latitude": 39.796856,
        "longitude": -105.075551
      },
      "endCoords": {
        "latitude": 39.727456,
        "longitude": -105.019328
      },
      "distanceMeters": 11500.8,
      "durationMs": 1680000,
      "drivingDurationMs": 1390416,
      "idlingDurationMs": 289584,
      "fuelConsumedMl": 1461,
      "fuelConsumedGallons": 0.386,
      "maxSpeedMph": 29.6,
      "averageSpeedMph": 15.3,
      "safetyEvents": []
    },
    {
      "id": "trip_42031656_20250202_4440",
      "vehicleId": "42031656",
      "driverId": "20000007",
      "startMs": 1738505769000,
      "endMs": 1738507449000,
      "startAddress": "248 Lucas Roads",
      "endAddress": "1635 Mcbride Trail",
      "startCoords": {
        "latitude": 39.744474,
        "longitude": -104.937825
      },
      "endCoords": {
        "latitude": 39.74786,
        "longitude": -104.965097
      },
      "distanceMeters": 9493.2,
      "durationMs": 1680000,
      "drivingDurationMs": 1280601,
      "idlingDurationMs": 399399,
      "fuelConsumedMl": 1208,
      "fuelConsumedGallons": 0.319,
      "maxSpeedMph": 36.4,
      "averageSpeedMph": 12.6,
      "safetyEvents": []
    },
    {
      "id": "trip_42031656_20250202_4465",
      "vehicleId": "42031656",
      "driverId": "20000008",
      "startMs": 1738528083000,
      "endMs": 1738530123000,
      "startAddress": "0991 Mary Mount Suite 517",
      "endAddress": "388 Katherine Square Apt. 400",
      "startCoords": {
        "latitude": 39.756317,
        "longitude": -104.931405
      },
      "endCoords": {
        "latitude": 39.77323,
        "longitude": -105.084236
      },
      "distanceMeters": 13241.4,
      "durationMs": 2040000,
      "drivingDurationMs": 1696885,
      "idlingDurationMs": 343115,
      "fuelConsumedMl": 1685,
      "fuelConsumedGallons": 0.445,
      "maxSpeedMph": 27.9,
      "averageSpeedMph": 14.5,
      "safetyEvents": []
    },
    {
      "id": "trip_42031656_20250203_4501",
      "vehicleId": "42031656",
      "driverId": "20000005",
      "startMs": 1738570339000,
      "endMs": 1738576314000,
      "startAddress": "23459 Todd Trail",
      "endAddress": "621 Salinas Mountains Suite 557",
      "startCoords": {
        "latitude": 39.773656,
        "longitude": -104.916916
      },
      "endCoords": {
        "latitude": 39.765501,
        "longitude": -104.913244
      },
      "distanceMeters": 33220.2,
      "durationMs": 5975000,
      "drivingDurationMs": 4944746,
      "idlingDurationMs": 1030254,
      "fuelConsumedMl": 4225,
      "fuelConsumedGallons": 1.116,
      "maxSpeedMph": 36.0,
      "averageSpeedMph": 12.4,
      "safetyEvents": []
    },
    {
      "id": "trip_42031656_20250203_4531",
      "vehicleId": "42031656",
      "driverId": "20000014",
      "startMs": 1738585795000,
      "endMs": 1738587715000,
      "startAddress": "0053 Michael Track",
      "endAddress": "8697 Fernando Avenue Suite 983",
      "startCoords": {
        "latitude": 39.719612,
        "longitude": -105.08534
      },
      "endCoords": {
        "latitude": 39.72272,
        "longitude": -104.971274
      },
      "distanceMeters": 12428.1,
      "durationMs": 1920000,
      "drivingDurationMs": 1580436,
      "idlingDurationMs": 339564,
      "fuelConsumedMl": 1579,
      "fuelConsumedGallons": 0.417,
      "maxSpeedMph": 32.5,
      "averageSpeedMph": 14.5,
      "safetyEvents": []
    },
    {
      "id": "trip_42031656_20250203_4555",
      "vehicleId": "42031656",
      "driverId": "20000012",
      "startMs": 1738597823000,
      "endMs": 1738599623000,
      "startAddress": "96385 Burke Lake Apt. 625",
      "endAddress": "654 Brenda Center Apt. 170",
      "startCoords": {
        "latitude": 39.804282,
        "longitude": -105.018112
      },
      "endCoords": {
        "latitude": 39.812796,
        "longitude": -105.002291
      },
      "distanceMeters": 7627.9,
      "durationMs": 1800000,
      "drivingDurationMs": 1415926,
      "idlingDurationMs": 384074,
      "fuelConsumedMl": 969,
      "fuelConsumedGallons": 0.256,
      "maxSpeedMph": 35.0,
      "averageSpeedMph": 9.5,
      "safetyEvents": []
    },
    {
      "id": "trip_42031656_20250203_4584",
      "vehicleId": "42031656",
      "driverId": "20000016",
      "startMs": 1738612086000,
      "endMs": 1738614256000,
      "startAddress": "29913 Lin Camp Suite 722",
      "endAddress": "1463 Isaac Mountain Suite 593",
      "startCoords": {
        "latitude": 39.821873,
        "longitude": -104.922189
      },
      "endCoords": {
        "latitude": 39.79897,
        "longitude": -104.970687
      },
      "distanceMeters": 9562.3,
      "durationMs": 2170000,
      "drivingDurationMs": 1725246,
      "idlingDurationMs": 444754,
      "fuelConsumedMl": 1215,
      "fuelConsumedGallons": 0.321,
      "maxSpeedMph": 29.8,
      "averageSpeedMph": 9.9,
      "safetyEvents": []
    },
    {
      "id": "trip_42031656_20250204_4615",
      "vehicleId": "42031656",
      "driverId": "20000022",
      "startMs": 1738629173000,
      "endMs": 1738630913000,
      "startAddress": "5981 Wolf Forge",
      "endAddress": "60124 Kathleen Meadow",
      "startCoords": {
        "latitude": 39.806158,
        "longitude": -104.986344
      },
      "endCoords": {
        "latitude": 39.794702,
        "longitude": -104.989764
      },
      "distanceMeters": 9210.3,
      "durationMs": 1740000,
      "drivingDurationMs": 1559861,
      "idlingDurationMs": 180139,
      "fuelConsumedMl": 1170,
      "fuelConsumedGallons": 0.309,
      "maxSpeedMph": 29.2,
      "averageSpeedMph": 11.8,
      "safetyEvents": []
    },
    {
      "id": "trip_42031656_20250204_4642",
      "vehicleId": "42031656",
      "driverId": "20000007",
      "startMs": 1738646591000,
      "endMs": 1738648391000,
      "startAddress": "34191 Hernandez Points",
      "endAddress": "8357 Robinson Circles Suite 808",
      "startCoords": {
        "latitude": 39.779188,
        "longitude": -104.990341
      },
      "endCoords": {
        "latitude": 39.801218,
        "longitude": -105.04659
      },
      "distanceMeters": 8685.6,
      "durationMs": 1800000,
      "drivingDurationMs": 1611869,
      "idlingDurationMs": 188131,
      "fuelConsumedMl": 1105,
      "fuelConsumedGallons": 0.292,
      "maxSpeedMph": 36.9,
      "averageSpeedMph": 10.8,
      "safetyEvents": []
    },
    {
      "id": "trip_42031656_20250204_4672",
      "vehicleId": "42031656",
      "driverId": "20000014",
      "startMs": 1738661125000,
      "endMs": 1738664894000,
      "startAddress": "4846 Joseph Forges",
      "endAddress": "3560 Johnny Cliff",
      "startCoords": {
        "latitude": 39.789623,
        "longitude": -105.006937
      },
      "endCoords": {
        "latitude": 39.824674,
        "longitude": -105.045582
      },
      "distanceMeters": 23046.7,
      "durationMs": 3769000,
      "drivingDurationMs": 3103258,
      "idlingDurationMs": 665742,
      "fuelConsumedMl": 2930,
      "fuelConsumedGallons": 0.774,
      "maxSpeedMph": 30.6,
      "averageSpeedMph": 13.7,
      "safetyEvents": []
    },
    {
      "id": "trip_42031656_20250204_4700",
      "vehicleId": "42031656",
      "driverId": "20000022",
      "startMs": 1738675431000,
      "endMs": 1738681908000,
      "startAddress": "05596 Brandt Union",
      "endAddress": "878 Jones Pines",
      "startCoords": {
        "latitude": 39.814449,
        "longitude": -105.016706
      },
      "endCoords": {
        "latitude": 39.701065,
        "longitude": -104.927295
      },
      "distanceMeters": 44048.6,
      "durationMs": 6477000,
      "drivingDurationMs": 5766959,
      "idlingDurationMs": 710041,
      "fuelConsumedMl": 5599,
      "fuelConsumedGallons": 1.479,
      "maxSpeedMph": 28.5,
      "averageSpeedMph": 15.2,
      "safetyEvents": []
    },
    {
      "id": "trip_42031656_20250204_4728",
      "vehicleId": "42031656",
      "driverId": "20000001",
      "startMs": 1738687421000,
      "endMs": 1738695582000,
      "startAddress": "80065 Cruz Expressway",
      "endAddress": "8197 Molly Port Suite 124",
      "startCoords": {
        "latitude": 39.783614,
        "longitude": -105.033731
      },
      "endCoords": {
        "latitude": 39.70562,
        "longitude": -104.96243
      },
      "distanceMeters": 49476.8,
      "durationMs": 8161000,
      "drivingDurationMs": 7230949,
      "idlingDurationMs": 930051,
      "fuelConsumedMl": 6291,
      "fuelConsumedGallons": 1.662,
      "maxSpeedMph": 30.4,
      "averageSpeedMph": 13.6,
      "safetyEvents": []
    },
    {
      "id": "trip_42031656_20250204_4755",
      "vehicleId": "42031656",
      "driverId": "20000014",
      "startMs": 1738708311000,
      "endMs": 1738710651000,
      "startAddress": "8308 Newton Neck",
      "endAddress": "26770 Guzman Circles",
      "startCoords": {
        "latitude": 39.756345,
        "longitude": -105.034422
      },
      "endCoords": {
        "latitude": 39.758318,
        "longitude": -105.085448
      },
      "distanceMeters": 13165.5,
      "durationMs": 2340000,
      "drivingDurationMs": 1863544,
      "idlingDurationMs": 476456,
      "fuelConsumedMl": 1673,
      "fuelConsumedGallons": 0.442,
      "maxSpeedMph": 33.8,
      "averageSpeedMph": 12.6,
      "safetyEvents": []
    },
    {
      "id": "trip_42031656_20250205_4785",
      "vehicleId": "42031656",
      "driverId": "20000011",
      "startMs": 1738733342000,
      "endMs": 1738735262000,
      "startAddress": "24390 Michael Skyway",
      "endAddress": "324 Gina Ridge Apt. 594",
      "startCoords": {
        "latitude": 39.742124,
        "longitude": -105.022403
      },
      "endCoords": {
        "latitude": 39.707181,
        "longitude": -105.058264
      },
      "distanceMeters": 14400.6,
      "durationMs": 1920000,
      "drivingDurationMs": 1720653,
      "idlingDurationMs": 199347,
      "fuelConsumedMl": 1832,
      "fuelConsumedGallons": 0.484,
      "maxSpeedMph": 33.3,
      "averageSpeedMph": 16.8,
      "safetyEvents": []
    },
    {
      "id": "trip_42031656_20250205_4811",
      "vehicleId": "42031656",
      "driverId": "20000022",
      "startMs": 1738751832000,
      "endMs": 1738754052000,
      "startAddress": "65894 Michele Pass",
      "endAddress": "164 Perez Locks",
      "startCoords": {
        "latitude": 39.75602,
        "longitude": -104.987253
      },
      "endCoords": {
        "latitude": 39.788266,
        "longitude": -104.937993
      },
      "distanceMeters": 13303.5,
      "durationMs": 2220000,
      "drivingDurationMs": 1781373,
      "idlingDurationMs": 438627,
      "fuelConsumedMl": 1692,
      "fuelConsumedGallons": 0.447,
      "maxSpeedMph": 27.8,
      "averageSpeedMph": 13.4,
      "safetyEvents": []
    },
    {
      "id": "trip_42031656_20250205_4842",
      "vehicleId": "42031656",
      "driverId": "20000014",
      "startMs": 1738767566000,
      "endMs": 1738769786000,
      "startAddress": "504 David Islands",
      "endAddress": "5761 Angela Estates Apt. 469",
      "startCoords": {
        "latitude": 39.745796,
        "longitude": -105.013423
      },
      "endCoords": {
        "latitude": 39.749334,
        "longitude": -104.989422
      },
      "distanceMeters": 12651.8,
      "durationMs": 2220000,
      "drivingDurationMs": 1878680,
      "idlingDurationMs": 341320,
      "fuelConsumedMl": 1609,
      "fuelConsumedGallons": 0.425,
      "maxSpeedMph": 32.6,
      "averageSpeedMph": 12.7,
      "safetyEvents": []
    },
    {
      "id": "trip_42031656_20250205_4872",
      "vehicleId": "42031656",
      "driverId": "20000011",
      "startMs": 1738780280000,
      "endMs": 1738784614000,
      "startAddress": "367 Graves Creek",
      "endAddress": "079 Carroll Brook",
      "startCoords": {
        "latitude": 39.739809,
        "longitude": -105.082262
      },
      "endCoords": {
        "latitude": 39.735578,
        "longitude": -104.978668
      },
      "distanceMeters": 30404.0,
      "durationMs": 4334000,
      "drivingDurationMs": 3730556,
      "idlingDurationMs": 603444,
      "fuelConsumedMl": 3865,
      "fuelConsumedGallons": 1.021,
      "maxSpeedMph": 32.0,
      "averageSpeedMph": 15.7,
      "safetyEvents": []
    },
    {
      "id": "trip_42031656_20250205_4900",
      "vehicleId": "42031656",
      "driverId": "20000017",
      "startMs": 1738796603000,
      "endMs": 1738802326000,
      "startAddress": "1060 Patricia Causeway Apt. 367",
      "endAddress": "123 Lowe Mission Apt. 003",
      "startCoords": {
        "latitude": 39.76859,
        "longitude": -105.049724
      },
      "endCoords": {
        "latitude": 39.696836,
        "longitude": -104.976464
      },
      "distanceMeters": 40259.1,
      "durationMs": 5723000,
      "drivingDurationMs": 4816281,
      "idlingDurationMs": 906719,
      "fuelConsumedMl": 5118,
      "fuelConsumedGallons": 1.352,
      "maxSpeedMph": 28.1,
      "averageSpeedMph": 15.7,
      "safetyEvents": []
    },
    {
      "id": "trip_42031656_20250206_4928",
      "vehicleId": "42031656",
      "driverId": "20000003",
      "startMs": 1738817884000,
      "endMs": 1738819504000,
      "startAddress": "78098 Davenport Ports Suite 417",
      "endAddress": "34251 William Mews",
      "startCoords": {
        "latitude": 39.73831,
        "longitude": -104.915988
      },
      "endCoords": {
        "latitude": 39.699602,
        "longitude": -105.013191
      },
      "distanceMeters": 9582.9,
      "durationMs": 1620000,
      "drivingDurationMs": 1355121,
      "idlingDurationMs": 264879,
      "fuelConsumedMl": 1219,
      "fuelConsumedGallons": 0.322,
      "maxSpeedMph": 37.3,
      "averageSpeedMph": 13.2,
      "safetyEvents": []
    },
    {
      "id": "trip_42031656_20250206_4955",
      "vehicleId": "42031656",
      "driverId": "20000002",
      "startMs": 1738830701000,
      "endMs": 1738834516000,
      "startAddress": "13635 Anthony Green Suite 522",
      "endAddress": "280 Moses Fort Suite 948",
      "startCoords": {
        "latitude": 39.794149,
        "longitude": -105.006328
      },
      "endCoords": {
        "latitude": 39.811526,
        "longitude": -104.972287
      },
      "distanceMeters": 21525.7,
      "durationMs": 3815000,
      "drivingDurationMs": 3288846,
      "idlingDurationMs": 526154,
      "fuelConsumedMl": 2737,
      "fuelConsumedGallons": 0.723,
      "maxSpeedMph": 36.2,
      "averageSpeedMph": 12.6,
      "safetyEvents": []
    },
    {
      "id": "trip_42031656_20250206_4981",
      "vehicleId": "42031656",
      "driverId": "20000004",
      "startMs": 1738843883000,
      "endMs": 1738853970000,
      "startAddress": "488 Miller Junction",
      "endAddress": "956 Michael Trafficway Apt. 737",
      "startCoords": {
        "latitude": 39.77086,
        "longitude": -104.967031
      },
      "endCoords": {
        "latitude": 39.721906,
        "longitude": -104.997705
      },
      "distanceMeters": 71851.6,
      "durationMs": 10087000,
      "drivingDurationMs": 8823633,
      "idlingDurationMs": 1263367,
      "fuelConsumedMl": 9134,
      "fuelConsumedGallons": 2.413,
      "maxSpeedMph": 32.5,
      "averageSpeedMph": 15.9,
      "safetyEvents": []
    },
    {
      "id": "trip_42031656_20250206_5009",
      "vehicleId": "42031656",
      "driverId": "20000009",
      "startMs": 1738857738000,
      "endMs": 1738863004000,
      "startAddress": "93467 Bowman Grove Suite 690",
      "endAddress": "636 Thompson Lakes",
      "startCoords": {
        "latitude": 39.721325,
        "longitude": -105.086149
      },
      "endCoords": {
        "latitude": 39.770411,
        "longitude": -104.905012
      },
      "distanceMeters": 27217.7,
      "durationMs": 5266000,
      "drivingDurationMs": 4339245,
      "idlingDurationMs": 926755,
      "fuelConsumedMl": 3460,
      "fuelConsumedGallons": 0.914,
      "maxSpeedMph": 36.3,
      "averageSpeedMph": 11.6,
      "safetyEvents": []
    },
    {
      "id": "trip_42031656_20250206_5036",
      "vehicleId": "42031656",
      "driverId": "20000016",
      "startMs": 1738870666000,
      "endMs": 1738880693000,
      "startAddress": "646 Wolfe Parks",
      "endAddress": "35809 Mccarty Spurs",
      "startCoords": {
        "latitude": 39.717129,
        "longitude": -104.98522
      },
      "endCoords": {
        "latitude": 39.772661,
        "longitude": -105.004439
      },
      "distanceMeters": 46839.9,
      "durationMs": 10027000,
      "drivingDurationMs": 7587537,
      "idlingDurationMs": 2439463,
      "fuelConsumedMl": 5954,
      "fuelConsumedGallons": 1.573,
      "maxSpeedMph": 27.0,
      "averageSpeedMph": 10.4,
      "safetyEvents": []
    },
    {
      "id": "trip_42031656_20250207_5066",
      "vehicleId": "42031656",
      "driverId": "20000016",
      "startMs": 1738888608000,
      "endMs": 1738890468000,
      "startAddress": "84973 Barnes Circles Suite 010",
      "endAddress": "450 Green Road Apt. 579",
      "startCoords": {
        "latitude": 39.699383,
        "longitude": -104.985399
      },
      "endCoords": {
        "latitude": 39.819614,
        "longitude": -104.978744
      },
      "distanceMeters": 13614.8,
      "durationMs": 1860000,
      "drivingDurationMs": 1572216,
      "idlingDurationMs": 287784,
      "fuelConsumedMl": 1730,
      "fuelConsumedGallons": 0.457,
      "maxSpeedMph": 34.9,
      "averageSpeedMph": 16.4,
      "safetyEvents": []
    },
    {
      "id": "trip_42031656_20250207_5095",
      "vehicleId": "42031656",
      "driverId": "20000005",
      "startMs": 1738909441000,
      "endMs": 1738911481000,
      "startAddress": "639 Richard Stravenue",
      "endAddress": "888 Smith Curve",
      "startCoords": {
        "latitude": 39.685792,
        "longitude": -104.94923
      },
      "endCoords": {
        "latitude": 39.826188,
        "longitude": -104.995454
      },
      "distanceMeters": 10261.5,
      "durationMs": 2040000,
      "drivingDurationMs": 1547196,
      "idlingDurationMs": 492804,
      "fuelConsumedMl": 1306,
      "fuelConsumedGallons": 0.345,
      "maxSpeedMph": 31.6,
      "averageSpeedMph": 11.3,
      "safetyEvents": []
    },
    {
      "id": "trip_42031656_20250207_5120",
      "vehicleId": "42031656",
      "driverId": "20000003",
      "startMs": 1738921234000,
      "endMs": 1738931561000,
      "startAddress": "473 Ian Way",
      "endAddress": "63399 Keller Harbors",
      "startCoords": {
        "latitude": 39.787005,
        "longitude": -104.906275
      },
      "endCoords": {
        "latitude": 39.770005,
        "longitude": -104.901126
      },
      "distanceMeters": 48577.8,
      "durationMs": 10327000,
      "drivingDurationMs": 9188809,
      "idlingDurationMs": 1138191,
      "fuelConsumedMl": 6178,
      "fuelConsumedGallons": 1.632,
      "maxSpeedMph": 29.7,
      "averageSpeedMph": 10.5,
      "safetyEvents": []
    },
    {
      "id": "trip_42031656_20250207_5151",
      "vehicleId": "42031656",
      "driverId": "20000001",
      "startMs": 1738936295000,
      "endMs": 1738938035000,
      "startAddress": "0594 Gwendolyn Rapid Apt. 984",
      "endAddress": "350 Ricky Radial Apt. 933",
      "startCoords": {
        "latitude": 39.799536,
        "longitude": -104.988218
      },
      "endCoords": {
        "latitude": 39.821933,
        "longitude": -104.999229
      },
      "distanceMeters": 11531.9,
      "durationMs": 1740000,
      "drivingDurationMs": 1408168,
      "idlingDurationMs": 331832,
      "fuelConsumedMl": 1465,
      "fuelConsumedGallons": 0.387,
      "maxSpeedMph": 33.6,
      "averageSpeedMph": 14.8,
      "safetyEvents": []
    },
    {
      "id": "trip_42031656_20250207_5180",
      "vehicleId": "42031656",
      "driverId": "20000018",
      "startMs": 1738946627000,
      "endMs": 1738960860000,
      "startAddress": "00957 Jennifer Vista Suite 199",
      "endAddress": "5304 Shawn Dam Apt. 550",
      "startCoords": {
        "latitude": 39.80696,
        "longitude": -104.967441
      },
      "endCoords": {
        "latitude": 39.745931,
        "longitude": -105.075366
      },
      "distanceMeters": 85430.2,
      "durationMs": 14233000,
      "drivingDurationMs": 10730147,
      "idlingDurationMs": 3502853,
      "fuelConsumedMl": 10860,
      "fuelConsumedGallons": 2.869,
      "maxSpeedMph": 31.4,
      "averageSpeedMph": 13.4,
      "safetyEvents": []
    },
    {
      "id": "trip_42031656_20250207_5213",
      "vehicleId": "42031656",
      "driverId": "20000005",
      "startMs": 1738969763000,
      "endMs": 1738971203000,
      "startAddress": "238 Kimberly Mountains Suite 840",
      "endAddress": "8897 Gina Mission",
      "startCoords": {
        "latitude": 39.734622,
        "longitude": -104.914377
      },
      "endCoords": {
        "latitude": 39.693955,
        "longitude": -105.06313
      },
      "distanceMeters": 7391.8,
      "durationMs": 1440000,
      "drivingDurationMs": 1281082,
      "idlingDurationMs": 158918,
      "fuelConsumedMl": 939,
      "fuelConsumedGallons": 0.248,
      "maxSpeedMph": 33.3,
      "averageSpeedMph": 11.5,
      "safetyEvents": []
    },
    {
      "id": "trip_42031656_20250208_5236",
      "vehicleId": "42031656",
      "driverId": "20000019",
      "startMs": 1738986589000,
      "endMs": 1738993530000,
      "startAddress": "56248 Bowers Cliffs",
      "endAddress": "7256 Travis Branch",
      "startCoords": {
        "latitude": 39.729789,
        "longitude": -104.94529
      },
      "endCoords": {
        "latitude": 39.780588,
        "longitude": -105.017682
      },
      "distanceMeters": 31774.9,
      "durationMs": 6941000,
      "drivingDurationMs": 5817042,
      "idlingDurationMs": 1123958,
      "fuelConsumedMl": 4039,
      "fuelConsumedGallons": 1.067,
      "maxSpeedMph": 26.0,
      "averageSpeedMph": 10.2,
      "safetyEvents": []
    },
    {
      "id": "trip_42031656_20250208_5261",
      "vehicleId": "42031656",
      "driverId": "20000011",
      "startMs": 1739008315000,
      "endMs": 1739009935000,
      "startAddress": "89241 Danielle Valley",
      "endAddress": "74762 Barnes Pass Suite 070",
      "startCoords": {
        "latitude": 39.793362,
        "longitude": -105.058043
      },
      "endCoords": {
        "latitude": 39.714168,
        "longitude": -104.913537
      },
      "distanceMeters": 7889.1,
      "durationMs": 1620000,
      "drivingDurationMs": 1351603,
      "idlingDurationMs": 268397,
      "fuelConsumedMl": 1003,
      "fuelConsumedGallons": 0.265,
      "maxSpeedMph": 33.9,
      "averageSpeedMph": 10.9,
      "safetyEvents": []
    },
    {
      "id": "trip_42031656_20250208_5292",
      "vehicleId": "42031656",
      "driverId": "20000007",
      "startMs": 1739025281000,
      "endMs": 1739031224000,
      "startAddress": "49208 Flores Junctions",
      "endAddress": "9504 Ann Cape Suite 543",
      "startCoords": {
        "latitude": 39.702422,
        "longitude": -105.028325
      },
      "endCoords": {
        "latitude": 39.819989,
        "longitude": -104.914756
      },
      "distanceMeters": 34059.2,
      "durationMs": 5943000,
      "drivingDurationMs": 5145906,
      "idlingDurationMs": 797094,
      "fuelConsumedMl": 4331,
      "fuelConsumedGallons": 1.144,
      "maxSpeedMph": 27.6,
      "averageSpeedMph": 12.8,
      "safetyEvents": []
    },
    {
      "id": "trip_42031656_20250208_5323",
      "vehicleId": "42031656",
      "driverId": "20000019",
      "startMs": 1739040215000,
      "endMs": 1739048522000,
      "startAddress": "9561 Dawson Plain Apt. 327",
      "endAddress": "827 Sloan Valley",
      "startCoords": {
        "latitude": 39.815151,
        "longitude": -105.014205
      },
      "endCoords": {
        "latitude": 39.81335,
        "longitude": -104.965617
      },
      "distanceMeters": 45233.9,
      "durationMs": 8307000,
      "drivingDurationMs": 7139115,
      "idlingDurationMs": 1167885,
      "fuelConsumedMl": 5750,
      "fuelConsumedGallons": 1.519,
      "maxSpeedMph": 30.9,
      "averageSpeedMph": 12.2,
      "safetyEvents": []
    },
    {
      "id": "trip_42031656_20250209_5358",
      "vehicleId": "42031656",
      "driverId": "20000006",
      "startMs": 1739065702000,
      "endMs": 1739066842000,
      "startAddress": "21813 Brown Branch Suite 970",
      "endAddress": "36245 Patricia Vista",
      "startCoords": {
        "latitude": 39.688978,
        "longitude": -105.021943
      },
      "endCoords": {
        "latitude": 39.710559,
        "longitude": -104.981296
      },
      "distanceMeters": 7053.7,
      "durationMs": 1140000,
      "drivingDurationMs": 866593,
      "idlingDurationMs": 273407,
      "fuelConsumedMl": 897,
      "fuelConsumedGallons": 0.237,
      "maxSpeedMph": 38.2,
      "averageSpeedMph": 13.8,
      "safetyEvents": []
    },
    {
      "id": "trip_42031656_20250209_5381",
      "vehicleId": "42031656",
      "driverId": "20000008",
      "startMs": 1739086351000,
      "endMs": 1739088691000,
      "startAddress": "23634 Tracey Islands",
      "endAddress": "0624 Gina Gardens",
      "startCoords": {
        "latitude": 39.772017,
        "longitude": -104.910208
      },
      "endCoords": {
        "latitude": 39.790677,
        "longitude": -104.916502
      },
      "distanceMeters": 9646.6,
      "durationMs": 2340000,
      "drivingDurationMs": 1817546,
      "idlingDurationMs": 522454,
      "fuelConsumedMl": 1226,
      "fuelConsumedGallons": 0.324,
      "maxSpeedMph": 26.1,
      "averageSpeedMph": 9.2,
      "safetyEvents": []
    },
    {
      "id": "trip_42031656_20250209_5405",
      "vehicleId": "42031656",
      "driverId": "20000012",
      "startMs": 1739109828000,
      "endMs": 1739112288000,
      "startAddress": "9336 Pacheco Corners Apt. 796",
      "endAddress": "7667 Tiffany Turnpike",
      "startCoords": {
        "latitude": 39.800459,
        "longitude": -104.906994
      },
      "endCoords": {
        "latitude": 39.767438,
        "longitude": -104.929441
      },
      "distanceMeters": 15825.4,
      "durationMs": 2460000,
      "drivingDurationMs": 2054423,
      "idlingDurationMs": 405577,
      "fuelConsumedMl": 2014,
      "fuelConsumedGallons": 0.532,
      "maxSpeedMph": 32.6,
      "averageSpeedMph": 14.4,
      "safetyEvents": []
    },
    {
      "id": "trip_42031656_20250209_5433",
      "vehicleId": "42031656",
      "driverId": "20000011",
      "startMs": 1739138754000,
      "endMs": 1739140974000,
      "startAddress": "617 Garcia Mall",
      "endAddress": "544 Ronald Ferry Apt. 812",
      "startCoords": {
        "latitude": 39.714156,
        "longitude": -104.962339
      },
      "endCoords": {
        "latitude": 39.719729,
        "longitude": -104.954133
      },
      "distanceMeters": 14883.0,
      "durationMs": 2220000,
      "drivingDurationMs": 1996558,
      "idlingDurationMs": 223442,
      "fuelConsumedMl": 1893,
      "fuelConsumedGallons": 0.5,
      "maxSpeedMph": 27.7,
      "averageSpeedMph": 15.0,
      "safetyEvents": []
    },
    {
      "id": "trip_42031656_20250210_5464",
      "vehicleId": "42031656",
      "driverId": "20000020",
      "startMs": 1739179609000,
      "endMs": 1739182369000,
      "startAddress": "651 Janet Dam",
      "endAddress": "5315 Davidson Track",
      "startCoords": {
        "latitude": 39.805885,
        "longitude": -105.060328
      },
      "endCoords": {
        "latitude": 39.776922,
        "longitude": -105.062714
      },
      "distanceMeters": 19574.5,
      "durationMs": 2760000,
      "drivingDurationMs": 2315468,
      "idlingDurationMs": 444532,
      "fuelConsumedMl": 2487,
      "fuelConsumedGallons": 0.657,
      "maxSpeedMph": 38.1,
      "averageSpeedMph": 15.9,
      "safetyEvents": []
    },
    {
      "id": "trip_42031656_20250210_5490",
      "vehicleId": "42031656",
      "driverId": "20000019",
      "startMs": 1739193144000,
      "endMs": 1739206976000,
      "startAddress": "6937 Green Hill",
      "endAddress": "099 Thompson Shores",
      "startCoords": {
        "latitude": 39.68696,
        "longitude": -105.061371
      },
      "endCoords": {
        "latitude": 39.758451,
        "longitude": -104.960742
      },
      "distanceMeters": 56978.7,
      "durationMs": 13832000,
      "drivingDurationMs": 11023256,
      "idlingDurationMs": 2808744,
      "fuelConsumedMl": 7245,
      "fuelConsumedGallons": 1.914,
      "maxSpeedMph": 31.2,
      "averageSpeedMph": 9.2,
      "safetyEvents": []
    },
    {
      "id": "trip_42031656_20250210_5522",
      "vehicleId": "42031656",
      "driverId": "20000013",
      "startMs": 1739209453000,
      "endMs": 1739213299000,
      "startAddress": "45789 Perez Villages Apt. 677",
      "endAddress": "0416 Randy Crossroad",
      "startCoords": {
        "latitude": 39.797469,
        "longitude": -104.974329
      },
      "endCoords": {
        "latitude": 39.786761,
        "longitude": -105.010519
      },
      "distanceMeters": 23126.4,
      "durationMs": 3846000,
      "drivingDurationMs": 3394727,
      "idlingDurationMs": 451273,
      "fuelConsumedMl": 2941,
      "fuelConsumedGallons": 0.777,
      "maxSpeedMph": 37.4,
      "averageSpeedMph": 13.5,
      "safetyEvents": []
    },
    {
      "id": "trip_42031656_20250210_5555",
      "vehicleId": "42031656",
      "driverId": "20000011",
      "startMs": 1739226770000,
      "endMs": 1739228870000,
      "startAddress": "984 Mary Vista",
      "endAddress": "1834 Kevin Cliff Apt. 588",
      "startCoords": {
        "latitude": 39.754502,
        "longitude": -104.931197
      },
      "endCoords": {
        "latitude": 39.745774,
        "longitude": -105.010637
      },
      "distanceMeters": 10135.8,
      "durationMs": 2100000,
      "drivingDurationMs": 1722654,
      "idlingDurationMs": 377346,
      "fuelConsumedMl": 1287,
      "fuelConsumedGallons": 0.34,
      "maxSpeedMph": 29.1,
      "averageSpeedMph": 10.8,
      "safetyEvents": []
    },
    {
      "id": "trip_42031656_20250211_5585",
      "vehicleId": "42031656",
      "driverId": "20000021",
      "startMs": 1739247244000,
      "endMs": 1739249704000,
      "startAddress": "286 Melissa Springs Suite 773",
      "endAddress": "5288 Kelsey Ramp",
      "startCoords": {
        "latitude": 39.811948,
        "longitude": -105.030938
      },
      "endCoords": {
        "latitude": 39.697497,
        "longitude": -105.035599
      },
      "distanceMeters": 11124.4,
      "durationMs": 2460000,
      "drivingDurationMs": 2107825,
      "idlingDurationMs": 352175,
      "fuelConsumedMl": 1416,
      "fuelConsumedGallons": 0.374,
      "maxSpeedMph": 35.2,
      "averageSpeedMph": 10.1,
      "safetyEvents": []
    },
    {
      "id": "trip_42031656_20250211_5613",
      "vehicleId": "42031656",
      "driverId": "20000014",
      "startMs": 1739268122000,
      "endMs": 1739269982000,
      "startAddress": "70464 Black Dam Suite 873",
      "endAddress": "658 Jason Lane Apt. 062",
      "startCoords": {
        "latitude": 39.798028,
        "longitude": -105.070086
      },
      "endCoords": {
        "latitude": 39.756726,
        "longitude": -104.899486
      },
      "distanceMeters": 11974.9,
      "durationMs": 1860000,
      "drivingDurationMs": 1551519,
      "idlingDurationMs": 308481,
      "fuelConsumedMl": 1522,
      "fuelConsumedGallons": 0.402,
      "maxSpeedMph": 35.8,
      "averageSpeedMph": 14.4,
      "safetyEvents": []
    },
    {
      "id": "trip_42031656_20250211_5648",
      "vehicleId": "42031656",
      "driverId": "20000013",
      "startMs": 1739284769000,
      "endMs": 1739288047000,
      "startAddress": "197 Banks Square",
      "endAddress": "671 Autumn Club Suite 004",
      "startCoords": {
        "latitude": 39.759887,
        "longitude": -105.059098
      },
      "endCoords": {
        "latitude": 39.819179,
        "longitude": -104.958013
      },
      "distanceMeters": 15158.9,
      "durationMs": 3278000,
      "drivingDurationMs": 2945642,
      "idlingDurationMs": 332358,
      "fuelConsumedMl": 1927,
      "fuelConsumedGallons": 0.509,
      "maxSpeedMph": 26.4,
      "averageSpeedMph": 10.3,
      "safetyEvents": []
    },
    {
      "id": "trip_42031656_20250211_5679",
      "vehicleId": "42031656",
      "driverId": "20000004",
      "startMs": 1739300528000,
      "endMs": 1739303108000,
      "startAddress": "72970 Thomas Locks",
      "endAddress": "133 Kimberly Locks Apt. 453",
      "startCoords": {
        "latitude": 39.755887,
        "longitude": -104.947923
      },
      "endCoords": {
        "latitude": 39.714976,
        "longitude": -105.02032
      },
      "distanceMeters": 18412.5,
      "durationMs": 2580000,
      "drivingDurationMs": 2237230,
      "idlingDurationMs": 342770,
      "fuelConsumedMl": 2339,
      "fuelConsumedGallons": 0.618,
      "maxSpeedMph": 39.5,
      "averageSpeedMph": 16.0,
      "safetyEvents": []
    },
    {
      "id": "trip_42031656_20250211_5710",
      "vehicleId": "42031656",
      "driverId": "20000007",
      "startMs": 1739316250000,
      "endMs": 1739317810000,
      "startAddress": "53458 Carlos Lights Suite 579",
      "endAddress": "0810 Turner Fort",
      "startCoords": {
        "latitude": 39.823529,
        "longitude": -104.919965
      },
      "endCoords": {
        "latitude": 39.724204,
        "longitude": -105.012108
      },
      "distanceMeters": 8278.5,
      "durationMs": 1560000,
      "drivingDurationMs": 1298691,
      "idlingDurationMs": 261309,
      "fuelConsumedMl": 1052,
      "fuelConsumedGallons": 0.278,
      "maxSpeedMph": 39.3,
      "averageSpeedMph": 11.9,
      "safetyEvents": []
    },
    {
      "id": "trip_42031656_20250212_5740",
      "vehicleId": "42031656",
      "driverId": "20000015",
      "startMs": 1739336015000,
      "endMs": 1739338355000,
      "startAddress": "834 Elizabeth Port",
      "endAddress": "80695 James Rest",
      "startCoords": {
        "latitude": 39.727817,
        "longitude": -104.913342
      },
      "endCoords": {
        "latitude": 39.792385,
        "longitude": -105.079058
      },
      "distanceMeters": 15543.5,
      "durationMs": 2340000,
      "drivingDurationMs": 1870871,
      "idlingDurationMs": 469129,
      "fuelConsumedMl": 1976,
      "fuelConsumedGallons": 0.522,
      "maxSpeedMph": 26.1,
      "averageSpeedMph": 14.9,
      "safetyEvents": []
    },
    {
      "id": "trip_42031656_20250212_5768",
      "vehicleId": "42031656",
      "driverId": "20000004",
      "startMs": 1739350920000,
      "endMs": 1739361525000,
      "startAddress": "923 Brown Summit",
      "endAddress": "96299 Alyssa Inlet",
      "startCoords": {
        "latitude": 39.699843,
        "longitude": -105.069765
      },
      "endCoords": {
        "latitude": 39.710983,
        "longitude": -105.006958
      },
      "distanceMeters": 44888.9,
      "durationMs": 10605000,
      "drivingDurationMs": 8160391,
      "idlingDurationMs": 2444609,
      "fuelConsumedMl": 5708,
      "fuelConsumedGallons": 1.508,
      "maxSpeedMph": 33.1,
      "averageSpeedMph": 9.5,
      "safetyEvents": []
    },
    {
      "id": "trip_42031656_20250212_5797",
      "vehicleId": "42031656",
      "driverId": "20000018",
      "startMs": 1739363506000,
      "endMs": 1739365006000,
      "startAddress": "46238 Dennis Lights",
      "endAddress": "94310 Ochoa Trafficway Apt. 486",
      "startCoords": {
        "latitude": 39.799431,
        "longitude": -105.075273
      },
      "endCoords": {
        "latitude": 39.810648,
        "longitude": -104.9645
      },
      "distanceMeters": 10421.7,
      "durationMs": 1500000,
      "drivingDurationMs": 1205839,
      "idlingDurationMs": 294161,
      "fuelConsumedMl": 1325,
      "fuelConsumedGallons": 0.35,
      "maxSpeedMph": 33.5,
      "averageSpeedMph": 15.5,
      "safetyEvents": []
    },
    {
      "id": "trip_42031656_20250212_5822",
      "vehicleId": "42031656",
      "driverId": "20000021",
      "startMs": 1739376366000,
      "endMs": 1739392221000,
      "startAddress": "453 Flowers Junction",
      "endAddress": "54364 Delgado Harbors",
      "startCoords": {
        "latitude": 39.721715,
        "longitude": -104.982581
      },
      "endCoords": {
        "latitude": 39.731131,
        "longitude": -105.065489
      },
      "distanceMeters": 112020.2,
      "durationMs": 15855000,
      "drivingDurationMs": 13545825,
      "idlingDurationMs": 2309175,
      "fuelConsumedMl": 14241,
      "fuelConsumedGallons": 3.762,
      "maxSpeedMph": 32.1,
      "averageSpeedMph": 15.8,
      "safetyEvents": []
    },
    {
      "id": "trip_42031656_20250212_5857",
      "vehicleId": "42031656",
      "driverId": "20000016",
      "startMs": 1739393857000,
      "endMs": 1739395537000,
      "startAddress": "9894 Drake Shoal Suite 063",
      "endAddress": "586 Alisha Station",
      "startCoords": {
        "latitude": 39.808464,
        "longitude": -105.008894
      },
      "endCoords": {
        "latitude": 39.689206,
        "longitude": -104.995805
      },
      "distanceMeters": 9435.3,
      "durationMs": 1680000,
      "drivingDurationMs": 1315788,
      "idlingDurationMs": 364212,
      "fuelConsumedMl": 1200,
      "fuelConsumedGallons": 0.317,
      "maxSpeedMph": 30.0,
      "averageSpeedMph": 12.6,
      "safetyEvents": []
    },
    {
      "id": "trip_42031656_20250213_5888",
      "vehicleId": "42031656",
      "driverId": "20000005",
      "startMs": 1739411972000,
      "endMs": 1739413832000,
      "startAddress": "3678 Brian Corner",
      "endAddress": "6987 Boyer Stream Apt. 670",
      "startCoords": {
        "latitude": 39.768064,
        "longitude": -104.982736
      },
      "endCoords": {
        "latitude": 39.699609,
        "longitude": -105.066057
      },
      "distanceMeters": 10132.9,
      "durationMs": 1860000,
      "drivingDurationMs": 1631469,
      "idlingDurationMs": 228531,
      "fuelConsumedMl": 1287,
      "fuelConsumedGallons": 0.34,
      "maxSpeedMph": 29.3,
      "averageSpeedMph": 12.2,
      "safetyEvents": []
    },
    {
      "id": "trip_42031656_20250213_5919",
      "vehicleId": "42031656",
      "driverId": "20000015",
      "startMs": 1739434169000,
      "endMs": 1739436269000,
      "startAddress": "9634 Jennifer Lodge",
      "endAddress": "7634 Richardson Points Apt. 857",
      "startCoords": {
        "latitude": 39.725113,
        "longitude": -104.999725
      },
      "endCoords": {
        "latitude": 39.718964,
        "longitude": -104.980695
      },
      "distanceMeters": 9394.9,
      "durationMs": 2100000,
      "drivingDurationMs": 1876803,
      "idlingDurationMs": 223197,
      "fuelConsumedMl": 1196,
      "fuelConsumedGallons": 0.316,
      "maxSpeedMph": 32.0,
      "averageSpeedMph": 10.0,
      "safetyEvents": []
    },
    {
      "id": "trip_42031656_20250213_5951",
      "vehicleId": "42031656",
      "driverId": "20000012",
      "startMs": 1739448885000,
      "endMs": 1739453261000,
      "startAddress": "91318 Alexander Club Apt. 805",
      "endAddress": "5422 Wheeler Mountain Suite 657",
      "startCoords": {
        "latitude": 39.701587,
        "longitude": -104.974811
      },
      "endCoords": {
        "latitude": 39.710703,
        "longitude": -104.977415
      },
      "distanceMeters": 29261.4,
      "durationMs": 4376000,
      "drivingDurationMs": 3461384,
      "idlingDurationMs": 914616,
      "fuelConsumedMl": 3721,
      "fuelConsumedGallons": 0.983,
      "maxSpeedMph": 36.5,
      "averageSpeedMph": 15.0,
      "safetyEvents": []
    },
    {
      "id": "trip_42031656_20250213_5980",
      "vehicleId": "42031656",
      "driverId": "20000017",
      "startMs": 1739461729000,
      "endMs": 1739463769000,
      "startAddress": "520 Matthew Summit Apt. 922",
      "endAddress": "8808 Medina Alley",
      "startCoords": {
        "latitude": 39.711611,
        "longitude": -105.073715
      },
      "endCoords": {
        "latitude": 39.751205,
        "longitude": -105.006543
      },
      "distanceMeters": 11638.2,
      "durationMs": 2040000,
      "drivingDurationMs": 1546026,
      "idlingDurationMs": 493974,
      "fuelConsumedMl": 1480,
      "fuelConsumedGallons": 0.391,
      "maxSpeedMph": 39.0,
      "averageSpeedMph": 12.8,
      "safetyEvents": []
    },
    {
      "id": "trip_42031656_20250213_6012",
      "vehicleId": "42031656",
      "driverId": "20000007",
      "startMs": 1739477111000,
      "endMs": 1739481781000,
      "startAddress": "354 Andre Brook Apt. 049",
      "endAddress": "41280 Huffman Shoal",
      "startCoords": {
        "latitude": 39.734605,
        "longitude": -104.938161
      },
      "endCoords": {
        "latitude": 39.786953,
        "longitude": -104.976209
      },
      "distanceMeters": 22739.1,
      "durationMs": 4670000,
      "drivingDurationMs": 3538776,
      "idlingDurationMs": 1131224,
      "fuelConsumedMl": 2892,
      "fuelConsumedGallons": 0.764,
      "maxSpeedMph": 33.6,
      "averageSpeedMph": 10.9,
      "safetyEvents": []
    },
    {
      "id": "trip_42031656_20250214_6038",
      "vehicleId": "42031656",
      "driverId": "20000002",
      "startMs": 1739492813000,
      "endMs": 1739497257000,
      "startAddress": "18753 Kennedy Expressway",
      "endAddress": "7824 Lopez Mission",
      "startCoords": {
        "latitude": 39.810179,
        "longitude": -105.074543
      },
      "endCoords": {
        "latitude": 39.693152,
        "longitude": -105.03977
      },
      "distanceMeters": 27726.6,
      "durationMs": 4444000,
      "drivingDurationMs": 3809934,
      "idlingDurationMs": 634066,
      "fuelConsumedMl": 3524,
      "fuelConsumedGallons": 0.931,
      "maxSpeedMph": 34.0,
      "averageSpeedMph": 14.0,
      "safetyEvents": []
    },
    {
      "id": "trip_42031656_20250214_6067",
      "vehicleId": "42031656",
      "driverId": "20000004",
      "startMs": 1739513440000,
      "endMs": 1739524724000,
      "startAddress": "409 Wong Rest",
      "endAddress": "7926 Mitchell Path Apt. 830",
      "startCoords": {
        "latitude": 39.787013,
        "longitude": -104.914541
      },
      "endCoords": {
        "latitude": 39.709627,
        "longitude": -105.025158
      },
      "distanceMeters": 52454.1,
      "durationMs": 11284000,
      "drivingDurationMs": 9217978,
      "idlingDurationMs": 2066022,
      "fuelConsumedMl": 6670,
      "fuelConsumedGallons": 1.762,
      "maxSpeedMph": 29.2,
      "averageSpeedMph": 10.4,
      "safetyEvents": []
    },
    {
      "id": "trip_42031656_20250214_6097",
      "vehicleId": "42031656",
      "driverId": "20000018",
      "startMs": 1739527906000,
      "endMs": 1739540753000,
      "startAddress": "1019 Jennings Hill Apt. 848",
      "endAddress": "43127 Cummings Shoal",
      "startCoords": {
        "latitude": 39.818308,
        "longitude": -105.087128
      },
      "endCoords": {
        "latitude": 39.795048,
        "longitude": -104.955392
      },
      "distanceMeters": 55848.5,
      "durationMs": 12847000,
      "drivingDurationMs": 10599731,
      "idlingDurationMs": 2247269,
      "fuelConsumedMl": 7101,
      "fuelConsumedGallons": 1.876,
      "maxSpeedMph": 28.3,
      "averageSpeedMph": 9.7,
      "safetyEvents": []
    },
    {
      "id": "trip_42031656_20250214_6129",
      "vehicleId": "42031656",
      "driverId": "20000017",
      "startMs": 1739544736000,
      "endMs": 1739546356000,
      "startAddress": "0237 Tyler Roads",
      "endAddress": "74533 Joshua Gardens",
      "startCoords": {
        "latitude": 39.78899,
        "longitude": -104.978218
      },
      "endCoords": {
        "latitude": 39.699853,
        "longitude": -104.94591
      },
      "distanceMeters": 11298.0,
      "durationMs": 1620000,
      "drivingDurationMs": 1438679,
      "idlingDurationMs": 181321,
      "fuelConsumedMl": 1435,
      "fuelConsumedGallons": 0.379,
      "maxSpeedMph": 38.4,
      "averageSpeedMph": 15.6,
      "safetyEvents": []
    },
    {
      "id": "trip_42031656_20250214_6155",
      "vehicleId": "42031656",
      "driverId": "20000001",
      "startMs": 1739557106000,
      "endMs": 1739566278000,
      "startAddress": "0764 Brenda Park Apt. 390",
      "endAddress": "0948 Wall Hills",
      "startCoords": {
        "latitude": 39.788336,
        "longitude": -104.947348
      },
      "endCoords": {
        "latitude": 39.723587,
        "longitude": -104.901268
      },
      "distanceMeters": 44201.7,
      "durationMs": 9172000,
      "drivingDurationMs": 7156965,
      "idlingDurationMs": 2015035,
      "fuelConsumedMl": 5621,
      "fuelConsumedGallons": 1.485,
      "maxSpeedMph": 29.0,
      "averageSpeedMph": 10.8,
      "safetyEvents": []
    },
    {
      "id": "trip_42031656_20250214_6183",
      "vehicleId": "42031656",
      "driverId": "20000012",
      "startMs": 1739574944000,
      "endMs": 1739576204000,
      "startAddress": "406 Melissa Crossroad Suite 282",
      "endAddress": "2821 Wilson Points",
      "startCoords": {
        "latitude": 39.68617,
        "longitude": -105.05621
      },
      "endCoords": {
        "latitude": 39.699942,
        "longitude": -105.077419
      },
      "distanceMeters": 8324.4,
      "durationMs": 1260000,
      "drivingDurationMs": 968886,
      "idlingDurationMs": 291114,
      "fuelConsumedMl": 1060,
      "fuelConsumedGallons": 0.28,
      "maxSpeedMph": 33.5,
      "averageSpeedMph": 14.8,
      "safetyEvents": []
    },
    {
      "id": "trip_42031656_20250215_6208",
      "vehicleId": "42031656",
      "driverId": "20000019",
      "startMs": 1739591871000,
      "endMs": 1739593311000,
      "startAddress": "975 Abigail Summit",
      "endAddress": "2861 Randolph Trafficway",
      "startCoords": {
        "latitude": 39.684919,
        "longitude": -104.990396
      },
      "endCoords": {
        "latitude": 39.764248,
        "longitude": -105.078575
      },
      "distanceMeters": 8524.5,
      "durationMs": 1440000,
      "drivingDurationMs": 1175472,
      "idlingDurationMs": 264528,
      "fuelConsumedMl": 1083,
      "fuelConsumedGallons": 0.286,
      "maxSpeedMph": 32.9,
      "averageSpeedMph": 13.2,
      "safetyEvents": []
    },
    {
      "id": "trip_42031656_20250215_6237",
      "vehicleId": "42031656",
      "driverId": "20000006",
      "startMs": 1739606080000,
      "endMs": 1739618535000,
      "startAddress": "0029 Morton Rapids",
      "endAddress": "284 Lopez Lock Apt. 818",
      "startCoords": {
        "latitude": 39.701559,
        "longitude": -104.944233
      },
      "endCoords": {
        "latitude": 39.79359,
        "longitude": -104.976966
      },
      "distanceMeters": 93467.5,
      "durationMs": 12455000,
      "drivingDurationMs": 10926206,
      "idlingDurationMs": 1528794,
      "fuelConsumedMl": 11882,
      "fuelConsumedGallons": 3.139,
      "maxSpeedMph": 26.8,
      "averageSpeedMph": 16.8,
      "safetyEvents": []
    },
    {
      "id": "trip_42031656_20250215_6266",
      "vehicleId": "42031656",
      "driverId": "20000010",
      "startMs": 1739621691000,
      "endMs": 1739623911000,
      "startAddress": "107 Eric Way Suite 854",
      "endAddress": "87526 Daniel Valleys Apt. 038",
      "startCoords": {
        "latitude": 39.716688,
        "longitude": -105.031852
      },
      "endCoords": {
        "latitude": 39.757242,
        "longitude": -105.067625
      },
      "distanceMeters": 17643.2,
      "durationMs": 2220000,
      "drivingDurationMs": 1993383,
      "idlingDurationMs": 226617,
      "fuelConsumedMl": 2245,
      "fuelConsumedGallons": 0.593,
      "maxSpeedMph": 31.9,
      "averageSpeedMph": 17.8,
      "safetyEvents": []
    },
    {
      "id": "trip_42031656_20250215_6291",
      "vehicleId": "42031656",
      "driverId": "20000008",
      "startMs": 1739631465000,
      "endMs": 1739642703000,
      "startAddress": "369 Arellano Junctions Suite 006",
      "endAddress": "19696 Fitzgerald Grove Suite 256",
      "startCoords": {
        "latitude": 39.711236,
        "longitude": -105.084445
      },
      "endCoords": {
        "latitude": 39.705425,
        "longitude": -104.956651
      },
      "distanceMeters": 67543.4,
      "durationMs": 11238000,
      "drivingDurationMs": 8993737,
      "idlingDurationMs": 2244263,
      "fuelConsumedMl": 8589,
      "fuelConsumedGallons": 2.269,
      "maxSpeedMph": 32.6,
      "averageSpeedMph": 13.4,
      "safetyEvents": []
    },
    {
      "id": "trip_42031656_20250215_6321",
      "vehicleId": "42031656",
      "driverId": "20000003",
      "startMs": 1739650499000,
      "endMs": 1739663236000,
      "startAddress": "858 Rasmussen Keys",
      "endAddress": "717 Beasley Road",
      "startCoords": {
        "latitude": 39.825951,
        "longitude": -104.969398
      },
      "endCoords": {
        "latitude": 39.806695,
        "longitude": -104.90641
      },
      "distanceMeters": 61329.3,
      "durationMs": 12737000,
      "drivingDurationMs": 10231677,
      "idlingDurationMs": 2505323,
      "fuelConsumedMl": 7798,
      "fuelConsumedGallons": 2.06,
      "maxSpeedMph": 29.7,
      "averageSpeedMph": 10.8,
      "safetyEvents": []
    },
    {
      "id": "trip_42031656_20250216_6352",
      "vehicleId": "42031656",
      "driverId": "20000018",
      "startMs": 1739685066000,
      "endMs": 1739687046000,
      "startAddress": "7803 Christy Lodge",
      "endAddress": "07584 Malone Curve",
      "startCoords": {
        "latitude": 39.809047,
        "longitude": -105.073206
      },
      "endCoords": {
        "latitude": 39.786758,
        "longitude": -105.076799
      },
      "distanceMeters": 13646.0,
      "durationMs": 1980000,
      "drivingDurationMs": 1731736,
      "idlingDurationMs": 248264,
      "fuelConsumedMl": 1734,
      "fuelConsumedGallons": 0.458,
      "maxSpeedMph": 29.9,
      "averageSpeedMph": 15.4,
      "safetyEvents": []
    },
    {
      "id": "trip_42031656_20250216_6383",
      "vehicleId": "42031656",
      "driverId": "20000003",
      "startMs": 1739710426000,
      "endMs": 1739712886000,
      "startAddress": "191 White Hollow Apt. 844",
      "endAddress": "868 Harris Circle Apt. 722",
      "startCoords": {
        "latitude": 39.771664,
        "longitude": -104.920065
      },
      "endCoords": {
        "latitude": 39.739145,
        "longitude": -104.954276
      },
      "distanceMeters": 14592.6,
      "durationMs": 2460000,
      "drivingDurationMs": 2110790,
      "idlingDurationMs": 349210,
      "fuelConsumedMl": 1855,
      "fuelConsumedGallons": 0.49,
      "maxSpeedMph": 31.0,
      "averageSpeedMph": 13.3,
      "safetyEvents": []
    },
    {
      "id": "trip_42031656_20250216_6414",
      "vehicleId": "42031656",
      "driverId": "20000004",
      "startMs": 1739743993000,
      "endMs": 1739745673000,
      "startAddress": "38603 Franklin Rue",
      "endAddress": "3766 Paul Walks Suite 722",
      "startCoords": {
        "latitude": 39.759003,
        "longitude": -105.046348
      },
      "endCoords": {
        "latitude": 39.804234,
        "longitude": -105.061953
      },
      "distanceMeters": 10212.4,
      "durationMs": 1680000,
      "drivingDurationMs": 1380430,
      "idlingDurationMs": 299570,
      "fuelConsumedMl": 1298,
      "fuelConsumedGallons": 0.343,
      "maxSpeedMph": 34.2,
      "averageSpeedMph": 13.6,
      "safetyEvents": []
    },
    {
      "id": "trip_42031656_20250217_6443",
      "vehicleId": "42031656",
      "driverId": "20000007",
      "startMs": 1739783203000,
      "endMs": 1739786552000,
      "startAddress": "03000 David Center Suite 642",
      "endAddress": "80512 Melissa Plaza Apt. 907",
      "startCoords": {
        "latitude": 39.687579,
        "longitude": -105.070434
      },
      "endCoords": {
        "latitude": 39.813909,
        "longitude": -105.043399
      },
      "distanceMeters": 14443.3,
      "durationMs": 3349000,
      "drivingDurationMs": 2740983,
      "idlingDurationMs": 608017,
      "fuelConsumedMl": 1836,
      "fuelConsumedGallons": 0.485,
      "maxSpeedMph": 27.9,
      "averageSpeedMph": 9.6,
      "safetyEvents": []
    },
    {
      "id": "trip_42031656_20250217_6473",
      "vehicleId": "42031656",
      "driverId": "20000020",
      "startMs": 1739798039000,
      "endMs": 1739805206000,
      "startAddress": "091 Hart Corners Suite 063",
      "endAddress": "77734 Diane Coves Suite 670",
      "startCoords": {
        "latitude": 39.778094,
        "longitude": -104.947818
      },
      "endCoords": {
        "latitude": 39.753741,
        "longitude": -104.900454
      },
      "distanceMeters": 32609.2,
      "durationMs": 7167000,
      "drivingDurationMs": 6000591,
      "idlingDurationMs": 1166409,
      "fuelConsumedMl": 4145,
      "fuelConsumedGallons": 1.095,
      "maxSpeedMph": 27.9,
      "averageSpeedMph": 10.2,
      "safetyEvents": []
    },
    {
      "id": "trip_42031656_20250217_6502",
      "vehicleId": "42031656",
      "driverId": "20000016",
      "startMs": 1739813954000,
      "endMs": 1739820576000,
      "startAddress": "269 Dana Forges",
      "endAddress": "1406 Duncan Grove",
      "startCoords": {
        "latitude": 39.684321,
        "longitude": -105.079785
      },
      "endCoords": {
        "latitude": 39.808121,
        "longitude": -105.034972
      },
      "distanceMeters": 42315.6,
      "durationMs": 6622000,
      "drivingDurationMs": 5160131,
      "idlingDurationMs": 1461869,
      "fuelConsumedMl": 5379,
      "fuelConsumedGallons": 1.421,
      "maxSpeedMph": 39.1,
      "averageSpeedMph": 14.3,
      "safetyEvents": []
    },
    {
      "id": "trip_42031656_20250217_6528",
      "vehicleId": "42031656",
      "driverId": "20000019",
      "startMs": 1739825305000,
      "endMs": 1739827105000,
      "startAddress": "06345 Jonathan Hollow",
      "endAddress": "8232 Goodwin Land",
      "startCoords": {
        "latitude": 39.79892,
        "longitude": -105.008614
      },
      "endCoords": {
        "latitude": 39.813023,
        "longitude": -105.033845
      },
      "distanceMeters": 11745.8,
      "durationMs": 1800000,
      "drivingDurationMs": 1361807,
      "idlingDurationMs": 438193,
      "fuelConsumedMl": 1495,
      "fuelConsumedGallons": 0.395,
      "maxSpeedMph": 38.5,
      "averageSpeedMph": 14.6,
      "safetyEvents": []
    },
    {
      "id": "trip_42031656_20250218_6557",
      "vehicleId": "42031656",
      "driverId": "20000010",
      "startMs": 1739847456000,
      "endMs": 1739851080000,
      "startAddress": "76268 Stout Springs Apt. 592",
      "endAddress": "69030 Adam Parkways Suite 944",
      "startCoords": {
        "latitude": 39.770475,
        "longitude": -104.995074
      },
      "endCoords": {
        "latitude": 39.758319,
        "longitude": -105.007361
      },
      "distanceMeters": 19275.3,
      "durationMs": 3624000,
      "drivingDurationMs": 3162399,
      "idlingDurationMs": 461601,
      "fuelConsumedMl": 2449,
      "fuelConsumedGallons": 0.647,
      "maxSpeedMph": 30.5,
      "averageSpeedMph": 11.9,
      "safetyEvents": []
    },
    {
      "id": "trip_42031656_20250218_6585",
      "vehicleId": "42031656",
      "driverId": "20000003",
      "startMs": 1739863410000,
      "endMs": 1739867164000,
      "startAddress": "23763 Randolph Crossroad Apt. 655",
      "endAddress": "589 Atkins Ferry Suite 620",
      "startCoords": {
        "latitude": 39.684654,
        "longitude": -104.936984
      },
      "endCoords": {
        "latitude": 39.739374,
        "longitude": -105.030733
      },
      "distanceMeters": 18165.6,
      "durationMs": 3754000,
      "drivingDurationMs": 3249427,
      "idlingDurationMs": 504573,
      "fuelConsumedMl": 2309,
      "fuelConsumedGallons": 0.61,
      "maxSpeedMph": 36.8,
      "averageSpeedMph": 10.8,
      "safetyEvents": []
    },
    {
      "id": "trip_42031656_20250218_6614",
      "vehicleId": "42031656",
      "driverId": "20000022",
      "startMs": 1739877892000,
      "endMs": 1739879152000,
      "startAddress": "5448 Tyler Fields",
      "endAddress": "04876 Boyer Orchard",
      "startCoords": {
        "latitude": 39.757483,
        "longitude": -104.99737
      },
      "endCoords": {
        "latitude": 39.823699,
        "longitude": -104.913541
      },
      "distanceMeters": 8483.4,
      "durationMs": 1260000,
      "drivingDurationMs": 1020138,
      "idlingDurationMs": 239862,
      "fuelConsumedMl": 1079,
      "fuelConsumedGallons": 0.285,
      "maxSpeedMph": 35.8,
      "averageSpeedMph": 15.1,
      "safetyEvents": []
    },
    {
      "id": "trip_42031656_20250218_6643",
      "vehicleId": "42031656",
      "driverId": "20000015",
      "startMs": 1739893661000,
      "endMs": 1739895761000,
      "startAddress": "11038 Herbert Square",
      "endAddress": "0680 Katie Radial Apt. 511",
      "startCoords": {
        "latitude": 39.810079,
        "longitude": -104.997995
      },
      "endCoords": {
        "latitude": 39.691755,
        "longitude": -104.959923
      },
      "distanceMeters": 9206.5,
      "durationMs": 2100000,
      "drivingDurationMs": 1742596,
      "idlingDurationMs": 357404,
      "fuelConsumedMl": 1170,
      "fuelConsumedGallons": 0.309,
      "maxSpeedMph": 33.8,
      "averageSpeedMph": 9.8,
      "safetyEvents": []
    },
    {
      "id": "trip_42031656_20250218_6668",
      "vehicleId": "42031656",
      "driverId": "20000020",
      "startMs": 1739904632000,
      "endMs": 1739915063000,
      "startAddress": "84878 Bryant Pine",
      "endAddress": "81137 Clark Throughway",
      "startCoords": {
        "latitude": 39.690586,
        "longitude": -105.045445
      },
      "endCoords": {
        "latitude": 39.718586,
        "longitude": -104.931929
      },
      "distanceMeters": 69397.3,
      "durationMs": 10431000,
      "drivingDurationMs": 8076441,
      "idlingDurationMs": 2354559,
      "fuelConsumedMl": 8824,
      "fuelConsumedGallons": 2.331,
      "maxSpeedMph": 37.5,
      "averageSpeedMph": 14.9,
      "safetyEvents": []
    },
    {
      "id": "trip_42031656_20250218_6696",
      "vehicleId": "42031656",
      "driverId": "20000021",
      "startMs": 1739918104000,
      "endMs": 1739927864000,
      "startAddress": "215 Rebecca Springs Apt. 385",
      "endAddress": "75865 Elliott Plains",
      "startCoords": {
        "latitude": 39.799506,
        "longitude": -104.979063
      },
      "endCoords": {
        "latitude": 39.815847,
        "longitude": -104.960057
      },
      "distanceMeters": 67007.5,
      "durationMs": 9760000,
      "drivingDurationMs": 8550599,
      "idlingDurationMs": 1209401,
      "fuelConsumedMl": 8521,
      "fuelConsumedGallons": 2.251,
      "maxSpeedMph": 29.1,
      "averageSpeedMph": 15.4,
      "safetyEvents": []
    },
    {
      "id": "trip_42031656_20250219_6725",
      "vehicleId": "42031656",
      "driverId": "20000001",
      "startMs": 1739946326000,
      "endMs": 1739948126000,
      "startAddress": "5365 Newton Trail Suite 655",
      "endAddress": "51557 West Estate Suite 854",
      "startCoords": {
        "latitude": 39.72119,
        "longitude": -104.98408
      },
      "endCoords": {
        "latitude": 39.751944,
        "longitude": -104.951932
      },
      "distanceMeters": 13759.1,
      "durationMs": 1800000,
      "drivingDurationMs": 1563242,
      "idlingDurationMs": 236758,
      "fuelConsumedMl": 1749,
      "fuelConsumedGallons": 0.462,
      "maxSpeedMph": 35.6,
      "averageSpeedMph": 17.1,
      "safetyEvents": []
    },
    {
      "id": "trip_42031656_20250219_6753",
      "vehicleId": "42031656",
      "driverId": "20000004",
      "startMs": 1739960551000,
      "endMs": 1739963180000,
      "startAddress": "714 Cole Summit",
      "endAddress": "1037 Shelton Run Suite 996",
      "startCoords": {
        "latitude": 39.755549,
        "longitude": -104.911161
      },
      "endCoords": {
        "latitude": 39.770234,
        "longitude": -104.998911
      },
      "distanceMeters": 13829.9,
      "durationMs": 2629000,
      "drivingDurationMs": 2180999,
      "idlingDurationMs": 448001,
      "fuelConsumedMl": 1760,
      "fuelConsumedGallons": 0.465,
      "maxSpeedMph": 31.5,
      "averageSpeedMph": 11.8,
      "safetyEvents": []
    },
    {
      "id": "trip_42031656_20250219_6783",
      "vehicleId": "42031656",
      "driverId": "20000008",
      "startMs": 1739976606000,
      "endMs": 1739978646000,
      "startAddress": "8157 Lamb Harbor",
      "endAddress": "538 Brittany Hills Suite 769",
      "startCoords": {
        "latitude": 39.705936,
        "longitude": -105.046756
      },
      "endCoords": {
        "latitude": 39.742779,
        "longitude": -105.031227
      },
      "distanceMeters": 10908.6,
      "durationMs": 2040000,
      "drivingDurationMs": 1612564,
      "idlingDurationMs": 427436,
      "fuelConsumedMl": 1385,
      "fuelConsumedGallons": 0.366,
      "maxSpeedMph": 33.7,
      "averageSpeedMph": 12.0,
      "safetyEvents": []
    },
    {
      "id": "trip_42031656_20250219_6811",
      "vehicleId": "42031656",
      "driverId": "20000016",
      "startMs": 1739989521000,
      "endMs": 1740008044000,
      "startAddress": "1882 George Mountains Suite 348",
      "endAddress": "66048 Dunn Stravenue Apt. 169",
      "startCoords": {
        "latitude": 39.717184,
        "longitude": -104.966591
      },
      "endCoords": {
        "latitude": 39.779487,
        "longitude": -104.960703
      },
      "distanceMeters": 115210.4,
      "durationMs": 18523000,
      "drivingDurationMs": 14213147,
      "idlingDurationMs": 4309853,
      "fuelConsumedMl": 14650,
      "fuelConsumedGallons": 3.87,
      "maxSpeedMph": 37.3,
      "averageSpeedMph": 13.9,
      "safetyEvents": []
    },
    {
      "id": "trip_42031656_20250219_6846",
      "vehicleId": "42031656",
      "driverId": "20000020",
      "startMs": 1740008510000,
      "endMs": 1740010370000,
      "startAddress": "03129 Roman Course",
      "endAddress": "645 Perez Park Apt. 846",
      "startCoords": {
        "latitude": 39.706682,
        "longitude": -105.07205
      },
      "endCoords": {
        "latitude": 39.69017,
        "longitude": -104.991238
      },
      "distanceMeters": 7154.4,
      "durationMs": 1860000,
      "drivingDurationMs": 1423209,
      "idlingDurationMs": 436791,
      "fuelConsumedMl": 908,
      "fuelConsumedGallons": 0.24,
      "maxSpeedMph": 33.9,
      "averageSpeedMph": 8.6,
      "safetyEvents": []
    },
    {
      "id": "trip_42031656_20250220_6877",
      "vehicleId": "42031656",
      "driverId": "20000010",
      "startMs": 1740029925000,
      "endMs": 1740037056000,
      "startAddress": "7222 Wright Hills",
      "endAddress": "787 Dominguez Spring",
      "startCoords": {
        "latitude": 39.760463,
        "longitude": -105.067574
      },
      "endCoords": {
        "latitude": 39.818662,
        "longitude": -105.078737
      },
      "distanceMeters": 48714.6,
      "durationMs": 7131000,
      "drivingDurationMs": 5997223,
      "idlingDurationMs": 1133777,
      "fuelConsumedMl": 6193,
      "fuelConsumedGallons": 1.636,
      "maxSpeedMph": 26.2,
      "averageSpeedMph": 15.3,
      "safetyEvents": []
    },
    {
      "id": "trip_42031656_20250220_6903",
      "vehicleId": "42031656",
      "driverId": "20000020",
      "startMs": 1740043090000,
      "endMs": 1740049035000,
      "startAddress": "4191 Jim Drive Suite 426",
      "endAddress": "42398 Joshua Trail Suite 809",
      "startCoords": {
        "latitude": 39.771264,
        "longitude": -104.988531
      },
      "endCoords": {
        "latitude": 39.755513,
        "longitude": -104.899963
      },
      "distanceMeters": 41261.1,
      "durationMs": 5945000,
      "drivingDurationMs": 4879054,
      "idlingDurationMs": 1065946,
      "fuelConsumedMl": 5247,
      "fuelConsumedGallons": 1.386,
      "maxSpeedMph": 34.2,
      "averageSpeedMph": 15.5,
      "safetyEvents": []
    },
    {
      "id": "trip_42031656_20250220_6935",
      "vehicleId": "42031656",
      "driverId": "20000016",
      "startMs": 1740057045000,
      "endMs": 1740063390000,
      "startAddress": "749 Mejia Lakes Suite 655",
      "endAddress": "1961 Eric Hollow",
      "startCoords": {
        "latitude": 39.802022,
        "longitude": -104.915918
      },
      "endCoords": {
        "latitude": 39.683994,
        "longitude": -105.00767
      },
      "distanceMeters": 31292.1,
      "durationMs": 6345000,
      "drivingDurationMs": 5501676,
      "idlingDurationMs": 843324,
      "fuelConsumedMl": 3978,
      "fuelConsumedGallons": 1.051,
      "maxSpeedMph": 31.4,
      "averageSpeedMph": 11.0,
      "safetyEvents": []
    },
    {
      "id": "trip_42031656_20250220_6963",
      "vehicleId": "42031656",
      "driverId": "20000018",
      "startMs": 1740069731000,
      "endMs": 1740072565000,
      "startAddress": "178 Caldwell Stream Suite 337",
      "endAddress": "212 Gonzalez Station Suite 919",
      "startCoords": {
        "latitude": 39.703586,
        "longitude": -105.056091
      },
      "endCoords": {
        "latitude": 39.721225,
        "longitude": -104.920837
      },
      "distanceMeters": 18214.6,
      "durationMs": 2834000,
      "drivingDurationMs": 2351636,
      "idlingDurationMs": 482364,
      "fuelConsumedMl": 2317,
      "fuelConsumedGallons": 0.612,
      "maxSpeedMph": 31.1,
      "averageSpeedMph": 14.4,
      "safetyEvents": []
    },
    {
      "id": "trip_42031656_20250220_6989",
      "vehicleId": "42031656",
      "driverId": "20000014",
      "startMs": 1740081147000,
      "endMs": 1740086616000,
      "startAddress": "1836 Steven Loop Suite 356",
      "endAddress": "516 Taylor Station",
      "startCoords": {
        "latitude": 39.815414,
        "longitude": -105.044816
      },
      "endCoords": {
        "latitude": 39.732069,
        "longitude": -104.949198
      },
      "distanceMeters": 35877.7,
      "durationMs": 5469000,
      "drivingDurationMs": 4305497,
      "idlingDurationMs": 1163503,
      "fuelConsumedMl": 4561,
      "fuelConsumedGallons": 1.205,
      "maxSpeedMph": 27.8,
      "averageSpeedMph": 14.7,
      "safetyEvents": []
    },
    {
      "id": "trip_42031656_20250220_7019",
      "vehicleId": "42031656",
      "driverId": "20000003",
      "startMs": 1740094328000,
      "endMs": 1740096668000,
      "startAddress": "367 Noble Haven Suite 315",
      "endAddress": "895 Werner Stream Apt. 103",
      "startCoords": {
        "latitude": 39.732363,
        "longitude": -104.968588
      },
      "endCoords": {
        "latitude": 39.824513,
        "longitude": -104.924168
      },
      "distanceMeters": 16507.7,
      "durationMs": 2340000,
      "drivingDurationMs": 1860096,
      "idlingDurationMs": 479904,
      "fuelConsumedMl": 2097,
      "fuelConsumedGallons": 0.554,
      "maxSpeedMph": 30.3,
      "averageSpeedMph": 15.8,
      "safetyEvents": []
    },
    {
      "id": "trip_42031656_20250221_7050",
      "vehicleId": "42031656",
      "driverId": "20000019",
      "startMs": 1740117106000,
      "endMs": 1740118966000,
      "startAddress": "883 Michael Village",
      "endAddress": "328 Lisa Roads",
      "startCoords": {
        "latitude": 39.782859,
        "longitude": -104.954195
      },
      "endCoords": {
        "latitude": 39.754888,
        "longitude": -105.053453
      },
      "distanceMeters": 9585.3,
      "durationMs": 1860000,
      "drivingDurationMs": 1556411,
      "idlingDurationMs": 303589,
      "fuelConsumedMl": 1219,
      "fuelConsumedGallons": 0.322,
      "maxSpeedMph": 29.6,
      "averageSpeedMph": 11.5,
      "safetyEvents": []
    },
    {
      "id": "trip_42031656_20250221_7079",
      "vehicleId": "42031656",
      "driverId": "20000011",
      "startMs": 1740134145000,
      "endMs": 1740135791000,
      "startAddress": "63860 Peterson Point",
      "endAddress": "760 Allen Well Suite 389",
      "startCoords": {
        "latitude": 39.729765,
        "longitude": -105.015089
      },
      "endCoords": {
        "latitude": 39.794486,
        "longitude": -105.014985
      },
      "distanceMeters": 9826.6,
      "durationMs": 1646000,
      "drivingDurationMs": 1368564,
      "idlingDurationMs": 277436,
      "fuelConsumedMl": 1249,
      "fuelConsumedGallons": 0.33,
      "maxSpeedMph": 34.8,
      "averageSpeedMph": 13.4,
      "safetyEvents": []
    },
    {
      "id": "trip_42031656_20250221_7106",
      "vehicleId": "42031656",
      "driverId": "20000003",
      "startMs": 1740150696000,
      "endMs": 1740167304000,
      "startAddress": "299 Ann Branch Apt. 505",
      "endAddress": "9891 Jennifer Track",
      "startCoords": {
        "latitude": 39.800511,
        "longitude": -104.937858
      },
      "endCoords": {
        "latitude": 39.766029,
        "longitude": -104.983145
      },
      "distanceMeters": 113962.5,
      "durationMs": 16608000,
      "drivingDurationMs": 14941955,
      "idlingDurationMs": 1666045,
      "fuelConsumedMl": 14491,
      "fuelConsumedGallons": 3.828,
      "maxSpeedMph": 25.9,
      "averageSpeedMph": 15.3,
      "safetyEvents": []
    },
    {
      "id": "trip_42031656_20250221_7150",
      "vehicleId": "42031656",
      "driverId": "20000018",
      "startMs": 1740169561000,
      "endMs": 1740172021000,
      "startAddress": "283 Delacruz Walk Suite 655",
      "endAddress": "1733 Lori Walks",
      "startCoords": {
        "latitude": 39.8259,
        "longitude": -104.980518
      },
      "endCoords": {
        "latitude": 39.814196,
        "longitude": -104.909701
      },
      "distanceMeters": 16038.8,
      "durationMs": 2460000,
      "drivingDurationMs": 1935600,
      "idlingDurationMs": 524400,
      "fuelConsumedMl": 2040,
      "fuelConsumedGallons": 0.539,
      "maxSpeedMph": 32.6,
      "averageSpeedMph": 14.6,
      "safetyEvents": []
    },
    {
      "id": "trip_42031656_20250222_7180",
      "vehicleId": "42031656",
      "driverId": "20000002",
      "startMs": 1740188190000,
      "endMs": 1740190722000,
      "startAddress": "67146 Keller Springs",
      "endAddress": "8148 Ryan Walk Suite 172",
      "startCoords": {
        "latitude": 39.776678,
        "longitude": -104.949793
      },
      "endCoords": {
        "latitude": 39.739614,
        "longitude": -104.935865
      },
      "distanceMeters": 11371.5,
      "durationMs": 2532000,
      "drivingDurationMs": 2241205,
      "idlingDurationMs": 290795,
      "fuelConsumedMl": 1446,
      "fuelConsumedGallons": 0.382,
      "maxSpeedMph": 31.0,
      "averageSpeedMph": 10.0,
      "safetyEvents": []
    },
    {
      "id": "trip_42031656_20250222_7208",
      "vehicleId": "42031656",
      "driverId": "20000010",
      "startMs": 1740209720000,
      "endMs": 1740215898000,
      "startAddress": "776 Brown Camp Suite 145",
      "endAddress": "80695 Melinda Passage Apt. 750",
      "startCoords": {
        "latitude": 39.764887,
        "longitude": -104.97648
      },
      "endCoords": {
        "latitude": 39.728473,
        "longitude": -105.023041
      },
      "distanceMeters": 36865.6,
      "durationMs": 6178000,
      "drivingDurationMs": 4852388,
      "idlingDurationMs": 1325612,
      "fuelConsumedMl": 4686,
      "fuelConsumedGallons": 1.238,
      "maxSpeedMph": 31.1,
      "averageSpeedMph": 13.3,
      "safetyEvents": []
    },
    {
      "id": "trip_42031656_20250222_7240",
      "vehicleId": "42031656",
      "driverId": "20000007",
      "startMs": 1740222748000,
      "endMs": 1740235433000,
      "startAddress": "0104 Joshua Plaza",
      "endAddress": "7299 Moore Mount Suite 578",
      "startCoords": {
        "latitude": 39.772344,
        "longitude": -105.002454
      },
      "endCoords": {
        "latitude": 39.714481,
        "longitude": -104.973643
      },
      "distanceMeters": 52517.6,
      "durationMs": 12685000,
      "drivingDurationMs": 10456576,
      "idlingDurationMs": 2228424,
      "fuelConsumedMl": 6677,
      "fuelConsumedGallons": 1.764,
      "maxSpeedMph": 33.5,
      "averageSpeedMph": 9.3,
      "safetyEvents": []
    },
    {
      "id": "trip_42031656_20250222_7274",
      "vehicleId": "42031656",
      "driverId": "20000018",
      "startMs": 1740244965000,
      "endMs": 1740246525000,
      "startAddress": "418 Laura Rest",
      "endAddress": "022 Turner Harbors",
      "startCoords": {
        "latitude": 39.714433,
        "longitude": -104.924218
      },
      "endCoords": {
        "latitude": 39.756449,
        "longitude": -104.947307
      },
      "distanceMeters": 9389.9,
      "durationMs": 1560000,
      "drivingDurationMs": 1326847,
      "idlingDurationMs": 233153,
      "fuelConsumedMl": 1192,
      "fuelConsumedGallons": 0.315,
      "maxSpeedMph": 29.3,
      "averageSpeedMph": 13.5,
      "safetyEvents": []
    },
    {
      "id": "trip_42031656_20250222_7302",
      "vehicleId": "42031656",
      "driverId": "20000006",
      "startMs": 1740259621000,
      "endMs": 1740265880000,
      "startAddress": "9960 Rivers Lodge Apt. 027",
      "endAddress": "84492 Newton Pike Suite 349",
      "startCoords": {
        "latitude": 39.804362,
        "longitude": -105.030165
      },
      "endCoords": {
        "latitude": 39.736885,
        "longitude": -104.927958
      },
      "distanceMeters": 38608.3,
      "durationMs": 6259000,
      "drivingDurationMs": 5165956,
      "idlingDurationMs": 1093044,
      "fuelConsumedMl": 4910,
      "fuelConsumedGallons": 1.297,
      "maxSpeedMph": 34.8,
      "averageSpeedMph": 13.8,
      "safetyEvents": []
    },
    {
      "id": "trip_42031656_20250223_7331",
      "vehicleId": "42031656",
      "driverId": "20000017",
      "startMs": 1740283091000,
      "endMs": 1740287202000,
      "startAddress": "8907 Kathryn Locks Suite 613",
      "endAddress": "659 Hall Overpass",
      "startCoords": {
        "latitude": 39.77489,
        "longitude": -105.027342
      },
      "endCoords": {
        "latitude": 39.782164,
        "longitude": -105.021637
      },
      "distanceMeters": 21809.7,
      "durationMs": 4111000,
      "drivingDurationMs": 3145894,
      "idlingDurationMs": 965106,
      "fuelConsumedMl": 2775,
      "fuelConsumedGallons": 0.733,
      "maxSpeedMph": 36.9,
      "averageSpeedMph": 11.9,
      "safetyEvents": []
    },
    {
      "id": "trip_42031656_20250223_7356",
      "vehicleId": "42031656",
      "driverId": "20000006",
      "startMs": 1740301507000,
      "endMs": 1740303607000,
      "startAddress": "29262 Weber Fort",
      "endAddress": "551 Michelle Shoals Suite 675",
      "startCoords": {
        "latitude": 39.810147,
        "longitude": -105.047189
      },
      "endCoords": {
        "latitude": 39.748076,
        "longitude": -104.953334
      },
      "distanceMeters": 14812.2,
      "durationMs": 2100000,
      "drivingDurationMs": 1741225,
      "idlingDurationMs": 358775,
      "fuelConsumedMl": 1885,
      "fuelConsumedGallons": 0.498,
      "maxSpeedMph": 39.4,
      "averageSpeedMph": 15.8,
      "safetyEvents": []
    },
    {
      "id": "trip_42031656_20250223_7388",
      "vehicleId": "42031656",
      "driverId": "20000014",
      "startMs": 1740326649000,
      "endMs": 1740329958000,
      "startAddress": "724 Mary Circles",
      "endAddress": "667 Johnson Avenue Suite 440",
      "startCoords": {
        "latitude": 39.82401,
        "longitude": -105.059902
      },
      "endCoords": {
        "latitude": 39.735271,
        "longitude": -104.952928
      },
      "distanceMeters": 17429.5,
      "durationMs": 3309000,
      "drivingDurationMs": 2912266,
      "idlingDurationMs": 396734,
      "fuelConsumedMl": 2214,
      "fuelConsumedGallons": 0.585,
      "maxSpeedMph": 33.9,
      "averageSpeedMph": 11.8,
      "safetyEvents": []
    },
    {
      "id": "trip_42031656_20250223_7416",
      "vehicleId": "42031656",
      "driverId": "20000009",
      "startMs": 1740354371000,
      "endMs": 1740356771000,
      "startAddress": "90020 Stark Ports Apt. 195",
      "endAddress": "1369 Black Unions Apt. 231",
      "startCoords": {
        "latitude": 39.764619,
        "longitude": -105.00786
      },
      "endCoords": {
        "latitude": 39.693343,
        "longitude": -104.904821
      },
      "distanceMeters": 11149.4,
      "durationMs": 2400000,
      "drivingDurationMs": 1869736,
      "idlingDurationMs": 530264,
      "fuelConsumedMl": 1416,
      "fuelConsumedGallons": 0.374,
      "maxSpeedMph": 36.7,
      "averageSpeedMph": 10.4,
      "safetyEvents": []
    },
    {
      "id": "trip_42031656_20250224_7445",
      "vehicleId": "42031656",
      "driverId": "20000012",
      "startMs": 1740390599000,
      "endMs": 1740393111000,
      "startAddress": "4218 Andrew Bypass",
      "endAddress": "3516 Moyer Dale",
      "startCoords": {
        "latitude": 39.767033,
        "longitude": -104.957406
      },
      "endCoords": {
        "latitude": 39.69397,
        "longitude": -104.984475
      },
      "distanceMeters": 17598.3,
      "durationMs": 2512000,
      "drivingDurationMs": 2054287,
      "idlingDurationMs": 457713,
      "fuelConsumedMl": 2237,
      "fuelConsumedGallons": 0.591,
      "maxSpeedMph": 35.6,
      "averageSpeedMph": 15.7,
      "safetyEvents": []
    },
    {
      "id": "trip_42031656_20250224_7478",
      "vehicleId": "42031656",
      "driverId": "20000001",
      "startMs": 1740408294000,
      "endMs": 1740421707000,
      "startAddress": "322 Cindy Course Suite 325",
      "endAddress": "99581 Brooks Ports Apt. 261",
      "startCoords": {
        "latitude": 39.802636,
        "longitude": -105.029033
      },
      "endCoords": {
        "latitude": 39.770374,
        "longitude": -105.028749
      },
      "distanceMeters": 68092.4,
      "durationMs": 13413000,
      "drivingDurationMs": 11473775,
      "idlingDurationMs": 1939225,
      "fuelConsumedMl": 8657,
      "fuelConsumedGallons": 2.287,
      "maxSpeedMph": 26.4,
      "averageSpeedMph": 11.4,
      "safetyEvents": []
    },
    {
      "id": "trip_42031656_20250224_7509",
      "vehicleId": "42031656",
      "driverId": "20000003",
      "startMs": 1740421880000,
      "endMs": 1740431292000,
      "startAddress": "53049 Crystal Corner Suite 359",
      "endAddress": "472 Nathan Trace Suite 138",
      "startCoords": {
        "latitude": 39.692038,
        "longitude": -105.072838
      },
      "endCoords": {
        "latitude": 39.688204,
        "longitude": -105.078078
      },
      "distanceMeters": 46676.9,
      "durationMs": 9412000,
      "drivingDurationMs": 7840184,
      "idlingDurationMs": 1571816,
      "fuelConsumedMl": 5936,
      "fuelConsumedGallons": 1.568,
      "maxSpeedMph": 28.9,
      "averageSpeedMph": 11.1,
      "safetyEvents": []
    },
    {
      "id": "trip_42031656_20250224_7540",
      "vehicleId": "42031656",
      "driverId": "20000019",
      "startMs": 1740439692000,
      "endMs": 1740441912000,
      "startAddress": "320 Robinson Underpass Apt. 743",
      "endAddress": "8108 Nathaniel Canyon Apt. 745",
      "startCoords": {
        "latitude": 39.804666,
        "longitude": -105.026019
      },
      "endCoords": {
        "latitude": 39.794099,
        "longitude": -104.92037
      },
      "distanceMeters": 11315.1,
      "durationMs": 2220000,
      "drivingDurationMs": 1723917,
      "idlingDurationMs": 496083,
      "fuelConsumedMl": 1438,
      "fuelConsumedGallons": 0.38,
      "maxSpeedMph": 26.1,
      "averageSpeedMph": 11.4,
      "safetyEvents": []
    },
    {
      "id": "trip_42031656_20250225_7571",
      "vehicleId": "42031656",
      "driverId": "20000008",
      "startMs": 1740461005000,
      "endMs": 1740467909000,
      "startAddress": "3986 Jordan Keys",
      "endAddress": "448 Underwood Knolls",
      "startCoords": {
        "latitude": 39.752174,
        "longitude": -105.085796
      },
      "endCoords": {
        "latitude": 39.716309,
        "longitude": -104.983431
      },
      "distanceMeters": 27140.4,
      "durationMs": 6904000,
      "drivingDurationMs": 5329233,
      "idlingDurationMs": 1574767,
      "fuelConsumedMl": 3452,
      "fuelConsumedGallons": 0.912,
      "maxSpeedMph": 28.7,
      "averageSpeedMph": 8.8,
      "safetyEvents": []
    },
    {
      "id": "trip_42031656_20250225_7599",
      "vehicleId": "42031656",
      "driverId": "20000011",
      "startMs": 1740480051000,
      "endMs": 1740539308000,
      "startAddress": "96033 Amy Mountain Suite 621",
      "endAddress": "271 Mata Common Suite 801",
      "startCoords": {
        "latitude": 39.686466,
        "longitude": -105.018224
      },
      "endCoords": {
        "latitude": 39.784173,
        "longitude": -104.904474
      },
      "distanceMeters": 400818.6,
      "durationMs": 59257000,
      "drivingDurationMs": 50677922,
      "idlingDurationMs": 8579078,
      "fuelConsumedMl": 50963,
      "fuelConsumedGallons": 13.463,
      "maxSpeedMph": 34.8,
      "averageSpeedMph": 15.1,
      "safetyEvents": []
    },
    {
      "id": "trip_42031656_20250226_7708",
      "vehicleId": "42031656",
      "driverId": "20000014",
      "startMs": 1740540820000,
      "endMs": 1740542500000,
      "startAddress": "582 Salinas Plain",
      "endAddress": "9254 Pierce Plains Suite 226",
      "startCoords": {
        "latitude": 39.761586,
        "longitude": -104.927223
      },
      "endCoords": {
        "latitude": 39.768307,
        "longitude": -104.914642
      },
      "distanceMeters": 7943.6,
      "durationMs": 1680000,
      "drivingDurationMs": 1318897,
      "idlingDurationMs": 361103,
      "fuelConsumedMl": 1011,
      "fuelConsumedGallons": 0.267,
      "maxSpeedMph": 34.1,
      "averageSpeedMph": 10.6,
      "safetyEvents": []
    },
    {
      "id": "trip_42031656_20250226_7738",
      "vehicleId": "42031656",
      "driverId": "20000019",
      "startMs": 1740559139000,
      "endMs": 1740561317000,
      "startAddress": "234 Miller Hill Apt. 199",
      "endAddress": "02881 Peters Fords Suite 657",
      "startCoords": {
        "latitude": 39.787287,
        "longitude": -104.979329
      },
      "endCoords": {
        "latitude": 39.730194,
        "longitude": -105.017432
      },
      "distanceMeters": 11880.8,
      "durationMs": 2178000,
      "drivingDurationMs": 1741106,
      "idlingDurationMs": 436894,
      "fuelConsumedMl": 1510,
      "fuelConsumedGallons": 0.399,
      "maxSpeedMph": 34.2,
      "averageSpeedMph": 12.2,
      "safetyEvents": []
    },
    {
      "id": "trip_42031656_20250226_7764",
      "vehicleId": "42031656",
      "driverId": "20000009",
      "startMs": 1740572951000,
      "endMs": 1740574871000,
      "startAddress": "171 Jason Vista Apt. 604",
      "endAddress": "696 Delgado Center",
      "startCoords": {
        "latitude": 39.763918,
        "longitude": -104.979632
      },
      "endCoords": {
        "latitude": 39.743767,
        "longitude": -105.043192
      },
      "distanceMeters": 9239.8,
      "durationMs": 1920000,
      "drivingDurationMs": 1540893,
      "idlingDurationMs": 379107,
      "fuelConsumedMl": 1173,
      "fuelConsumedGallons": 0.31,
      "maxSpeedMph": 29.4,
      "averageSpeedMph": 10.8,
      "safetyEvents": []
    },
    {
      "id": "trip_42031656_20250226_7795",
      "vehicleId": "42031656",
      "driverId": "20000004",
      "startMs": 1740587873000,
      "endMs": 1740589493000,
      "startAddress": "48986 Michelle Fields",
      "endAddress": "496 Jenkins Parkways Apt. 016",
      "startCoords": {
        "latitude": 39.745447,
        "longitude": -104.944492
      },
      "endCoords": {
        "latitude": 39.823088,
        "longitude": -104.918753
      },
      "distanceMeters": 7385.2,
      "durationMs": 1620000,
      "drivingDurationMs": 1322359,
      "idlingDurationMs": 297641,
      "fuelConsumedMl": 939,
      "fuelConsumedGallons": 0.248,
      "maxSpeedMph": 34.5,
      "averageSpeedMph": 10.2,
      "safetyEvents": []
    },
    {
      "id": "trip_42031656_20250226_7820",
      "vehicleId": "42031656",
      "driverId": "20000010",
      "startMs": 1740604067000,
      "endMs": 1740607728000,
      "startAddress": "7203 Gregory Dam",
      "endAddress": "429 Smith Place Suite 472",
      "startCoords": {
        "latitude": 39.819194,
        "longitude": -104.963396
      },
      "endCoords": {
        "latitude": 39.780108,
        "longitude": -104.970751
      },
      "distanceMeters": 15672.3,
      "durationMs": 3661000,
      "drivingDurationMs": 3049432,
      "idlingDurationMs": 611568,
      "fuelConsumedMl": 1991,
      "fuelConsumedGallons": 0.526,
      "maxSpeedMph": 27.7,
      "averageSpeedMph": 9.6,
      "safetyEvents": []
    },
    {
      "id": "trip_42031656_20250227_7847",
      "vehicleId": "42031656",
      "driverId": "20000016",
      "startMs": 1740621175000,
      "endMs": 1740623155000,
      "startAddress": "56761 Patrick Drive",
      "endAddress": "66728 Daniel Rapids Apt. 809",
      "startCoords": {
        "latitude": 39.746369,
        "longitude": -105.046716
      },
      "endCoords": {
        "latitude": 39.750319,
        "longitude": -105.077228
      },
      "distanceMeters": 8953.5,
      "durationMs": 1980000,
      "drivingDurationMs": 1580746,
      "idlingDurationMs": 399254,
      "fuelConsumedMl": 1139,
      "fuelConsumedGallons": 0.301,
      "maxSpeedMph": 35.8,
      "averageSpeedMph": 10.1,
      "safetyEvents": []
    },
    {
      "id": "trip_42031656_20250227_7873",
      "vehicleId": "42031656",
      "driverId": "20000008",
      "startMs": 1740636015000,
      "endMs": 1740638655000,
      "startAddress": "87221 Trevor Centers Apt. 075",
      "endAddress": "18445 Esparza Trail",
      "startCoords": {
        "latitude": 39.696822,
        "longitude": -105.062267
      },
      "endCoords": {
        "latitude": 39.748826,
        "longitude": -104.934993
      },
      "distanceMeters": 13602.8,
      "durationMs": 2640000,
      "drivingDurationMs": 1998316,
      "idlingDurationMs": 641684,
      "fuelConsumedMl": 1730,
      "fuelConsumedGallons": 0.457,
      "maxSpeedMph": 30.6,
      "averageSpeedMph": 11.5,
      "safetyEvents": []
    },
    {
      "id": "trip_42031656_20250227_7902",
      "vehicleId": "42031656",
      "driverId": "20000002",
      "startMs": 1740652041000,
      "endMs": 1740655203000,
      "startAddress": "98942 Aaron Curve Apt. 559",
      "endAddress": "462 Parrish Trafficway",
      "startCoords": {
        "latitude": 39.827774,
        "longitude": -104.916854
      },
      "endCoords": {
        "latitude": 39.81494,
        "longitude": -104.904122
      },
      "distanceMeters": 15638.9,
      "durationMs": 3162000,
      "drivingDurationMs": 2522568,
      "idlingDurationMs": 639432,
      "fuelConsumedMl": 1987,
      "fuelConsumedGallons": 0.525,
      "maxSpeedMph": 33.3,
      "averageSpeedMph": 11.1,
      "safetyEvents": []
    },
    {
      "id": "trip_42031656_20250227_7933",
      "vehicleId": "42031656",
      "driverId": "20000012",
      "startMs": 1740668597000,
      "endMs": 1740696385000,
      "startAddress": "421 Caleb Park Suite 091",
      "endAddress": "531 Sean Lake Suite 794",
      "startCoords": {
        "latitude": 39.783316,
        "longitude": -105.067671
      },
      "endCoords": {
        "latitude": 39.692005,
        "longitude": -104.976265
      },
      "distanceMeters": 121724.7,
      "durationMs": 27788000,
      "drivingDurationMs": 21621299,
      "idlingDurationMs": 6166701,
      "fuelConsumedMl": 15475,
      "fuelConsumedGallons": 4.088,
      "maxSpeedMph": 32.9,
      "averageSpeedMph": 9.8,
      "safetyEvents": []
    },
    {
      "id": "trip_42031656_20250227_7985",
      "vehicleId": "42031656",
      "driverId": "20000003",
      "startMs": 1740697754000,
      "endMs": 1740699914000,
      "startAddress": "41621 Troy Flats",
      "endAddress": "11358 Shane Ford",
      "startCoords": {
        "latitude": 39.718107,
        "longitude": -104.946845
      },
      "endCoords": {
        "latitude": 39.714261,
        "longitude": -104.985236
      },
      "distanceMeters": 13185.8,
      "durationMs": 2160000,
      "drivingDurationMs": 1693459,
      "idlingDurationMs": 466541,
      "fuelConsumedMl": 1677,
      "fuelConsumedGallons": 0.443,
      "maxSpeedMph": 32.3,
      "averageSpeedMph": 13.7,
      "safetyEvents": []
    },
    {
      "id": "trip_42031656_20250228_8015",
      "vehicleId": "42031656",
      "driverId": "20000012",
      "startMs": 1740718889000,
      "endMs": 1740720449000,
      "startAddress": "878 Allison Hills Suite 567",
      "endAddress": "967 Adam Mountains",
      "startCoords": {
        "latitude": 39.734201,
        "longitude": -104.90594
      },
      "endCoords": {
        "latitude": 39.743583,
        "longitude": -104.98869
      },
      "distanceMeters": 9391.2,
      "durationMs": 1560000,
      "drivingDurationMs": 1233376,
      "idlingDurationMs": 326624,
      "fuelConsumedMl": 1192,
      "fuelConsumedGallons": 0.315,
      "maxSpeedMph": 39.3,
      "averageSpeedMph": 13.5,
      "safetyEvents": []
    },
    {
      "id": "trip_42031656_20250228_8044",
      "vehicleId": "42031656",
      "driverId": "20000015",
      "startMs": 1740736220000,
      "endMs": 1740748204000,
      "startAddress": "154 Murray Corners",
      "endAddress": "10903 Henry Expressway",
      "startCoords": {
        "latitude": 39.695107,
        "longitude": -105.034323
      },
      "endCoords": {
        "latitude": 39.81608,
        "longitude": -105.008371
      },
      "distanceMeters": 70024.8,
      "durationMs": 11984000,
      "drivingDurationMs": 9293304,
      "idlingDurationMs": 2690696,
      "fuelConsumedMl": 8903,
      "fuelConsumedGallons": 2.352,
      "maxSpeedMph": 26.8,
      "averageSpeedMph": 13.1,
      "safetyEvents": []
    },
    {
      "id": "trip_42031656_20250228_8072",
      "vehicleId": "42031656",
      "driverId": "20000018",
      "startMs": 1740750275000,
      "endMs": 1740752075000,
      "startAddress": "7284 Kathy Crossroad",
      "endAddress": "99699 Vasquez Lane Suite 634",
      "startCoords": {
        "latitude": 39.692906,
        "longitude": -105.071841
      },
      "endCoords": {
        "latitude": 39.812339,
        "longitude": -105.040821
      },
      "distanceMeters": 7315.2,
      "durationMs": 1800000,
      "drivingDurationMs": 1441437,
      "idlingDurationMs": 358563,
      "fuelConsumedMl": 931,
      "fuelConsumedGallons": 0.246,
      "maxSpeedMph": 31.9,
      "averageSpeedMph": 9.1,
      "safetyEvents": []
    },
    {
      "id": "trip_42031656_20250228_8100",
      "vehicleId": "42031656",
      "driverId": "20000010",
      "startMs": 1740765209000,
      "endMs": 1740767189000,
      "startAddress": "7678 Walter Ramp",
      "endAddress": "2894 Martinez Garden Suite 906",
      "startCoords": {
        "latitude": 39.790449,
        "longitude": -104.996762
      },
      "endCoords": {
        "latitude": 39.780441,
        "longitude": -104.919461
      },
      "distanceMeters": 11543.5,
      "durationMs": 1980000,
      "drivingDurationMs": 1748207,
      "idlingDurationMs": 231793,
      "fuelConsumedMl": 1469,
      "fuelConsumedGallons": 0.388,
      "maxSpeedMph": 33.0,
      "averageSpeedMph": 13.0,
      "safetyEvents": []
    },
    {
      "id": "trip_42031656_20250228_8127",
      "vehicleId": "42031656",
      "driverId": "20000004",
      "startMs": 1740777533000,
      "endMs": 1740779933000,
      "startAddress": "7198 Schmidt Ranch Apt. 796",
      "endAddress": "4455 Johnson Inlet",
      "startCoords": {
        "latitude": 39.764337,
        "longitude": -104.983904
      },
      "endCoords": {
        "latitude": 39.777676,
        "longitude": -104.993416
      },
      "distanceMeters": 15115.9,
      "durationMs": 2400000,
      "drivingDurationMs": 2117182,
      "idlingDurationMs": 282818,
      "fuelConsumedMl": 1923,
      "fuelConsumedGallons": 0.508,
      "maxSpeedMph": 36.2,
      "averageSpeedMph": 14.1,
      "safetyEvents": []
    }
  ]
}