{
  "vehicleId": "46232361",
  "vehicleName": "DEN-VAN-08",
  "month": "2025_02",
  "pagination": {
    "endCursor": "trip_46232361_20250228_004",
    "hasNextPage": false
  },
  "trips": [
    {
      "id": "trip_46232361_20250201_001",
      "vehicleId": "46232361",
      "driverId": "20000017",
      "startMs": 1738423920000,
      "endMs": 1738427176296,
      "startAddress": "147 Kelly Estate",
      "endAddress": "6594 Jeffrey Dale",
      "startCoords": {
        "latitude": 39.814948,
        "longitude": -105.082323
      },
      "endCoords": {
        "latitude": 39.786862,
        "longitude": -105.01852
      },
      "distanceMeters": 23591.3,
      "durationMs": 3256296,
      "drivingDurationMs": 2804740,
      "idlingDurationMs": 451556,
      "fuelConsumedMl": 2998,
      "fuelConsumedGallons": 0.792,
      "maxSpeedMph": 64.5,
      "averageSpeedMph": 16.2,
      "safetyEvents": []
    },
    {
      "id": "trip_46232361_20250201_002",
      "vehicleId": "46232361",
      "driverId": "20000017",
      "startMs": 1738430040000,
      "endMs": 1738443600000,
      "startAddress": "1789 Horn Route",
      "endAddress": "1944 Hartman Meadows",
      "startCoords": {
        "latitude": 39.794209,
        "longitude": -105.002742
      },
      "endCoords": {
        "latitude": 39.79366,
        "longitude": -105.007967
      },
      "distanceMeters": 64640.3,
      "durationMs": 13560000,
      "drivingDurationMs": 10971111,
      "idlingDurationMs": 2588889,
      "fuelConsumedMl": 8218,
      "fuelConsumedGallons": 2.171,
      "maxSpeedMph": 54.0,
      "averageSpeedMph": 10.7,
      "safetyEvents": []
    },
    {
      "id": "trip_46232361_20250201_003",
      "vehicleId": "46232361",
      "driverId": "20000017",
      "startMs": 1738389660000,
      "endMs": 1738399795215,
      "startAddress": "5370 Wood Dale Apt. 850",
      "endAddress": "06567 Danielle Parks",
      "startCoords": {
        "latitude": 39.770543,
        "longitude": -105.010316
      },
      "endCoords": {
        "latitude": 39.824431,
        "longitude": -105.032812
      },
      "distanceMeters": 73939.3,
      "durationMs": 10135216,
      "drivingDurationMs": 9554616,
      "idlingDurationMs": 580600,
      "fuelConsumedMl": 9399,
      "fuelConsumedGallons": 2.483,
      "maxSpeedMph": 29.8,
      "averageSpeedMph": 16.3,
      "safetyEvents": []
    },
    {
      "id": "trip_46232361_20250202_001",
      "vehicleId": "46232361",
      "driverId": "20000002",
      "startMs": 1738476360000,
      "endMs": 1738479473229,
      "startAddress": "747 Edgar Lane Suite 353",
      "endAddress": "1379 Tiffany Islands Apt. 124",
      "startCoords": {
        "latitude": 39.70668,
        "longitude": -104.950398
      },
      "endCoords": {
        "latitude": 39.78088,
        "longitude": -105.073161
      },
      "distanceMeters": 20325.8,
      "durationMs": 3113230,
      "drivingDurationMs": 2682207,
      "idlingDurationMs": 431022,
      "fuelConsumedMl": 2585,
      "fuelConsumedGallons": 0.683,
      "maxSpeedMph": 43.9,
      "averageSpeedMph": 14.6,
      "safetyEvents": []
    },
    {
      "id": "trip_46232361_20250202_002",
      "vehicleId": "46232361",
      "driverId": "20000002",
      "startMs": 1738501680000,
      "endMs": 1738514088929,
      "startAddress": "53147 Erin Falls Suite 993",
      "endAddress": "8001 Jason Corner",
      "startCoords": {
        "latitude": 39.736583,
        "longitude": -104.907992
      },
      "endCoords": {
        "latitude": 39.728855,
        "longitude": -105.0752
      },
      "distanceMeters": 59024.5,
      "durationMs": 12408929,
      "drivingDurationMs": 10405853,
      "idlingDurationMs": 2003076,
      "fuelConsumedMl": 7503,
      "fuelConsumedGallons": 1.982,
      "maxSpeedMph": 69.7,
      "averageSpeedMph": 10.6,
      "safetyEvents": [
        {
          "type": "speeding",
          "startMs": 1738509360000,
          "maxSpeedMph": 69.7
        }
      ]
    },
    {
      "id": "trip_46232361_20250203_001",
      "vehicleId": "46232361",
      "driverId": "20000019",
      "startMs": 1738576920000,
      "endMs": 1738579113578,
      "startAddress": "278 Christine Crossing Suite 519",
      "endAddress": "0991 Martinez Loop",
      "startCoords": {
        "latitude": 39.697796,
        "longitude": -105.054789
      },
      "endCoords": {
        "latitude": 39.757155,
        "longitude": -105.061273
      },
      "distanceMeters": 14724.2,
      "durationMs": 2193578,
      "drivingDurationMs": 1792240,
      "idlingDurationMs": 401338,
      "fuelConsumedMl": 1874,
      "fuelConsumedGallons": 0.495,
      "maxSpeedMph": 39.4,
      "averageSpeedMph": 15.0,
      "safetyEvents": []
    },
    {
      "id": "trip_46232361_20250203_002",
      "vehicleId": "46232361",
      "driverId": "20000019",
      "startMs": 1738596180000,
      "endMs": 1738611131334,
      "startAddress": "517 Michael Extensions Suite 257",
      "endAddress": "00955 Jason Viaduct",
      "startCoords": {
        "latitude": 39.786182,
        "longitude": -105.081911
      },
      "endCoords": {
        "latitude": 39.799448,
        "longitude": -104.920732
      },
      "distanceMeters": 70455.4,
      "durationMs": 14951334,
      "drivingDurationMs": 12963643,
      "idlingDurationMs": 1987691,
      "fuelConsumedMl": 8956,
      "fuelConsumedGallons": 2.366,
      "maxSpeedMph": 46.8,
      "averageSpeedMph": 10.5,
      "safetyEvents": []
    },
    {
      "id": "trip_46232361_20250204_001",
      "vehicleId": "46232361",
      "driverId": null,
      "startMs": 1738671780000,
      "endMs": 1738683587140,
      "startAddress": "361 Douglas Harbors Apt. 990",
      "endAddress": "2321 Jason Underpass",
      "startCoords": {
        "latitude": 39.744778,
        "longitude": -104.946734
      },
      "endCoords": {
        "latitude": 39.797705,
        "longitude": -104.965057
      },
      "distanceMeters": 66064.8,
      "durationMs": 11807141,
      "drivingDurationMs": 11158708,
      "idlingDurationMs": 648432,
      "fuelConsumedMl": 8400,
      "fuelConsumedGallons": 2.219,
      "maxSpeedMph": 69.6,
      "averageSpeedMph": 12.5,
      "safetyEvents": [
        {
          "type": "speeding",
          "startMs": 1738674780000,
          "maxSpeedMph": 69.6
        }
      ]
    },
    {
      "id": "trip_46232361_20250204_002",
      "vehicleId": "46232361",
      "driverId": "20000002",
      "startMs": 1738656180000,
      "endMs": 1738660364508,
      "startAddress": "39955 Diana Ville",
      "endAddress": "2550 Shelton Park Apt. 941",
      "startCoords": {
        "latitude": 39.750744,
        "longitude": -104.932437
      },
      "endCoords": {
        "latitude": 39.721437,
        "longitude": -104.98947
      },
      "distanceMeters": 29260.1,
      "durationMs": 4184509,
      "drivingDurationMs": 3550385,
      "idlingDurationMs": 634123,
      "fuelConsumedMl": 3721,
      "fuelConsumedGallons": 0.983,
      "maxSpeedMph": 35.0,
      "averageSpeedMph": 15.6,
      "safetyEvents": []
    },
    {
      "id": "trip_46232361_20250204_003",
      "vehicleId": "46232361",
      "driverId": "20000002",
      "startMs": 1738665120000,
      "endMs": 1738681688151,
      "startAddress": "730 Christian Trace Apt. 922",
      "endAddress": "755 Moon Drives Apt. 597",
      "startCoords": {
        "latitude": 39.73219,
        "longitude": -104.98219
      },
      "endCoords": {
        "latitude": 39.717897,
        "longitude": -104.951772
      },
      "distanceMeters": 83534.1,
      "durationMs": 16568152,
      "drivingDurationMs": 16098589,
      "idlingDurationMs": 469563,
      "fuelConsumedMl": 10622,
      "fuelConsumedGallons": 2.806,
      "maxSpeedMph": 45.8,
      "averageSpeedMph": 11.3,
      "safetyEvents": []
    },
    {
      "id": "trip_46232361_20250204_004",
      "vehicleId": "46232361",
      "driverId": "20000002",
      "startMs": 1738650780000,
      "endMs": 1738655244287,
      "startAddress": "555 Angela Forge",
      "endAddress": "7969 Brown Walks Apt. 939",
      "startCoords": {
        "latitude": 39.704604,
        "longitude": -104.921969
      },
      "endCoords": {
        "latitude": 39.716332,
        "longitude": -105.015589
      },
      "distanceMeters": 30378.6,
      "durationMs": 4464287,
      "drivingDurationMs": 3853367,
      "idlingDurationMs": 610921,
      "fuelConsumedMl": 3861,
      "fuelConsumedGallons": 1.02,
      "maxSpeedMph": 64.2,
      "averageSpeedMph": 15.2,
      "safetyEvents": []
    },
    {
      "id": "trip_46232361_20250205_001",
      "vehicleId": "46232361",
      "driverId": "20000002",
      "startMs": 1738773960000,
      "endMs": 1738780169382,
      "startAddress": "56284 Shawn Mount Suite 775",
      "endAddress": "6814 Barajas Corner Suite 048",
      "startCoords": {
        "latitude": 39.791783,
        "longitude": -105.002802
      },
      "endCoords": {
        "latitude": 39.75998,
        "longitude": -105.085493
      },
      "distanceMeters": 33108.0,
      "durationMs": 6209382,
      "drivingDurationMs": 5277013,
      "idlingDurationMs": 932369,
      "fuelConsumedMl": 4209,
      "fuelConsumedGallons": 1.112,
      "maxSpeedMph": 28.6,
      "averageSpeedMph": 11.9,
      "safetyEvents": []
    },
    {
      "id": "trip_46232361_20250205_002",
      "vehicleId": "46232361",
      "driverId": "20000002",
      "startMs": 1738737660000,
      "endMs": 1738743959713,
      "startAddress": "3511 Warren Rapids Apt. 627",
      "endAddress": "04258 Wiley Drive Apt. 497",
      "startCoords": {
        "latitude": 39.73494,
        "longitude": -104.962757
      },
      "endCoords": {
        "latitude": 39.810536,
        "longitude": -105.049696
      },
      "distanceMeters": 30986.9,
      "durationMs": 6299714,
      "drivingDurationMs": 5409569,
      "idlingDurationMs": 890145,
      "fuelConsumedMl": 3941,
      "fuelConsumedGallons": 1.041,
      "maxSpeedMph": 39.6,
      "averageSpeedMph": 11.0,
      "safetyEvents": []
    },
    {
      "id": "trip_46232361_20250206_001",
      "vehicleId": "46232361",
      "driverId": null,
      "startMs": 1738857600000,
      "endMs": 1738867434121,
      "startAddress": "2102 Stephanie Harbors",
      "endAddress": "14975 York Fork",
      "startCoords": {
        "latitude": 39.72226,
        "longitude": -105.044836
      },
      "endCoords": {
        "latitude": 39.772169,
        "longitude": -104.999594
      },
      "distanceMeters": 79969.6,
      "durationMs": 9834122,
      "drivingDurationMs": 9499018,
      "idlingDurationMs": 335103,
      "fuelConsumedMl": 10168,
      "fuelConsumedGallons": 2.686,
      "maxSpeedMph": 40.1,
      "averageSpeedMph": 18.2,
      "safetyEvents": []
    },
    {
      "id": "trip_46232361_20250206_002",
      "vehicleId": "46232361",
      "driverId": "20000008",
      "startMs": 1738859100000,
      "endMs": 1738862586101,
      "startAddress": "0388 Black Forks Suite 038",
      "endAddress": "4134 Krause Square Suite 098",
      "startCoords": {
        "latitude": 39.723593,
        "longitude": -104.929081
      },
      "endCoords": {
        "latitude": 39.756345,
        "longitude": -105.072674
      },
      "distanceMeters": 15351.6,
      "durationMs": 3486101,
      "drivingDurationMs": 2827216,
      "idlingDurationMs": 658885,
      "fuelConsumedMl": 1953,
      "fuelConsumedGallons": 0.516,
      "maxSpeedMph": 28.9,
      "averageSpeedMph": 9.9,
      "safetyEvents": []
    },
    {
      "id": "trip_46232361_20250207_001",
      "vehicleId": "46232361",
      "driverId": "20000022",
      "startMs": 1738911420000,
      "endMs": 1738914316708,
      "startAddress": "170 Tyler Harbors Apt. 774",
      "endAddress": "47166 Taylor Junction Apt. 786",
      "startCoords": {
        "latitude": 39.789379,
        "longitude": -105.05315
      },
      "endCoords": {
        "latitude": 39.756389,
        "longitude": -105.032056
      },
      "distanceMeters": 16800.2,
      "durationMs": 2896708,
      "drivingDurationMs": 2412168,
      "idlingDurationMs": 484540,
      "fuelConsumedMl": 2135,
      "fuelConsumedGallons": 0.564,
      "maxSpeedMph": 58.8,
      "averageSpeedMph": 13.0,
      "safetyEvents": []
    },
    {
      "id": "trip_46232361_20250207_002",
      "vehicleId": "46232361",
      "driverId": "20000022",
      "startMs": 1738932000000,
      "endMs": 1738933886732,
      "startAddress": "83076 Patty Lake",
      "endAddress": "17616 Meyer Stream",
      "startCoords": {
        "latitude": 39.695761,
        "longitude": -104.980461
      },
      "endCoords": {
        "latitude": 39.713946,
        "longitude": -104.98275
      },
      "distanceMeters": 13047.4,
      "durationMs": 1886733,
      "drivingDurationMs": 1553499,
      "idlingDurationMs": 333234,
      "fuelConsumedMl": 1658,
      "fuelConsumedGallons": 0.438,
      "maxSpeedMph": 64.9,
      "averageSpeedMph": 15.5,
      "safetyEvents": []
    },
    {
      "id": "trip_46232361_20250208_001",
      "vehicleId": "46232361",
      "driverId": "20000014",
      "startMs": 1739007600000,
      "endMs": 1739019892202,
      "startAddress": "48391 Howell Vista",
      "endAddress": "3704 Elizabeth Trail",
      "startCoords": {
        "latitude": 39.69639,
        "longitude": -104.983521
      },
      "endCoords": {
        "latitude": 39.826621,
        "longitude": -104.978617
      },
      "distanceMeters": 69939.3,
      "durationMs": 12292203,
      "drivingDurationMs": 11323637,
      "idlingDurationMs": 968566,
      "fuelConsumedMl": 8892,
      "fuelConsumedGallons": 2.349,
      "maxSpeedMph": 59.6,
      "averageSpeedMph": 12.7,
      "safetyEvents": []
    },
    {
      "id": "trip_46232361_20250208_002",
      "vehicleId": "46232361",
      "driverId": "20000014",
      "startMs": 1739009520000,
      "endMs": 1739024343764,
      "startAddress": "67804 Joshua Courts Apt. 229",
      "endAddress": "93973 Jacqueline Highway Suite 736",
      "startCoords": {
        "latitude": 39.721006,
        "longitude": -105.07704
      },
      "endCoords": {
        "latitude": 39.7321,
        "longitude": -104.974473
      },
      "distanceMeters": 71281.3,
      "durationMs": 14823765,
      "drivingDurationMs": 11869873,
      "idlingDurationMs": 2953891,
      "fuelConsumedMl": 9062,
      "fuelConsumedGallons": 2.394,
      "maxSpeedMph": 61.8,
      "averageSpeedMph": 10.8,
      "safetyEvents": []
    },
    {
      "id": "trip_46232361_20250208_003",
      "vehicleId": "46232361",
      "driverId": "20000014",
      "startMs": 1739001780000,
      "endMs": 1739007420371,
      "startAddress": "652 Medina Trace",
      "endAddress": "08076 Young Locks Suite 481",
      "startCoords": {
        "latitude": 39.791664,
        "longitude": -104.969177
      },
      "endCoords": {
        "latitude": 39.686388,
        "longitude": -105.017685
      },
      "distanceMeters": 32769.8,
      "durationMs": 5640371,
      "drivingDurationMs": 5266114,
      "idlingDurationMs": 374257,
      "fuelConsumedMl": 4168,
      "fuelConsumedGallons": 1.101,
      "maxSpeedMph": 66.8,
      "averageSpeedMph": 13.0,
      "safetyEvents": [
        {
          "type": "speeding",
          "startMs": 1739002140000,
          "maxSpeedMph": 66.8
        }
      ]
    },
    {
      "id": "trip_46232361_20250209_001",
      "vehicleId": "46232361",
      "driverId": "20000006",
      "startMs": 1739097360000,
      "endMs": 1739099034141,
      "startAddress": "696 Timothy Street",
      "endAddress": "406 Flowers Plains Apt. 247",
      "startCoords": {
        "latitude": 39.772444,
        "longitude": -104.931206
      },
      "endCoords": {
        "latitude": 39.730194,
        "longitude": -104.939154
      },
      "distanceMeters": 11530.0,
      "durationMs": 1674141,
      "drivingDurationMs": 1434458,
      "idlingDurationMs": 239684,
      "fuelConsumedMl": 1465,
      "fuelConsumedGallons": 0.387,
      "maxSpeedMph": 55.3,
      "averageSpeedMph": 15.4,
      "safetyEvents": []
    },
    {
      "id": "trip_46232361_20250209_002",
      "vehicleId": "46232361",
      "driverId": "20000006",
      "startMs": 1739099760000,
      "endMs": 1739108489346,
      "startAddress": "397 Julie Mission Apt. 090",
      "endAddress": "4014 Walker Meadows",
      "startCoords": {
        "latitude": 39.718622,
        "longitude": -105.084855
      },
      "endCoords": {
        "latitude": 39.822903,
        "longitude": -105.065335
      },
      "distanceMeters": 63594.1,
      "durationMs": 8729346,
      "drivingDurationMs": 7215551,
      "idlingDurationMs": 1513796,
      "fuelConsumedMl": 8086,
      "fuelConsumedGallons": 2.136,
      "maxSpeedMph": 70.7,
      "averageSpeedMph": 16.3,
      "safetyEvents": [
        {
          "type": "speeding",
          "startMs": 1739102580000,
          "maxSpeedMph": 70.7
        }
      ]
    },
    {
      "id": "trip_46232361_20250209_003",
      "vehicleId": "46232361",
      "driverId": "20000006",
      "startMs": 1739109540000,
      "endMs": 1739119172090,
      "startAddress": "356 Davis Greens",
      "endAddress": "2486 Mccann Track Suite 913",
      "startCoords": {
        "latitude": 39.693245,
        "longitude": -105.027379
      },
      "endCoords": {
        "latitude": 39.805544,
        "longitude": -105.003162
      },
      "distanceMeters": 53572.4,
      "durationMs": 9632090,
      "drivingDurationMs": 8697996,
      "idlingDurationMs": 934094,
      "fuelConsumedMl": 6810,
      "fuelConsumedGallons": 1.799,
      "maxSpeedMph": 68.2,
      "averageSpeedMph": 12.4,
      "safetyEvents": [
        {
          "type": "speeding",
          "startMs": 1739116080000,
          "maxSpeedMph": 68.2
        }
      ]
    },
    {
      "id": "trip_46232361_20250210_001",
      "vehicleId": "46232361",
      "driverId": "20000004",
      "startMs": 1739182740000,
      "endMs": 1739185494772,
      "startAddress": "195 Levine Ranch Apt. 167",
      "endAddress": "48485 Vaughn Station Apt. 128",
      "startCoords": {
        "latitude": 39.812737,
        "longitude": -105.07014
      },
      "endCoords": {
        "latitude": 39.782379,
        "longitude": -105.007027
      },
      "distanceMeters": 17789.1,
      "durationMs": 2754772,
      "drivingDurationMs": 2362880,
      "idlingDurationMs": 391892,
      "fuelConsumedMl": 2260,
      "fuelConsumedGallons": 0.597,
      "maxSpeedMph": 70.9,
      "averageSpeedMph": 14.4,
      "safetyEvents": [
        {
          "type": "speeding",
          "startMs": 1739183940000,
          "maxSpeedMph": 70.9
        }
      ]
    },
    {
      "id": "trip_46232361_20250210_002",
      "vehicleId": "46232361",
      "driverId": "20000004",
      "startMs": 1739201040000,
      "endMs": 1739211420823,
      "startAddress": "478 Aaron Neck",
      "endAddress": "24837 Kristen Port",
      "startCoords": {
        "latitude": 39.684936,
        "longitude": -104.920994
      },
      "endCoords": {
        "latitude": 39.750372,
        "longitude": -104.922808
      },
      "distanceMeters": 65817.2,
      "durationMs": 10380823,
      "drivingDurationMs": 8696133,
      "idlingDurationMs": 1684690,
      "fuelConsumedMl": 8370,
      "fuelConsumedGallons": 2.211,
      "maxSpeedMph": 55.5,
      "averageSpeedMph": 14.2,
      "safetyEvents": []
    },
    {
      "id": "trip_46232361_20250210_003",
      "vehicleId": "46232361",
      "driverId": "20000004",
      "startMs": 1739207280000,
      "endMs": 1739215615121,
      "startAddress": "1708 Henry Isle Suite 117",
      "endAddress": "65052 Daniel Forks",
      "startCoords": {
        "latitude": 39.798499,
        "longitude": -104.955086
      },
      "endCoords": {
        "latitude": 39.827512,
        "longitude": -105.060138
      },
      "distanceMeters": 52653.5,
      "durationMs": 8335122,
      "drivingDurationMs": 7559627,
      "idlingDurationMs": 775495,
      "fuelConsumedMl": 6696,
      "fuelConsumedGallons": 1.769,
      "maxSpeedMph": 68.8,
      "averageSpeedMph": 14.1,
      "safetyEvents": [
        {
          "type": "speeding",
          "startMs": 1739209500000,
          "maxSpeedMph": 68.8
        }
      ]
    },
    {
      "id": "trip_46232361_20250210_004",
      "vehicleId": "46232361",
      "driverId": "20000004",
      "startMs": 1739185020000,
      "endMs": 1739192073328,
      "startAddress": "3033 Allison Loop",
      "endAddress": "8179 Melissa Valleys",
      "startCoords": {
        "latitude": 39.730848,
        "longitude": -105.011586
      },
      "endCoords": {
        "latitude": 39.767645,
        "longitude": -104.983431
      },
      "distanceMeters": 48364.9,
      "durationMs": 7053328,
      "drivingDurationMs": 5940135,
      "idlingDurationMs": 1113193,
      "fuelConsumedMl": 6148,
      "fuelConsumedGallons": 1.624,
      "maxSpeedMph": 68.5,
      "averageSpeedMph": 15.3,
      "safetyEvents": [
        {
          "type": "speeding",
          "startMs": 1739189040000,
          "maxSpeedMph": 68.5
        }
      ]
    },
    {
      "id": "trip_46232361_20250210_005",
      "vehicleId": "46232361",
      "driverId": "20000004",
      "startMs": 1739200320000,
      "endMs": 1739208875217,
      "startAddress": "043 Justin Gateway Suite 238",
      "endAddress": "109 Bradley Glen Suite 723",
      "startCoords": {
        "latitude": 39.744406,
        "longitude": -105.03176
      },
      "endCoords": {
        "latitude": 39.750647,
        "longitude": -104.984885
      },
      "distanceMeters": 53220.5,
      "durationMs": 8555217,
      "drivingDurationMs": 7765421,
      "idlingDurationMs": 789796,
      "fuelConsumedMl": 6768,
      "fuelConsumedGallons": 1.788,
      "maxSpeedMph": 61.4,
      "averageSpeedMph": 13.9,
      "safetyEvents": []
    },
    {
      "id": "trip_46232361_20250210_006",
      "vehicleId": "46232361",
      "driverId": "20000004",
      "startMs": 1739197200000,
      "endMs": 1739205869409,
      "startAddress": "347 Suzanne Rapids Suite 702",
      "endAddress": "28629 Blair Estates Suite 563",
      "startCoords": {
        "latitude": 39.730898,
        "longitude": -104.975154
      },
      "endCoords": {
        "latitude": 39.806341,
        "longitude": -105.022518
      },
      "distanceMeters": 59808.2,
      "durationMs": 8669410,
      "drivingDurationMs": 7021577,
      "idlingDurationMs": 1647833,
      "fuelConsumedMl": 7605,
      "fuelConsumedGallons": 2.009,
      "maxSpeedMph": 69.8,
      "averageSpeedMph": 15.4,
      "safetyEvents": [
        {
          "type": "speeding",
          "startMs": 1739201520000,
          "maxSpeedMph": 69.8
        }
      ]
    },
    {
      "id": "trip_46232361_20250211_001",
      "vehicleId": "46232361",
      "driverId": "20000016",
      "startMs": 1739291220000,
      "endMs": 1739301012083,
      "startAddress": "235 Hardy Streets",
      "endAddress": "0510 Flores Mountain Suite 553",
      "startCoords": {
        "latitude": 39.705354,
        "longitude": -105.054575
      },
      "endCoords": {
        "latitude": 39.75412,
        "longitude": -105.011988
      },
      "distanceMeters": 58364.2,
      "durationMs": 9792083,
      "drivingDurationMs": 8836715,
      "idlingDurationMs": 955368,
      "fuelConsumedMl": 7419,
      "fuelConsumedGallons": 1.96,
      "maxSpeedMph": 36.1,
      "averageSpeedMph": 13.3,
      "safetyEvents": []
    },
    {
      "id": "trip_46232361_20250211_002",
      "vehicleId": "46232361",
      "driverId": "20000016",
      "startMs": 1739280720000,
      "endMs": 1739289418492,
      "startAddress": "5375 Mandy Harbor",
      "endAddress": "80373 Devin Plaza Apt. 033",
      "startCoords": {
        "latitude": 39.753488,
        "longitude": -105.061014
      },
      "endCoords": {
        "latitude": 39.713087,
        "longitude": -104.995838
      },
      "distanceMeters": 48391.7,
      "durationMs": 8698492,
      "drivingDurationMs": 8107177,
      "idlingDurationMs": 591316,
      "fuelConsumedMl": 6151,
      "fuelConsumedGallons": 1.625,
      "maxSpeedMph": 64.0,
      "averageSpeedMph": 12.4,
      "safetyEvents": []
    },
    {
      "id": "trip_46232361_20250211_003",
      "vehicleId": "46232361",
      "driverId": "20000016",
      "startMs": 1739277300000,
      "endMs": 1739284530892,
      "startAddress": "4218 Andrew Bypass",
      "endAddress": "3516 Moyer Dale",
      "startCoords": {
        "latitude": 39.787163,
        "longitude": -104.947999
      },
      "endCoords": {
        "latitude": 39.796075,
        "longitude": -105.038392
      },
      "distanceMeters": 50145.8,
      "durationMs": 7230893,
      "drivingDurationMs": 5961583,
      "idlingDurationMs": 1269309,
      "fuelConsumedMl": 6375,
      "fuelConsumedGallons": 1.684,
      "maxSpeedMph": 36.8,
      "averageSpeedMph": 15.5,
      "safetyEvents": []
    },
    {
      "id": "trip_46232361_20250212_001",
      "vehicleId": "46232361",
      "driverId": "20000007",
      "startMs": 1739382900000,
      "endMs": 1739393331034,
      "startAddress": "3193 Valerie Pine",
      "endAddress": "085 Joseph Mountain Apt. 587",
      "startCoords": {
        "latitude": 39.715374,
        "longitude": -104.908382
      },
      "endCoords": {
        "latitude": 39.703688,
        "longitude": -105.065286
      },
      "distanceMeters": 64505.7,
      "durationMs": 10431034,
      "drivingDurationMs": 8369325,
      "idlingDurationMs": 2061710,
      "fuelConsumedMl": 8203,
      "fuelConsumedGallons": 2.167,
      "maxSpeedMph": 65.6,
      "averageSpeedMph": 13.8,
      "safetyEvents": [
        {
          "type": "speeding",
          "startMs": 1739383080000,
          "maxSpeedMph": 65.6
        }
      ]
    },
    {
      "id": "trip_46232361_20250212_002",
      "vehicleId": "46232361",
      "driverId": "20000007",
      "startMs": 1739350680000,
      "endMs": 1739357065756,
      "startAddress": "459 Miles Islands Apt. 591",
      "endAddress": "5809 Danielle Park Suite 853",
      "startCoords": {
        "latitude": 39.783669,
        "longitude": -105.076357
      },
      "endCoords": {
        "latitude": 39.726016,
        "longitude": -104.925603
      },
      "distanceMeters": 43807.6,
      "durationMs": 6385757,
      "drivingDurationMs": 5541593,
      "idlingDurationMs": 844163,
      "fuelConsumedMl": 5568,
      "fuelConsumedGallons": 1.471,
      "maxSpeedMph": 30.8,
      "averageSpeedMph": 15.3,
      "safetyEvents": []
    },
    {
      "id": "trip_46232361_20250212_003",
      "vehicleId": "46232361",
      "driverId": "20000007",
      "startMs": 1739363400000,
      "endMs": 1739373359672,
      "startAddress": "5035 Diaz Cove",
      "endAddress": "288 Tyler Fall",
      "startCoords": {
        "latitude": 39.753449,
        "longitude": -105.052898
      },
      "endCoords": {
        "latitude": 39.693558,
        "longitude": -104.997017
      },
      "distanceMeters": 72666.1,
      "durationMs": 9959673,
      "drivingDurationMs": 9767231,
      "idlingDurationMs": 192442,
      "fuelConsumedMl": 9240,
      "fuelConsumedGallons": 2.441,
      "maxSpeedMph": 58.8,
      "averageSpeedMph": 16.3,
      "safetyEvents": []
    },
    {
      "id": "trip_46232361_20250212_004",
      "vehicleId": "46232361",
      "driverId": "20000007",
      "startMs": 1739357280000,
      "endMs": 1739362937838,
      "startAddress": "7325 John Greens Apt. 978",
      "endAddress": "5504 Galloway Coves",
      "startCoords": {
        "latitude": 39.763426,
        "longitude": -104.940786
      },
      "endCoords": {
        "latitude": 39.713312,
        "longitude": -105.035933
      },
      "distanceMeters": 33866.5,
      "durationMs": 5657838,
      "drivingDurationMs": 5437379,
      "idlingDurationMs": 220460,
      "fuelConsumedMl": 4304,
      "fuelConsumedGallons": 1.137,
      "maxSpeedMph": 31.5,
      "averageSpeedMph": 13.4,
      "safetyEvents": []
    },
    {
      "id": "trip_46232361_20250213_001",
      "vehicleId": "46232361",
      "driverId": "20000012",
      "startMs": 1739431980000,
      "endMs": 1739447338611,
      "startAddress": "75459 Tina Route",
      "endAddress": "7540 Lane Union Suite 411",
      "startCoords": {
        "latitude": 39.76091,
        "longitude": -104.944461
      },
      "endCoords": {
        "latitude": 39.750284,
        "longitude": -105.061584
      },
      "distanceMeters": 83643.1,
      "durationMs": 15358612,
      "drivingDurationMs": 12389068,
      "idlingDurationMs": 2969544,
      "fuelConsumedMl": 10633,
      "fuelConsumedGallons": 2.809,
      "maxSpeedMph": 37.4,
      "averageSpeedMph": 12.2,
      "safetyEvents": []
    },
    {
      "id": "trip_46232361_20250213_002",
      "vehicleId": "46232361",
      "driverId": "20000012",
      "startMs": 1739463900000,
      "endMs": 1739470638338,
      "startAddress": "67614 Lawrence Valleys",
      "endAddress": "2332 Dickson Wells",
      "startCoords": {
        "latitude": 39.757655,
        "longitude": -104.970854
      },
      "endCoords": {
        "latitude": 39.689766,
        "longitude": -105.024122
      },
      "distanceMeters": 41182.5,
      "durationMs": 6738339,
      "drivingDurationMs": 6494814,
      "idlingDurationMs": 243525,
      "fuelConsumedMl": 5235,
      "fuelConsumedGallons": 1.383,
      "maxSpeedMph": 42.1,
      "averageSpeedMph": 13.7,
      "safetyEvents": []
    },
    {
      "id": "trip_46232361_20250213_003",
      "vehicleId": "46232361",
      "driverId": "20000012",
      "startMs": 1739437800000,
      "endMs": 1739442944054,
      "startAddress": "4476 Clarke Fords Apt. 641",
      "endAddress": "700 Gilbert Flat Suite 957",
      "startCoords": {
        "latitude": 39.762481,
        "longitude": -104.962111
      },
      "endCoords": {
        "latitude": 39.762176,
        "longitude": -104.934125
      },
      "distanceMeters": 30502.6,
      "durationMs": 5144054,
      "drivingDurationMs": 4403133,
      "idlingDurationMs": 740921,
      "fuelConsumedMl": 3880,
      "fuelConsumedGallons": 1.025,
      "maxSpeedMph": 49.1,
      "averageSpeedMph": 13.3,
      "safetyEvents": []
    },
    {
      "id": "trip_46232361_20250214_001",
      "vehicleId": "46232361",
      "driverId": "20000018",
      "startMs": 1739547300000,
      "endMs": 1739549386441,
      "startAddress": "7870 Dean Vista Suite 896",
      "endAddress": "6746 Ashley Brook",
      "startCoords": {
        "latitude": 39.706705,
        "longitude": -104.91549
      },
      "endCoords": {
        "latitude": 39.806712,
        "longitude": -104.933242
      },
      "distanceMeters": 14511.2,
      "durationMs": 2086441,
      "drivingDurationMs": 1748457,
      "idlingDurationMs": 337984,
      "fuelConsumedMl": 1843,
      "fuelConsumedGallons": 0.487,
      "maxSpeedMph": 54.8,
      "averageSpeedMph": 15.6,
      "safetyEvents": []
    },
    {
      "id": "trip_46232361_20250214_002",
      "vehicleId": "46232361",
      "driverId": "20000018",
      "startMs": 1739539920000,
      "endMs": 1739552777171,
      "startAddress": "334 Hansen Underpass",
      "endAddress": "446 Amber Lodge Suite 291",
      "startCoords": {
        "latitude": 39.781679,
        "longitude": -105.05564
      },
      "endCoords": {
        "latitude": 39.805639,
        "longitude": -105.039096
      },
      "distanceMeters": 72552.1,
      "durationMs": 12857171,
      "drivingDurationMs": 10972921,
      "idlingDurationMs": 1884250,
      "fuelConsumedMl": 9225,
      "fuelConsumedGallons": 2.437,
      "maxSpeedMph": 54.7,
      "averageSpeedMph": 12.6,
      "safetyEvents": []
    },
    {
      "id": "trip_46232361_20250214_003",
      "vehicleId": "46232361",
      "driverId": "20000018",
      "startMs": 1739519880000,
      "endMs": 1739531187710,
      "startAddress": "9877 Hector Parkway Apt. 645",
      "endAddress": "32318 Tiffany Walk",
      "startCoords": {
        "latitude": 39.806849,
        "longitude": -104.977104
      },
      "endCoords": {
        "latitude": 39.697747,
        "longitude": -105.045447
      },
      "distanceMeters": 52157.1,
      "durationMs": 11307710,
      "drivingDurationMs": 9696029,
      "idlingDurationMs": 1611682,
      "fuelConsumedMl": 6632,
      "fuelConsumedGallons": 1.752,
      "maxSpeedMph": 58.0,
      "averageSpeedMph": 10.3,
      "safetyEvents": []
    },
    {
      "id": "trip_46232361_20250215_001",
      "vehicleId": "46232361",
      "driverId": "20000009",
      "startMs": 1739642880000,
      "endMs": 1739653200000,
      "startAddress": "8657 Trevino Green",
      "endAddress": "608 Danielle Parkway",
      "startCoords": {
        "latitude": 39.781961,
        "longitude": -104.987482
      },
      "endCoords": {
        "latitude": 39.827774,
        "longitude": -104.916854
      },
      "distanceMeters": 48122.6,
      "durationMs": 10320000,
      "drivingDurationMs": 8444481,
      "idlingDurationMs": 1875519,
      "fuelConsumedMl": 6117,
      "fuelConsumedGallons": 1.616,
      "maxSpeedMph": 38.6,
      "averageSpeedMph": 10.4,
      "safetyEvents": []
    },
    {
      "id": "trip_46232361_20250216_001",
      "vehicleId": "46232361",
      "driverId": "20000008",
      "startMs": 1739719140000,
      "endMs": 1739726544039,
      "startAddress": "237 Eduardo Village",
      "endAddress": "2565 Mejia Locks Apt. 827",
      "startCoords": {
        "latitude": 39.748765,
        "longitude": -104.940168
      },
      "endCoords": {
        "latitude": 39.751848,
        "longitude": -105.044941
      },
      "distanceMeters": 42263.4,
      "durationMs": 7404039,
      "drivingDurationMs": 6762628,
      "idlingDurationMs": 641411,
      "fuelConsumedMl": 5375,
      "fuelConsumedGallons": 1.42,
      "maxSpeedMph": 40.0,
      "averageSpeedMph": 12.8,
      "safetyEvents": []
    },
    {
      "id": "trip_46232361_20250217_001",
      "vehicleId": "46232361",
      "driverId": "20000016",
      "startMs": 1739797680000,
      "endMs": 1739810332886,
      "startAddress": "33889 Gomez Crossroad",
      "endAddress": "10054 Nelson Estate Suite 502",
      "startCoords": {
        "latitude": 39.816941,
        "longitude": -105.052235
      },
      "endCoords": {
        "latitude": 39.827149,
        "longitude": -104.990681
      },
      "distanceMeters": 58714.5,
      "durationMs": 12652887,
      "drivingDurationMs": 10500346,
      "idlingDurationMs": 2152540,
      "fuelConsumedMl": 7465,
      "fuelConsumedGallons": 1.972,
      "maxSpeedMph": 31.8,
      "averageSpeedMph": 10.4,
      "safetyEvents": []
    },
    {
      "id": "trip_46232361_20250217_002",
      "vehicleId": "46232361",
      "driverId": "20000016",
      "startMs": 1739783100000,
      "endMs": 1739784746625,
      "startAddress": "075 Cook Ferry Suite 024",
      "endAddress": "092 Cox Fords",
      "startCoords": {
        "latitude": 39.752126,
        "longitude": -104.906331
      },
      "endCoords": {
        "latitude": 39.799396,
        "longitude": -104.937903
      },
      "distanceMeters": 11592.9,
      "durationMs": 1646625,
      "drivingDurationMs": 1332988,
      "idlingDurationMs": 313637,
      "fuelConsumedMl": 1473,
      "fuelConsumedGallons": 0.389,
      "maxSpeedMph": 54.9,
      "averageSpeedMph": 15.7,
      "safetyEvents": []
    },
    {
      "id": "trip_46232361_20250218_001",
      "vehicleId": "46232361",
      "driverId": "20000007",
      "startMs": 1739895060000,
      "endMs": 1739906407961,
      "startAddress": "94993 Jose Ford Apt. 480",
      "endAddress": "1257 Rogers Fall",
      "startCoords": {
        "latitude": 39.752664,
        "longitude": -104.94084
      },
      "endCoords": {
        "latitude": 39.757944,
        "longitude": -105.011019
      },
      "distanceMeters": 78733.6,
      "durationMs": 11347961,
      "drivingDurationMs": 10469909,
      "idlingDurationMs": 878053,
      "fuelConsumedMl": 10009,
      "fuelConsumedGallons": 2.644,
      "maxSpeedMph": 41.2,
      "averageSpeedMph": 15.5,
      "safetyEvents": []
    },
    {
      "id": "trip_46232361_20250218_002",
      "vehicleId": "46232361",
      "driverId": "20000007",
      "startMs": 1739893080000,
      "endMs": 1739904307786,
      "startAddress": "19993 Laura Green Suite 245",
      "endAddress": "7167 Caleb River",
      "startCoords": {
        "latitude": 39.804715,
        "longitude": -104.981964
      },
      "endCoords": {
        "latitude": 39.697531,
        "longitude": -104.984436
      },
      "distanceMeters": 45715.2,
      "durationMs": 11227786,
      "drivingDurationMs": 9103703,
      "idlingDurationMs": 2124083,
      "fuelConsumedMl": 5811,
      "fuelConsumedGallons": 1.535,
      "maxSpeedMph": 34.4,
      "averageSpeedMph": 9.1,
      "safetyEvents": []
    },
    {
      "id": "trip_46232361_20250218_003",
      "vehicleId": "46232361",
      "driverId": "20000007",
      "startMs": 1739883840000,
      "endMs": 1739894891468,
      "startAddress": "014 Gibson Cove",
      "endAddress": "7002 Perez Glen Apt. 033",
      "startCoords": {
        "latitude": 39.730514,
        "longitude": -104.899942
      },
      "endCoords": {
        "latitude": 39.795376,
        "longitude": -105.031606
      },
      "distanceMeters": 83418.1,
      "durationMs": 11051468,
      "drivingDurationMs": 9570732,
      "idlingDurationMs": 1480736,
      "fuelConsumedMl": 10607,
      "fuelConsumedGallons": 2.802,
      "maxSpeedMph": 59.2,
      "averageSpeedMph": 16.9,
      "safetyEvents": []
    },
    {
      "id": "trip_46232361_20250218_004",
      "vehicleId": "46232361",
      "driverId": "20000007",
      "startMs": 1739879280000,
      "endMs": 1739886503956,
      "startAddress": "430 James Greens",
      "endAddress": "9720 Jensen Mall",
      "startCoords": {
        "latitude": 39.740347,
        "longitude": -105.073543
      },
      "endCoords": {
        "latitude": 39.752589,
        "longitude": -104.9566
      },
      "distanceMeters": 47389.8,
      "durationMs": 7223957,
      "drivingDurationMs": 6124015,
      "idlingDurationMs": 1099942,
      "fuelConsumedMl": 6026,
      "fuelConsumedGallons": 1.592,
      "maxSpeedMph": 66.3,
      "averageSpeedMph": 14.7,
      "safetyEvents": [
        {
          "type": "speeding",
          "startMs": 1739883360000,
          "maxSpeedMph": 66.3
        }
      ]
    },
    {
      "id": "trip_46232361_20250218_005",
      "vehicleId": "46232361",
      "driverId": "20000007",
      "startMs": 1739862840000,
      "endMs": 1739864159896,
      "startAddress": "232 Tonya Cove Suite 636",
      "endAddress": "6755 Mccoy Harbors",
      "startCoords": {
        "latitude": 39.810712,
        "longitude": -105.057494
      },
      "endCoords": {
        "latitude": 39.784168,
        "longitude": -104.942829
      },
      "distanceMeters": 7261.6,
      "durationMs": 1319897,
      "drivingDurationMs": 1123708,
      "idlingDurationMs": 196188,
      "fuelConsumedMl": 924,
      "fuelConsumedGallons": 0.244,
      "maxSpeedMph": 35.8,
      "averageSpeedMph": 12.3,
      "safetyEvents": []
    },
    {
      "id": "trip_46232361_20250218_006",
      "vehicleId": "46232361",
      "driverId": "20000007",
      "startMs": 1739893680000,
      "endMs": 1739898673382,
      "startAddress": "4058 Obrien Crescent",
      "endAddress": "29029 Jennifer Roads Apt. 752",
      "startCoords": {
        "latitude": 39.753734,
        "longitude": -104.961343
      },
      "endCoords": {
        "latitude": 39.826633,
        "longitude": -104.977554
      },
      "distanceMeters": 39876.3,
      "durationMs": 4993382,
      "drivingDurationMs": 4769961,
      "idlingDurationMs": 223421,
      "fuelConsumedMl": 5069,
      "fuelConsumedGallons": 1.339,
      "maxSpeedMph": 43.2,
      "averageSpeedMph": 17.9,
      "safetyEvents": []
    },
    {
      "id": "trip_46232361_20250219_001",
      "vehicleId": "46232361",
      "driverId": null,
      "startMs": 1739969160000,
      "endMs": 1739978640528,
      "startAddress": "95261 Kelly Brook",
      "endAddress": "7422 Garrett Parkway Suite 646",
      "startCoords": {
        "latitude": 39.79841,
        "longitude": -104.984634
      },
      "endCoords": {
        "latitude": 39.768645,
        "longitude": -104.902701
      },
      "distanceMeters": 44149.2,
      "durationMs": 9480529,
      "drivingDurationMs": 8017930,
      "idlingDurationMs": 1462599,
      "fuelConsumedMl": 5614,
      "fuelConsumedGallons": 1.483,
      "maxSpeedMph": 38.8,
      "averageSpeedMph": 10.4,
      "safetyEvents": []
    },
    {
      "id": "trip_46232361_20250219_002",
      "vehicleId": "46232361",
      "driverId": "20000003",
      "startMs": 1739970720000,
      "endMs": 1739978411641,
      "startAddress": "4438 Mcbride Fields",
      "endAddress": "1413 Young Spurs",
      "startCoords": {
        "latitude": 39.730526,
        "longitude": -105.062568
      },
      "endCoords": {
        "latitude": 39.792163,
        "longitude": -105.01571
      },
      "distanceMeters": 38991.9,
      "durationMs": 7691641,
      "drivingDurationMs": 6575550,
      "idlingDurationMs": 1116091,
      "fuelConsumedMl": 4959,
      "fuelConsumedGallons": 1.31,
      "maxSpeedMph": 48.1,
      "averageSpeedMph": 11.3,
      "safetyEvents": []
    },
    {
      "id": "trip_46232361_20250219_003",
      "vehicleId": "46232361",
      "driverId": "20000003",
      "startMs": 1739975820000,
      "endMs": 1739987533097,
      "startAddress": "525 Soto Roads Apt. 365",
      "endAddress": "6547 Savage Harbor",
      "startCoords": {
        "latitude": 39.695708,
        "longitude": -105.045061
      },
      "endCoords": {
        "latitude": 39.794242,
        "longitude": -104.981115
      },
      "distanceMeters": 68737.8,
      "durationMs": 11713098,
      "drivingDurationMs": 9932078,
      "idlingDurationMs": 1781020,
      "fuelConsumedMl": 8741,
      "fuelConsumedGallons": 2.309,
      "maxSpeedMph": 31.2,
      "averageSpeedMph": 13.1,
      "safetyEvents": []
    },
    {
      "id": "trip_46232361_20250220_001",
      "vehicleId": "46232361",
      "driverId": null,
      "startMs": 1740045420000,
      "endMs": 1740046703589,
      "startAddress": "497 Evans Common",
      "endAddress": "07092 Joseph Grove",
      "startCoords": {
        "latitude": 39.754392,
        "longitude": -105.053078
      },
      "endCoords": {
        "latitude": 39.781291,
        "longitude": -105.030907
      },
      "distanceMeters": 5543.6,
      "durationMs": 1283589,
      "drivingDurationMs": 1039458,
      "idlingDurationMs": 244131,
      "fuelConsumedMl": 704,
      "fuelConsumedGallons": 0.186,
      "maxSpeedMph": 35.7,
      "averageSpeedMph": 9.7,
      "safetyEvents": []
    },
    {
      "id": "trip_46232361_20250220_002",
      "vehicleId": "46232361",
      "driverId": "20000012",
      "startMs": 1740054300000,
      "endMs": 1740057733122,
      "startAddress": "0003 Rasmussen Harbors",
      "endAddress": "1920 Simmons Forge",
      "startCoords": {
        "latitude": 39.732,
        "longitude": -104.908843
      },
      "endCoords": {
        "latitude": 39.796589,
        "longitude": -105.057459
      },
      "distanceMeters": 17428.9,
      "durationMs": 3433123,
      "drivingDurationMs": 2950926,
      "idlingDurationMs": 482197,
      "fuelConsumedMl": 2214,
      "fuelConsumedGallons": 0.585,
      "maxSpeedMph": 45.1,
      "averageSpeedMph": 11.4,
      "safetyEvents": []
    },
    {
      "id": "trip_46232361_20250221_001",
      "vehicleId": "46232361",
      "driverId": "20000014",
      "startMs": 1740144000000,
      "endMs": 1740152998696,
      "startAddress": "18068 Foster Center",
      "endAddress": "08508 Gutierrez Path Apt. 165",
      "startCoords": {
        "latitude": 39.68416,
        "longitude": -105.015076
      },
      "endCoords": {
        "latitude": 39.786046,
        "longitude": -105.050841
      },
      "distanceMeters": 60853.5,
      "durationMs": 8998696,
      "drivingDurationMs": 8132104,
      "idlingDurationMs": 866593,
      "fuelConsumedMl": 7737,
      "fuelConsumedGallons": 2.044,
      "maxSpeedMph": 33.7,
      "averageSpeedMph": 15.1,
      "safetyEvents": []
    },
    {
      "id": "trip_46232361_20250221_002",
      "vehicleId": "46232361",
      "driverId": "20000014",
      "startMs": 1740125880000,
      "endMs": 1740129912648,
      "startAddress": "74180 Katherine Fork Apt. 723",
      "endAddress": "026 Brittany Shore Apt. 348",
      "startCoords": {
        "latitude": 39.806647,
        "longitude": -104.999005
      },
      "endCoords": {
        "latitude": 39.817874,
        "longitude": -104.921948
      },
      "distanceMeters": 21243.2,
      "durationMs": 4032649,
      "drivingDurationMs": 3530856,
      "idlingDurationMs": 501793,
      "fuelConsumedMl": 2703,
      "fuelConsumedGallons": 0.714,
      "maxSpeedMph": 32.2,
      "averageSpeedMph": 11.8,
      "safetyEvents": []
    },
    {
      "id": "trip_46232361_20250221_003",
      "vehicleId": "46232361",
      "driverId": "20000014",
      "startMs": 1740161700000,
      "endMs": 1740171539260,
      "startAddress": "4874 Jessica Bridge",
      "endAddress": "9426 Mary Centers",
      "startCoords": {
        "latitude": 39.815129,
        "longitude": -105.029239
      },
      "endCoords": {
        "latitude": 39.823952,
        "longitude": -105.049068
      },
      "distanceMeters": 50948.2,
      "durationMs": 9839261,
      "drivingDurationMs": 8019335,
      "idlingDurationMs": 1819925,
      "fuelConsumedMl": 6477,
      "fuelConsumedGallons": 1.711,
      "maxSpeedMph": 50.1,
      "averageSpeedMph": 11.6,
      "safetyEvents": []
    },
    {
      "id": "trip_46232361_20250221_004",
      "vehicleId": "46232361",
      "driverId": "20000014",
      "startMs": 1740140880000,
      "endMs": 1740152406962,
      "startAddress": "2950 Garcia Divide",
      "endAddress": "534 William Inlet",
      "startCoords": {
        "latitude": 39.705213,
        "longitude": -105.049242
      },
      "endCoords": {
        "latitude": 39.720021,
        "longitude": -104.922871
      },
      "distanceMeters": 50859.2,
      "durationMs": 11526962,
      "drivingDurationMs": 10100890,
      "idlingDurationMs": 1426073,
      "fuelConsumedMl": 6465,
      "fuelConsumedGallons": 1.708,
      "maxSpeedMph": 32.4,
      "averageSpeedMph": 9.9,
      "safetyEvents": []
    },
    {
      "id": "trip_46232361_20250222_001",
      "vehicleId": "46232361",
      "driverId": "20000008",
      "startMs": 1740232380000,
      "endMs": 1740243737873,
      "startAddress": "7937 Jeffrey Motorway Apt. 132",
      "endAddress": "720 Charles Mountains",
      "startCoords": {
        "latitude": 39.733201,
        "longitude": -104.972224
      },
      "endCoords": {
        "latitude": 39.761158,
        "longitude": -105.041742
      },
      "distanceMeters": 61750.4,
      "durationMs": 11357873,
      "drivingDurationMs": 9212032,
      "idlingDurationMs": 2145841,
      "fuelConsumedMl": 7851,
      "fuelConsumedGallons": 2.074,
      "maxSpeedMph": 37.6,
      "averageSpeedMph": 12.2,
      "safetyEvents": []
    },
    {
      "id": "trip_46232361_20250223_001",
      "vehicleId": "46232361",
      "driverId": "20000007",
      "startMs": 1740290760000,
      "endMs": 1740291631657,
      "startAddress": "88887 Jennifer Cove Apt. 830",
      "endAddress": "97903 Molly Row",
      "startCoords": {
        "latitude": 39.76178,
        "longitude": -104.961987
      },
      "endCoords": {
        "latitude": 39.691688,
        "longitude": -105.043276
      },
      "distanceMeters": 5676.1,
      "durationMs": 871658,
      "drivingDurationMs": 693160,
      "idlingDurationMs": 178498,
      "fuelConsumedMl": 723,
      "fuelConsumedGallons": 0.191,
      "maxSpeedMph": 71.4,
      "averageSpeedMph": 14.6,
      "safetyEvents": [
        {
          "type": "speeding",
          "startMs": 1740291060000,
          "maxSpeedMph": 71.4
        }
      ]
    },
    {
      "id": "trip_46232361_20250224_001",
      "vehicleId": "46232361",
      "driverId": "20000005",
      "startMs": 1740391440000,
      "endMs": 1740401500028,
      "startAddress": "6676 Bullock Squares Suite 988",
      "endAddress": "471 Kelly Terrace Apt. 277",
      "startCoords": {
        "latitude": 39.731621,
        "longitude": -104.97692
      },
      "endCoords": {
        "latitude": 39.690439,
        "longitude": -105.076174
      },
      "distanceMeters": 56590.5,
      "durationMs": 10060029,
      "drivingDurationMs": 8424907,
      "idlingDurationMs": 1635121,
      "fuelConsumedMl": 7196,
      "fuelConsumedGallons": 1.901,
      "maxSpeedMph": 41.6,
      "averageSpeedMph": 12.6,
      "safetyEvents": []
    },
    {
      "id": "trip_46232361_20250224_002",
      "vehicleId": "46232361",
      "driverId": "20000005",
      "startMs": 1740383640000,
      "endMs": 1740395757479,
      "startAddress": "7377 Matthew Green Apt. 974",
      "endAddress": "590 Jackson Trace Suite 014",
      "startCoords": {
        "latitude": 39.683825,
        "longitude": -104.957348
      },
      "endCoords": {
        "latitude": 39.796791,
        "longitude": -105.001419
      },
      "distanceMeters": 54923.6,
      "durationMs": 12117480,
      "drivingDurationMs": 9704875,
      "idlingDurationMs": 2412604,
      "fuelConsumedMl": 6984,
      "fuelConsumedGallons": 1.845,
      "maxSpeedMph": 51.8,
      "averageSpeedMph": 10.1,
      "safetyEvents": []
    },
    {
      "id": "trip_46232361_20250225_001",
      "vehicleId": "46232361",
      "driverId": "20000012",
      "startMs": 1740504240000,
      "endMs": 1740512696422,
      "startAddress": "662 Wood Springs Apt. 448",
      "endAddress": "64414 Peterson Alley Suite 062",
      "startCoords": {
        "latitude": 39.778425,
        "longitude": -104.958302
      },
      "endCoords": {
        "latitude": 39.729702,
        "longitude": -104.90639
      },
      "distanceMeters": 49145.4,
      "durationMs": 8456422,
      "drivingDurationMs": 7114568,
      "idlingDurationMs": 1341854,
      "fuelConsumedMl": 6250,
      "fuelConsumedGallons": 1.651,
      "maxSpeedMph": 71.5,
      "averageSpeedMph": 13.0,
      "safetyEvents": [
        {
          "type": "speeding",
          "startMs": 1740508680000,
          "maxSpeedMph": 71.5
        }
      ]
    },
    {
      "id": "trip_46232361_20250225_002",
      "vehicleId": "46232361",
      "driverId": "20000012",
      "startMs": 1740490320000,
      "endMs": 1740498327250,
      "startAddress": "1430 Lori Courts",
      "endAddress": "4849 Jared Springs Suite 818",
      "startCoords": {
        "latitude": 39.771535,
        "longitude": -104.993128
      },
      "endCoords": {
        "latitude": 39.803778,
        "longitude": -104.96446
      },
      "distanceMeters": 51495.8,
      "durationMs": 8007250,
      "drivingDurationMs": 6921082,
      "idlingDurationMs": 1086168,
      "fuelConsumedMl": 6549,
      "fuelConsumedGallons": 1.73,
      "maxSpeedMph": 50.0,
      "averageSpeedMph": 14.4,
      "safetyEvents": []
    },
    {
      "id": "trip_46232361_20250225_003",
      "vehicleId": "46232361",
      "driverId": "20000012",
      "startMs": 1740475980000,
      "endMs": 1740482212692,
      "startAddress": "831 Todd Harbors",
      "endAddress": "19358 Kane Rapids",
      "startCoords": {
        "latitude": 39.685603,
        "longitude": -104.961984
      },
      "endCoords": {
        "latitude": 39.749059,
        "longitude": -104.966864
      },
      "distanceMeters": 42911.3,
      "durationMs": 6232692,
      "drivingDurationMs": 5059477,
      "idlingDurationMs": 1173215,
      "fuelConsumedMl": 5455,
      "fuelConsumedGallons": 1.441,
      "maxSpeedMph": 28.3,
      "averageSpeedMph": 15.4,
      "safetyEvents": []
    },
    {
      "id": "trip_46232361_20250225_004",
      "vehicleId": "46232361",
      "driverId": null,
      "startMs": 1740491880000,
      "endMs": 1740503670348,
      "startAddress": "534 Cooper Gardens",
      "endAddress": "4226 Floyd Ranch",
      "startCoords": {
        "latitude": 39.699028,
        "longitude": -104.936753
      },
      "endCoords": {
        "latitude": 39.806323,
        "longitude": -105.063518
      },
      "distanceMeters": 51844.6,
      "durationMs": 11790348,
      "drivingDurationMs": 10270382,
      "idlingDurationMs": 1519966,
      "fuelConsumedMl": 6590,
      "fuelConsumedGallons": 1.741,
      "maxSpeedMph": 57.1,
      "averageSpeedMph": 9.8,
      "safetyEvents": []
    },
    {
      "id": "trip_46232361_20250226_001",
      "vehicleId": "46232361",
      "driverId": "20000010",
      "startMs": 1740595560000,
      "endMs": 1740603600000,
      "startAddress": "5994 Corey Passage Suite 803",
      "endAddress": "3965 Walsh Extension",
      "startCoords": {
        "latitude": 39.719108,
        "longitude": -104.90307
      },
      "endCoords": {
        "latitude": 39.788662,
        "longitude": -104.958095
      },
      "distanceMeters": 38819.5,
      "durationMs": 8040000,
      "drivingDurationMs": 7470530,
      "idlingDurationMs": 569470,
      "fuelConsumedMl": 4936,
      "fuelConsumedGallons": 1.304,
      "maxSpeedMph": 63.8,
      "averageSpeedMph": 10.8,
      "safetyEvents": []
    },
    {
      "id": "trip_46232361_20250226_002",
      "vehicleId": "46232361",
      "driverId": "20000010",
      "startMs": 1740560520000,
      "endMs": 1740567500962,
      "startAddress": "13227 Carolyn Light",
      "endAddress": "9910 Gabrielle Alley",
      "startCoords": {
        "latitude": 39.816515,
        "longitude": -104.926108
      },
      "endCoords": {
        "latitude": 39.697648,
        "longitude": -104.995356
      },
      "distanceMeters": 39631.0,
      "durationMs": 6980963,
      "drivingDurationMs": 6151816,
      "idlingDurationMs": 829147,
      "fuelConsumedMl": 5038,
      "fuelConsumedGallons": 1.331,
      "maxSpeedMph": 48.2,
      "averageSpeedMph": 12.7,
      "safetyEvents": []
    },
    {
      "id": "trip_46232361_20250226_003",
      "vehicleId": "46232361",
      "driverId": "20000010",
      "startMs": 1740596280000,
      "endMs": 1740603600000,
      "startAddress": "6117 Thompson Mountains Apt. 665",
      "endAddress": "6218 Walker Street",
      "startCoords": {
        "latitude": 39.757541,
        "longitude": -105.075421
      },
      "endCoords": {
        "latitude": 39.72093,
        "longitude": -104.939828
      },
      "distanceMeters": 34296.1,
      "durationMs": 7320000,
      "drivingDurationMs": 5856000,
      "idlingDurationMs": 1464000,
      "fuelConsumedMl": 4361,
      "fuelConsumedGallons": 1.152,
      "maxSpeedMph": 41.3,
      "averageSpeedMph": 10.5,
      "safetyEvents": []
    },
    {
      "id": "trip_46232361_20250226_004",
      "vehicleId": "46232361",
      "driverId": "20000010",
      "startMs": 1740594960000,
      "endMs": 1740603600000,
      "startAddress": "09222 Garrett Run Apt. 204",
      "endAddress": "06667 Lisa Landing",
      "startCoords": {
        "latitude": 39.703034,
        "longitude": -105.076085
      },
      "endCoords": {
        "latitude": 39.719548,
        "longitude": -105.069089
      },
      "distanceMeters": 41682.6,
      "durationMs": 8640000,
      "drivingDurationMs": 6912000,
      "idlingDurationMs": 1728000,
      "fuelConsumedMl": 5300,
      "fuelConsumedGallons": 1.4,
      "maxSpeedMph": 42.0,
      "averageSpeedMph": 10.8,
      "safetyEvents": []
    },
    {
      "id": "trip_46232361_20250227_001",
      "vehicleId": "46232361",
      "driverId": "20000001",
      "startMs": 1740665580000,
      "endMs": 1740670655590,
      "startAddress": "05790 Hall Ridge Suite 903",
      "endAddress": "7130 Holmes Fort",
      "startCoords": {
        "latitude": 39.798345,
        "longitude": -105.040881
      },
      "endCoords": {
        "latitude": 39.750101,
        "longitude": -105.058019
      },
      "distanceMeters": 35184.8,
      "durationMs": 5075591,
      "drivingDurationMs": 4439342,
      "idlingDurationMs": 636248,
      "fuelConsumedMl": 4474,
      "fuelConsumedGallons": 1.182,
      "maxSpeedMph": 41.0,
      "averageSpeedMph": 15.5,
      "safetyEvents": []
    },
    {
      "id": "trip_46232361_20250227_002",
      "vehicleId": "46232361",
      "driverId": "20000001",
      "startMs": 1740663540000,
      "endMs": 1740671780696,
      "startAddress": "892 Teresa Points Suite 869",
      "endAddress": "447 Charles Cape Suite 756",
      "startCoords": {
        "latitude": 39.782756,
        "longitude": -104.91688
      },
      "endCoords": {
        "latitude": 39.820428,
        "longitude": -105.056062
      },
      "distanceMeters": 62645.9,
      "durationMs": 8240696,
      "drivingDurationMs": 7454287,
      "idlingDurationMs": 786409,
      "fuelConsumedMl": 7965,
      "fuelConsumedGallons": 2.104,
      "maxSpeedMph": 65.3,
      "averageSpeedMph": 17.0,
      "safetyEvents": [
        {
          "type": "speeding",
          "startMs": 1740665040000,
          "maxSpeedMph": 65.3
        }
      ]
    },
    {
      "id": "trip_46232361_20250227_003",
      "vehicleId": "46232361",
      "driverId": "20000001",
      "startMs": 1740669420000,
      "endMs": 1740683610406,
      "startAddress": "1350 Jennifer Loop",
      "endAddress": "7512 Parker Shores Apt. 069",
      "startCoords": {
        "latitude": 39.799452,
        "longitude": -104.943279
      },
      "endCoords": {
        "latitude": 39.737911,
        "longitude": -105.0411
      },
      "distanceMeters": 84396.6,
      "durationMs": 14190407,
      "drivingDurationMs": 11588484,
      "idlingDurationMs": 2601922,
      "fuelConsumedMl": 10732,
      "fuelConsumedGallons": 2.835,
      "maxSpeedMph": 48.7,
      "averageSpeedMph": 13.3,
      "safetyEvents": []
    },
    {
      "id": "trip_46232361_20250227_004",
      "vehicleId": "46232361",
      "driverId": "20000001",
      "startMs": 1740637740000,
      "endMs": 1740648726937,
      "startAddress": "048 Taylor Loop Apt. 242",
      "endAddress": "7671 Miranda Course",
      "startCoords": {
        "latitude": 39.698467,
        "longitude": -104.992359
      },
      "endCoords": {
        "latitude": 39.68586,
        "longitude": -104.940835
      },
      "distanceMeters": 62289.7,
      "durationMs": 10986937,
      "drivingDurationMs": 10636891,
      "idlingDurationMs": 350046,
      "fuelConsumedMl": 7919,
      "fuelConsumedGallons": 2.092,
      "maxSpeedMph": 29.1,
      "averageSpeedMph": 12.7,
      "safetyEvents": []
    },
    {
      "id": "trip_46232361_20250227_005",
      "vehicleId": "46232361",
      "driverId": "20000001",
      "startMs": 1740638040000,
      "endMs": 1740647233557,
      "startAddress": "386 Malone Cliff Suite 752",
      "endAddress": "59658 Lynn Bypass",
      "startCoords": {
        "latitude": 39.762762,
        "longitude": -105.072111
      },
      "endCoords": {
        "latitude": 39.751237,
        "longitude": -104.937816
      },
      "distanceMeters": 52082.3,
      "durationMs": 9193558,
      "drivingDurationMs": 8709376,
      "idlingDurationMs": 484182,
      "fuelConsumedMl": 6621,
      "fuelConsumedGallons": 1.749,
      "maxSpeedMph": 64.4,
      "averageSpeedMph": 12.7,
      "safetyEvents": []
    },
    {
      "id": "trip_46232361_20250227_006",
      "vehicleId": "46232361",
      "driverId": "20000001",
      "startMs": 1740661440000,
      "endMs": 1740670002142,
      "startAddress": "645 Brenda Street Suite 436",
      "endAddress": "7841 Steven Rapids",
      "startCoords": {
        "latitude": 39.717831,
        "longitude": -105.068278
      },
      "endCoords": {
        "latitude": 39.757996,
        "longitude": -104.989881
      },
      "distanceMeters": 61085.1,
      "durationMs": 8562143,
      "drivingDurationMs": 7242092,
      "idlingDurationMs": 1320050,
      "fuelConsumedMl": 7768,
      "fuelConsumedGallons": 2.052,
      "maxSpeedMph": 36.1,
      "averageSpeedMph": 16.0,
      "safetyEvents": []
    },
    {
      "id": "trip_46232361_20250228_001",
      "vehicleId": "46232361",
      "driverId": "20000022",
      "startMs": 1740724740000,
      "endMs": 1740735165646,
      "startAddress": "89361 Owen Highway",
      "endAddress": "90768 Mills Parkway Suite 003",
      "startCoords": {
        "latitude": 39.778089,
        "longitude": -104.963402
      },
      "endCoords": {
        "latitude": 39.728732,
        "longitude": -104.96711
      },
      "distanceMeters": 67602.9,
      "durationMs": 10425646,
      "drivingDurationMs": 8986462,
      "idlingDurationMs": 1439184,
      "fuelConsumedMl": 8597,
      "fuelConsumedGallons": 2.271,
      "maxSpeedMph": 41.7,
      "averageSpeedMph": 14.5,
      "safetyEvents": []
    },
    {
      "id": "trip_46232361_20250228_002",
      "vehicleId": "46232361",
      "driverId": "20000022",
      "startMs": 1740759240000,
      "endMs": 1740765291885,
      "startAddress": "2176 Rodgers Common Suite 017",
      "endAddress": "69904 Robert Inlet Apt. 481",
      "startCoords": {
        "latitude": 39.777341,
        "longitude": -104.932053
      },
      "endCoords": {
        "latitude": 39.708784,
        "longitude": -105.072802
      },
      "distanceMeters": 49537.7,
      "durationMs": 6051885,
      "drivingDurationMs": 5808221,
      "idlingDurationMs": 243664,
      "fuelConsumedMl": 6299,
      "fuelConsumedGallons": 1.664,
      "maxSpeedMph": 37.8,
      "averageSpeedMph": 18.3,
      "safetyEvents": []
    },
    {
      "id": "trip_46232361_20250228_003",
      "vehicleId": "46232361",
      "driverId": "20000022",
      "startMs": 1740755160000,
      "endMs": 1740760868049,
      "startAddress": "090 Cervantes Via Suite 795",
      "endAddress": "34721 Jordan Locks",
      "startCoords": {
        "latitude": 39.793846,
        "longitude": -105.063134
      },
      "endCoords": {
        "latitude": 39.723561,
        "longitude": -104.989608
      },
      "distanceMeters": 43805.7,
      "durationMs": 5708049,
      "drivingDurationMs": 5231418,
      "idlingDurationMs": 476631,
      "fuelConsumedMl": 5568,
      "fuelConsumedGallons": 1.471,
      "maxSpeedMph": 38.3,
      "averageSpeedMph": 17.2,
      "safetyEvents": []
    },
    {
      "id": "trip_46232361_20250228_004",
      "vehicleId": "46232361",
      "driverId": "20000022",
      "startMs": 1740736620000,
      "endMs": 1740746734425,
      "startAddress": "89369 Melvin Station",
      "endAddress": "6897 Donna Square Suite 668",
      "startCoords": {
        "latitude": 39.787775,
        "longitude": -104.98542
      },
      "endCoords": {
        "latitude": 39.743481,
        "longitude": -104.937422
      },
      "distanceMeters": 47207.1,
      "durationMs": 10114425,
      "drivingDurationMs": 8429246,
      "idlingDurationMs": 1685179,
      "fuelConsumedMl": 6004,
      "fuelConsumedGallons": 1.586,
      "maxSpeedMph": 37.8,
      "averageSpeedMph": 10.4,
      "safetyEvents": []
    }
  ]
}