{
  "vehicleId": "49375627",
  "vehicleName": "DEN-MOTO-06",
  "month": "2025_02",
  "pagination": {
    "endCursor": "trip_49375627_20250228_8132",
    "hasNextPage": false
  },
  "trips": [
    {
      "id": "trip_49375627_20250201_4248",
      "vehicleId": "49375627",
      "driverId": "20000008",
      "startMs": 1738372264000,
      "endMs": 1738373944000,
      "startAddress": "82360 Wendy Extension Apt. 391",
      "endAddress": "77028 Scott Plaza Apt. 823",
      "startCoords": {
        "latitude": 39.809983,
        "longitude": -104.906911
      },
      "endCoords": {
        "latitude": 39.791122,
        "longitude": -105.031026
      },
      "distanceMeters": 11443.4,
      "durationMs": 1680000,
      "drivingDurationMs": 1306230,
      "idlingDurationMs": 373770,
      "fuelConsumedMl": 519,
      "fuelConsumedGallons": 0.137,
      "maxSpeedMph": 38.4,
      "averageSpeedMph": 15.2,
      "safetyEvents": []
    },
    {
      "id": "trip_49375627_20250201_4276",
      "vehicleId": "49375627",
      "driverId": "20000014",
      "startMs": 1738394402000,
      "endMs": 1738396142000,
      "startAddress": "53883 Blake Springs",
      "endAddress": "789 Rodriguez Throughway Suite 797",
      "startCoords": {
        "latitude": 39.745354,
        "longitude": -105.003369
      },
      "endCoords": {
        "latitude": 39.720971,
        "longitude": -105.01756
      },
      "distanceMeters": 10188.0,
      "durationMs": 1740000,
      "drivingDurationMs": 1344688,
      "idlingDurationMs": 395312,
      "fuelConsumedMl": 462,
      "fuelConsumedGallons": 0.122,
      "maxSpeedMph": 39.4,
      "averageSpeedMph": 13.1,
      "safetyEvents": []
    },
    {
      "id": "trip_49375627_20250201_4303",
      "vehicleId": "49375627",
      "driverId": "20000003",
      "startMs": 1738408285000,
      "endMs": 1738410196000,
      "startAddress": "587 Gibson Trace",
      "endAddress": "24043 Lopez Pines Apt. 351",
      "startCoords": {
        "latitude": 39.775452,
        "longitude": -104.93127
      },
      "endCoords": {
        "latitude": 39.767228,
        "longitude": -104.966393
      },
      "distanceMeters": 12754.6,
      "durationMs": 1911000,
      "drivingDurationMs": 1648185,
      "idlingDurationMs": 262815,
      "fuelConsumedMl": 575,
      "fuelConsumedGallons": 0.152,
      "maxSpeedMph": 35.4,
      "averageSpeedMph": 14.9,
      "safetyEvents": []
    },
    {
      "id": "trip_49375627_20250201_4331",
      "vehicleId": "49375627",
      "driverId": "20000006",
      "startMs": 1738423265000,
      "endMs": 1738425485000,
      "startAddress": "09898 Hannah Rest",
      "endAddress": "395 Stephen Streets Suite 741",
      "startCoords": {
        "latitude": 39.769851,
        "longitude": -105.062276
      },
      "endCoords": {
        "latitude": 39.761397,
        "longitude": -104.929463
      },
      "distanceMeters": 12046.5,
      "durationMs": 2220000,
      "drivingDurationMs": 1678586,
      "idlingDurationMs": 541414,
      "fuelConsumedMl": 545,
      "fuelConsumedGallons": 0.144,
      "maxSpeedMph": 39.3,
      "averageSpeedMph": 12.1,
      "safetyEvents": []
    },
    {
      "id": "trip_49375627_20250201_4361",
      "vehicleId": "49375627",
      "driverId": "20000011",
      "startMs": 1738440756000,
      "endMs": 1738442556000,
      "startAddress": "2308 Angela Stravenue",
      "endAddress": "60346 Sharon Way Apt. 789",
      "startCoords": {
        "latitude": 39.696184,
        "longitude": -105.084329
      },
      "endCoords": {
        "latitude": 39.772855,
        "longitude": -104.988802
      },
      "distanceMeters": 13909.0,
      "durationMs": 1800000,
      "drivingDurationMs": 1464978,
      "idlingDurationMs": 335022,
      "fuelConsumedMl": 628,
      "fuelConsumedGallons": 0.166,
      "maxSpeedMph": 46.6,
      "averageSpeedMph": 17.3,
      "safetyEvents": []
    },
    {
      "id": "trip_49375627_20250202_4388",
      "vehicleId": "49375627",
      "driverId": "20000007",
      "startMs": 1738459169000,
      "endMs": 1738460789000,
      "startAddress": "3904 Seth Fall Suite 336",
      "endAddress": "0630 Michael Via",
      "startCoords": {
        "latitude": 39.713788,
        "longitude": -105.065328
      },
      "endCoords": {
        "latitude": 39.802549,
        "longitude": -105.06847
      },
      "distanceMeters": 10828.6,
      "durationMs": 1620000,
      "drivingDurationMs": 1394493,
      "idlingDurationMs": 225507,
      "fuelConsumedMl": 488,
      "fuelConsumedGallons": 0.129,
      "maxSpeedMph": 34.7,
      "averageSpeedMph": 15.0,
      "safetyEvents": []
    },
    {
      "id": "trip_49375627_20250202_4412",
      "vehicleId": "49375627",
      "driverId": "20000010",
      "startMs": 1738482596000,
      "endMs": 1738487900000,
      "startAddress": "90054 Bryan Viaduct Suite 040",
      "endAddress": "222 Williams Shoals Suite 660",
      "startCoords": {
        "latitude": 39.70152,
        "longitude": -105.015394
      },
      "endCoords": {
        "latitude": 39.693938,
        "longitude": -104.987107
      },
      "distanceMeters": 37250.1,
      "durationMs": 5304000,
      "drivingDurationMs": 4645240,
      "idlingDurationMs": 658760,
      "fuelConsumedMl": 1685,
      "fuelConsumedGallons": 0.445,
      "maxSpeedMph": 32.7,
      "averageSpeedMph": 15.7,
      "safetyEvents": []
    },
    {
      "id": "trip_49375627_20250202_4435",
      "vehicleId": "49375627",
      "driverId": "20000003",
      "startMs": 1738500894000,
      "endMs": 1738513604000,
      "startAddress": "8108 John Landing Suite 541",
      "endAddress": "31699 Forbes Club",
      "startCoords": {
        "latitude": 39.811318,
        "longitude": -104.903598
      },
      "endCoords": {
        "latitude": 39.687935,
        "longitude": -105.084628
      },
      "distanceMeters": 81414.9,
      "durationMs": 12710000,
      "drivingDurationMs": 11256938,
      "idlingDurationMs": 1453062,
      "fuelConsumedMl": 3683,
      "fuelConsumedGallons": 0.973,
      "maxSpeedMph": 41.5,
      "averageSpeedMph": 14.3,
      "safetyEvents": []
    },
    {
      "id": "trip_49375627_20250202_4460",
      "vehicleId": "49375627",
      "driverId": "20000020",
      "startMs": 1738520813000,
      "endMs": 1738523093000,
      "startAddress": "6746 Jackson Square Apt. 356",
      "endAddress": "94469 Stephens Land Suite 004",
      "startCoords": {
        "latitude": 39.747417,
        "longitude": -105.086866
      },
      "endCoords": {
        "latitude": 39.684608,
        "longitude": -105.056308
      },
      "distanceMeters": 16152.0,
      "durationMs": 2280000,
      "drivingDurationMs": 1910221,
      "idlingDurationMs": 369779,
      "fuelConsumedMl": 731,
      "fuelConsumedGallons": 0.193,
      "maxSpeedMph": 35.3,
      "averageSpeedMph": 15.8,
      "safetyEvents": []
    },
    {
      "id": "trip_49375627_20250203_4496",
      "vehicleId": "49375627",
      "driverId": "20000015",
      "startMs": 1738564772000,
      "endMs": 1738566512000,
      "startAddress": "3134 Obrien Coves",
      "endAddress": "28717 William Loaf",
      "startCoords": {
        "latitude": 39.809416,
        "longitude": -105.052086
      },
      "endCoords": {
        "latitude": 39.800827,
        "longitude": -104.925263
      },
      "distanceMeters": 11414.1,
      "durationMs": 1740000,
      "drivingDurationMs": 1479617,
      "idlingDurationMs": 260383,
      "fuelConsumedMl": 515,
      "fuelConsumedGallons": 0.136,
      "maxSpeedMph": 43.5,
      "averageSpeedMph": 14.7,
      "safetyEvents": []
    },
    {
      "id": "trip_49375627_20250203_4525",
      "vehicleId": "49375627",
      "driverId": "20000021",
      "startMs": 1738583700000,
      "endMs": 1738586950000,
      "startAddress": "509 Anderson Coves Suite 921",
      "endAddress": "6797 Miller Orchard Suite 930",
      "startCoords": {
        "latitude": 39.689644,
        "longitude": -105.003918
      },
      "endCoords": {
        "latitude": 39.818053,
        "longitude": -104.901453
      },
      "distanceMeters": 20503.6,
      "durationMs": 3250000,
      "drivingDurationMs": 2588843,
      "idlingDurationMs": 661157,
      "fuelConsumedMl": 927,
      "fuelConsumedGallons": 0.245,
      "maxSpeedMph": 40.3,
      "averageSpeedMph": 14.1,
      "safetyEvents": []
    },
    {
      "id": "trip_49375627_20250203_4552",
      "vehicleId": "49375627",
      "driverId": "20000021",
      "startMs": 1738596747000,
      "endMs": 1738602602000,
      "startAddress": "1495 Taylor Route Apt. 816",
      "endAddress": "596 Mark Lights",
      "startCoords": {
        "latitude": 39.792108,
        "longitude": -104.999048
      },
      "endCoords": {
        "latitude": 39.797949,
        "longitude": -105.079609
      },
      "distanceMeters": 51585.2,
      "durationMs": 5855000,
      "drivingDurationMs": 5221729,
      "idlingDurationMs": 633271,
      "fuelConsumedMl": 2332,
      "fuelConsumedGallons": 0.616,
      "maxSpeedMph": 33.1,
      "averageSpeedMph": 19.7,
      "safetyEvents": []
    },
    {
      "id": "trip_49375627_20250203_4580",
      "vehicleId": "49375627",
      "driverId": "20000011",
      "startMs": 1738609346000,
      "endMs": 1738616881000,
      "startAddress": "467 Welch Squares Suite 268",
      "endAddress": "268 Lisa Island",
      "startCoords": {
        "latitude": 39.694926,
        "longitude": -105.038375
      },
      "endCoords": {
        "latitude": 39.76059,
        "longitude": -104.909711
      },
      "distanceMeters": 57274.9,
      "durationMs": 7535000,
      "drivingDurationMs": 6662265,
      "idlingDurationMs": 872735,
      "fuelConsumedMl": 2589,
      "fuelConsumedGallons": 0.684,
      "maxSpeedMph": 33.5,
      "averageSpeedMph": 17.0,
      "safetyEvents": []
    },
    {
      "id": "trip_49375627_20250203_4610",
      "vehicleId": "49375627",
      "driverId": "20000013",
      "startMs": 1738626415000,
      "endMs": 1738636596000,
      "startAddress": "4132 Justin Meadow",
      "endAddress": "7818 Harris Rapids",
      "startCoords": {
        "latitude": 39.767516,
        "longitude": -104.968363
      },
      "endCoords": {
        "latitude": 39.812247,
        "longitude": -105.058517
      },
      "distanceMeters": 59158.6,
      "durationMs": 10181000,
      "drivingDurationMs": 8209008,
      "idlingDurationMs": 1971992,
      "fuelConsumedMl": 2676,
      "fuelConsumedGallons": 0.707,
      "maxSpeedMph": 31.3,
      "averageSpeedMph": 13.0,
      "safetyEvents": []
    },
    {
      "id": "trip_49375627_20250204_4638",
      "vehicleId": "49375627",
      "driverId": "20000015",
      "startMs": 1738642365000,
      "endMs": 1738647112000,
      "startAddress": "84007 Robert Shores",
      "endAddress": "32419 Brian Center",
      "startCoords": {
        "latitude": 39.79516,
        "longitude": -105.067969
      },
      "endCoords": {
        "latitude": 39.792328,
        "longitude": -104.937724
      },
      "distanceMeters": 35352.1,
      "durationMs": 4747000,
      "drivingDurationMs": 4121647,
      "idlingDurationMs": 625353,
      "fuelConsumedMl": 1597,
      "fuelConsumedGallons": 0.422,
      "maxSpeedMph": 40.7,
      "averageSpeedMph": 16.7,
      "safetyEvents": []
    },
    {
      "id": "trip_49375627_20250204_4666",
      "vehicleId": "49375627",
      "driverId": "20000008",
      "startMs": 1738658571000,
      "endMs": 1738664032000,
      "startAddress": "3934 Clark Fork",
      "endAddress": "94687 Barker Garden Suite 038",
      "startCoords": {
        "latitude": 39.693103,
        "longitude": -104.931214
      },
      "endCoords": {
        "latitude": 39.820793,
        "longitude": -105.020908
      },
      "distanceMeters": 31884.4,
      "durationMs": 5461000,
      "drivingDurationMs": 4321352,
      "idlingDurationMs": 1139648,
      "fuelConsumedMl": 1442,
      "fuelConsumedGallons": 0.381,
      "maxSpeedMph": 43.3,
      "averageSpeedMph": 13.1,
      "safetyEvents": []
    },
    {
      "id": "trip_49375627_20250204_4690",
      "vehicleId": "49375627",
      "driverId": "20000008",
      "startMs": 1738669089000,
      "endMs": 1738671369000,
      "startAddress": "822 West Loaf",
      "endAddress": "448 Ryan Ways Suite 468",
      "startCoords": {
        "latitude": 39.698285,
        "longitude": -104.96899
      },
      "endCoords": {
        "latitude": 39.734597,
        "longitude": -104.936096
      },
      "distanceMeters": 18293.6,
      "durationMs": 2280000,
      "drivingDurationMs": 1957802,
      "idlingDurationMs": 322198,
      "fuelConsumedMl": 829,
      "fuelConsumedGallons": 0.219,
      "maxSpeedMph": 42.8,
      "averageSpeedMph": 17.9,
      "safetyEvents": []
    },
    {
      "id": "trip_49375627_20250204_4723",
      "vehicleId": "49375627",
      "driverId": "20000022",
      "startMs": 1738686424000,
      "endMs": 1738688715000,
      "startAddress": "88642 Wade Fort",
      "endAddress": "47493 King Inlet",
      "startCoords": {
        "latitude": 39.802944,
        "longitude": -104.972034
      },
      "endCoords": {
        "latitude": 39.711105,
        "longitude": -104.945569
      },
      "distanceMeters": 17756.3,
      "durationMs": 2291000,
      "drivingDurationMs": 1924942,
      "idlingDurationMs": 366058,
      "fuelConsumedMl": 803,
      "fuelConsumedGallons": 0.212,
      "maxSpeedMph": 38.6,
      "averageSpeedMph": 17.3,
      "safetyEvents": []
    },
    {
      "id": "trip_49375627_20250204_4750",
      "vehicleId": "49375627",
      "driverId": "20000013",
      "startMs": 1738703873000,
      "endMs": 1738705493000,
      "startAddress": "05953 Sharon Squares",
      "endAddress": "580 Barnett Lane",
      "startCoords": {
        "latitude": 39.71142,
        "longitude": -105.068543
      },
      "endCoords": {
        "latitude": 39.815838,
        "longitude": -105.077955
      },
      "distanceMeters": 12654.3,
      "durationMs": 1620000,
      "drivingDurationMs": 1404743,
      "idlingDurationMs": 215257,
      "fuelConsumedMl": 572,
      "fuelConsumedGallons": 0.151,
      "maxSpeedMph": 34.5,
      "averageSpeedMph": 17.5,
      "safetyEvents": []
    },
    {
      "id": "trip_49375627_20250205_4776",
      "vehicleId": "49375627",
      "driverId": "20000007",
      "startMs": 1738727174000,
      "endMs": 1738729214000,
      "startAddress": "7690 Davis Path Suite 319",
      "endAddress": "035 Townsend Prairie Apt. 622",
      "startCoords": {
        "latitude": 39.748963,
        "longitude": -104.997036
      },
      "endCoords": {
        "latitude": 39.807534,
        "longitude": -105.057354
      },
      "distanceMeters": 14342.9,
      "durationMs": 2040000,
      "drivingDurationMs": 1738896,
      "idlingDurationMs": 301104,
      "fuelConsumedMl": 647,
      "fuelConsumedGallons": 0.171,
      "maxSpeedMph": 45.1,
      "averageSpeedMph": 15.7,
      "safetyEvents": []
    },
    {
      "id": "trip_49375627_20250205_4805",
      "vehicleId": "49375627",
      "driverId": "20000020",
      "startMs": 1738747281000,
      "endMs": 1738749381000,
      "startAddress": "495 Katie Parks Suite 165",
      "endAddress": "22664 Ronald Turnpike Suite 197",
      "startCoords": {
        "latitude": 39.75681,
        "longitude": -105.023163
      },
      "endCoords": {
        "latitude": 39.724327,
        "longitude": -105.029913
      },
      "distanceMeters": 12003.4,
      "durationMs": 2100000,
      "drivingDurationMs": 1779586,
      "idlingDurationMs": 320414,
      "fuelConsumedMl": 541,
      "fuelConsumedGallons": 0.143,
      "maxSpeedMph": 44.3,
      "averageSpeedMph": 12.8,
      "safetyEvents": []
    },
    {
      "id": "trip_49375627_20250205_4835",
      "vehicleId": "49375627",
      "driverId": "20000015",
      "startMs": 1738761931000,
      "endMs": 1738764811000,
      "startAddress": "631 John Flats Apt. 813",
      "endAddress": "16076 Paul Burgs",
      "startCoords": {
        "latitude": 39.74272,
        "longitude": -104.922713
      },
      "endCoords": {
        "latitude": 39.727994,
        "longitude": -105.031339
      },
      "distanceMeters": 17693.7,
      "durationMs": 2880000,
      "drivingDurationMs": 2260484,
      "idlingDurationMs": 619516,
      "fuelConsumedMl": 799,
      "fuelConsumedGallons": 0.211,
      "maxSpeedMph": 43.5,
      "averageSpeedMph": 13.7,
      "safetyEvents": []
    },
    {
      "id": "trip_49375627_20250205_4865",
      "vehicleId": "49375627",
      "driverId": "20000015",
      "startMs": 1738778253000,
      "endMs": 1738791909000,
      "startAddress": "1577 Danielle Plains",
      "endAddress": "09226 Diaz Row Apt. 381",
      "startCoords": {
        "latitude": 39.80351,
        "longitude": -105.0236
      },
      "endCoords": {
        "latitude": 39.818248,
        "longitude": -105.012384
      },
      "distanceMeters": 67415.6,
      "durationMs": 13656000,
      "drivingDurationMs": 11024158,
      "idlingDurationMs": 2631842,
      "fuelConsumedMl": 3051,
      "fuelConsumedGallons": 0.806,
      "maxSpeedMph": 38.2,
      "averageSpeedMph": 11.0,
      "safetyEvents": []
    },
    {
      "id": "trip_49375627_20250205_4894",
      "vehicleId": "49375627",
      "driverId": "20000001",
      "startMs": 1738793567000,
      "endMs": 1738799446000,
      "startAddress": "10328 Christopher Circles",
      "endAddress": "97472 Graham Throughway",
      "startCoords": {
        "latitude": 39.719706,
        "longitude": -105.061486
      },
      "endCoords": {
        "latitude": 39.796291,
        "longitude": -104.923282
      },
      "distanceMeters": 36237.4,
      "durationMs": 5879000,
      "drivingDurationMs": 5034802,
      "idlingDurationMs": 844198,
      "fuelConsumedMl": 1639,
      "fuelConsumedGallons": 0.433,
      "maxSpeedMph": 40.4,
      "averageSpeedMph": 13.8,
      "safetyEvents": []
    },
    {
      "id": "trip_49375627_20250206_4921",
      "vehicleId": "49375627",
      "driverId": "20000005",
      "startMs": 1738813920000,
      "endMs": 1738815600000,
      "startAddress": "266 Atkinson Forge",
      "endAddress": "7850 Lopez Wells",
      "startCoords": {
        "latitude": 39.746406,
        "longitude": -104.968611
      },
      "endCoords": {
        "latitude": 39.686644,
        "longitude": -104.94969
      },
      "distanceMeters": 9274.9,
      "durationMs": 1680000,
      "drivingDurationMs": 1507838,
      "idlingDurationMs": 172162,
      "fuelConsumedMl": 420,
      "fuelConsumedGallons": 0.111,
      "maxSpeedMph": 35.1,
      "averageSpeedMph": 12.3,
      "safetyEvents": []
    },
    {
      "id": "trip_49375627_20250206_4950",
      "vehicleId": "49375627",
      "driverId": "20000010",
      "startMs": 1738829799000,
      "endMs": 1738832259000,
      "startAddress": "33423 King Station",
      "endAddress": "2239 Timothy Brook",
      "startCoords": {
        "latitude": 39.812533,
        "longitude": -104.970811
      },
      "endCoords": {
        "latitude": 39.694594,
        "longitude": -104.928721
      },
      "distanceMeters": 20773.7,
      "durationMs": 2460000,
      "drivingDurationMs": 1984459,
      "idlingDurationMs": 475541,
      "fuelConsumedMl": 939,
      "fuelConsumedGallons": 0.248,
      "maxSpeedMph": 43.8,
      "averageSpeedMph": 18.9,
      "safetyEvents": []
    },
    {
      "id": "trip_49375627_20250206_4976",
      "vehicleId": "49375627",
      "driverId": "20000015",
      "startMs": 1738842124000,
      "endMs": 1738845987000,
      "startAddress": "905 Pacheco Parkway Apt. 400",
      "endAddress": "5252 Edwards Loaf Apt. 679",
      "startCoords": {
        "latitude": 39.792794,
        "longitude": -104.941308
      },
      "endCoords": {
        "latitude": 39.719002,
        "longitude": -105.084023
      },
      "distanceMeters": 29734.8,
      "durationMs": 3863000,
      "drivingDurationMs": 3153501,
      "idlingDurationMs": 709499,
      "fuelConsumedMl": 1344,
      "fuelConsumedGallons": 0.355,
      "maxSpeedMph": 33.6,
      "averageSpeedMph": 17.2,
      "safetyEvents": []
    },
    {
      "id": "trip_49375627_20250206_5003",
      "vehicleId": "49375627",
      "driverId": "20000021",
      "startMs": 1738855037000,
      "endMs": 1738856897000,
      "startAddress": "15413 William Burgs",
      "endAddress": "9703 Turner Prairie",
      "startCoords": {
        "latitude": 39.714366,
        "longitude": -105.026708
      },
      "endCoords": {
        "latitude": 39.796205,
        "longitude": -105.056395
      },
      "distanceMeters": 10329.1,
      "durationMs": 1860000,
      "drivingDurationMs": 1624597,
      "idlingDurationMs": 235403,
      "fuelConsumedMl": 466,
      "fuelConsumedGallons": 0.123,
      "maxSpeedMph": 33.7,
      "averageSpeedMph": 12.4,
      "safetyEvents": []
    },
    {
      "id": "trip_49375627_20250206_5031",
      "vehicleId": "49375627",
      "driverId": "20000005",
      "startMs": 1738867859000,
      "endMs": 1738870499000,
      "startAddress": "4993 Steven Mission",
      "endAddress": "0847 Rachel Port Suite 700",
      "startCoords": {
        "latitude": 39.715757,
        "longitude": -104.919193
      },
      "endCoords": {
        "latitude": 39.794678,
        "longitude": -105.060023
      },
      "distanceMeters": 20109.8,
      "durationMs": 2640000,
      "drivingDurationMs": 2316061,
      "idlingDurationMs": 323939,
      "fuelConsumedMl": 908,
      "fuelConsumedGallons": 0.24,
      "maxSpeedMph": 41.6,
      "averageSpeedMph": 17.0,
      "safetyEvents": []
    },
    {
      "id": "trip_49375627_20250206_5061",
      "vehicleId": "49375627",
      "driverId": "20000020",
      "startMs": 1738885712000,
      "endMs": 1738887932000,
      "startAddress": "867 Beard Light Apt. 633",
      "endAddress": "93338 Kristen Shores",
      "startCoords": {
        "latitude": 39.781642,
        "longitude": -104.951179
      },
      "endCoords": {
        "latitude": 39.755726,
        "longitude": -104.988458
      },
      "distanceMeters": 14647.8,
      "durationMs": 2220000,
      "drivingDurationMs": 1681466,
      "idlingDurationMs": 538534,
      "fuelConsumedMl": 662,
      "fuelConsumedGallons": 0.175,
      "maxSpeedMph": 30.9,
      "averageSpeedMph": 14.8,
      "safetyEvents": []
    },
    {
      "id": "trip_49375627_20250207_5091",
      "vehicleId": "49375627",
      "driverId": "20000020",
      "startMs": 1738905568000,
      "endMs": 1738908376000,
      "startAddress": "5076 Myers Well",
      "endAddress": "575 Ruth Corners",
      "startCoords": {
        "latitude": 39.756328,
        "longitude": -104.966808
      },
      "endCoords": {
        "latitude": 39.687532,
        "longitude": -105.083216
      },
      "distanceMeters": 17671.3,
      "durationMs": 2808000,
      "drivingDurationMs": 2526465,
      "idlingDurationMs": 281535,
      "fuelConsumedMl": 799,
      "fuelConsumedGallons": 0.211,
      "maxSpeedMph": 36.3,
      "averageSpeedMph": 14.1,
      "safetyEvents": []
    },
    {
      "id": "trip_49375627_20250207_5114",
      "vehicleId": "49375627",
      "driverId": "20000017",
      "startMs": 1738918083000,
      "endMs": 1738919523000,
      "startAddress": "218 Rivera Spur Apt. 657",
      "endAddress": "224 Peters Drives",
      "startCoords": {
        "latitude": 39.7895,
        "longitude": -105.087208
      },
      "endCoords": {
        "latitude": 39.788008,
        "longitude": -104.995614
      },
      "distanceMeters": 11415.3,
      "durationMs": 1440000,
      "drivingDurationMs": 1234016,
      "idlingDurationMs": 205984,
      "fuelConsumedMl": 515,
      "fuelConsumedGallons": 0.136,
      "maxSpeedMph": 35.5,
      "averageSpeedMph": 17.7,
      "safetyEvents": []
    },
    {
      "id": "trip_49375627_20250207_5144",
      "vehicleId": "49375627",
      "driverId": "20000012",
      "startMs": 1738933498000,
      "endMs": 1738935178000,
      "startAddress": "216 Miranda Causeway",
      "endAddress": "90987 Flynn Mill",
      "startCoords": {
        "latitude": 39.806289,
        "longitude": -104.997102
      },
      "endCoords": {
        "latitude": 39.804878,
        "longitude": -104.981735
      },
      "distanceMeters": 13203.3,
      "durationMs": 1680000,
      "drivingDurationMs": 1488164,
      "idlingDurationMs": 191836,
      "fuelConsumedMl": 598,
      "fuelConsumedGallons": 0.158,
      "maxSpeedMph": 43.1,
      "averageSpeedMph": 17.6,
      "safetyEvents": []
    },
    {
      "id": "trip_49375627_20250207_5177",
      "vehicleId": "49375627",
      "driverId": "20000017",
      "startMs": 1738946174000,
      "endMs": 1738950816000,
      "startAddress": "180 Schwartz Mountain Apt. 883",
      "endAddress": "10112 Green Bypass",
      "startCoords": {
        "latitude": 39.711072,
        "longitude": -105.085847
      },
      "endCoords": {
        "latitude": 39.774031,
        "longitude": -104.933892
      },
      "distanceMeters": 31035.5,
      "durationMs": 4642000,
      "drivingDurationMs": 3633617,
      "idlingDurationMs": 1008383,
      "fuelConsumedMl": 1404,
      "fuelConsumedGallons": 0.371,
      "maxSpeedMph": 38.5,
      "averageSpeedMph": 15.0,
      "safetyEvents": []
    },
    {
      "id": "trip_49375627_20250207_5205",
      "vehicleId": "49375627",
      "driverId": "20000002",
      "startMs": 1738961961000,
      "endMs": 1738964301000,
      "startAddress": "6934 Daniel Neck",
      "endAddress": "30352 Dominguez Ferry Suite 869",
      "startCoords": {
        "latitude": 39.815939,
        "longitude": -104.903831
      },
      "endCoords": {
        "latitude": 39.751206,
        "longitude": -104.952642
      },
      "distanceMeters": 11717.8,
      "durationMs": 2340000,
      "drivingDurationMs": 1792084,
      "idlingDurationMs": 547916,
      "fuelConsumedMl": 530,
      "fuelConsumedGallons": 0.14,
      "maxSpeedMph": 33.7,
      "averageSpeedMph": 11.2,
      "safetyEvents": []
    },
    {
      "id": "trip_49375627_20250208_5231",
      "vehicleId": "49375627",
      "driverId": "20000006",
      "startMs": 1738981155000,
      "endMs": 1738982415000,
      "startAddress": "46253 Mitchell Meadows",
      "endAddress": "2041 Karen Locks Apt. 330",
      "startCoords": {
        "latitude": 39.692483,
        "longitude": -104.925699
      },
      "endCoords": {
        "latitude": 39.769505,
        "longitude": -105.051933
      },
      "distanceMeters": 10948.2,
      "durationMs": 1260000,
      "drivingDurationMs": 1122764,
      "idlingDurationMs": 137236,
      "fuelConsumedMl": 496,
      "fuelConsumedGallons": 0.131,
      "maxSpeedMph": 33.3,
      "averageSpeedMph": 19.4,
      "safetyEvents": []
    },
    {
      "id": "trip_49375627_20250208_5256",
      "vehicleId": "49375627",
      "driverId": "20000005",
      "startMs": 1739004572000,
      "endMs": 1739012722000,
      "startAddress": "429 Casey Lane",
      "endAddress": "17139 Amy Forge Apt. 858",
      "startCoords": {
        "latitude": 39.713751,
        "longitude": -104.913921
      },
      "endCoords": {
        "latitude": 39.825026,
        "longitude": -105.041201
      },
      "distanceMeters": 46240.6,
      "durationMs": 8150000,
      "drivingDurationMs": 7005727,
      "idlingDurationMs": 1144273,
      "fuelConsumedMl": 2093,
      "fuelConsumedGallons": 0.553,
      "maxSpeedMph": 31.5,
      "averageSpeedMph": 12.7,
      "safetyEvents": []
    },
    {
      "id": "trip_49375627_20250208_5283",
      "vehicleId": "49375627",
      "driverId": "20000017",
      "startMs": 1739020972000,
      "endMs": 1739035903000,
      "startAddress": "6793 Sarah Fields",
      "endAddress": "0536 Susan Square Apt. 515",
      "startCoords": {
        "latitude": 39.747107,
        "longitude": -104.964848
      },
      "endCoords": {
        "latitude": 39.758759,
        "longitude": -104.907796
      },
      "distanceMeters": 89373.7,
      "durationMs": 14931000,
      "drivingDurationMs": 12537756,
      "idlingDurationMs": 2393244,
      "fuelConsumedMl": 4043,
      "fuelConsumedGallons": 1.068,
      "maxSpeedMph": 41.2,
      "averageSpeedMph": 13.4,
      "safetyEvents": []
    },
    {
      "id": "trip_49375627_20250208_5319",
      "vehicleId": "49375627",
      "driverId": "20000004",
      "startMs": 1739039454000,
      "endMs": 1739041074000,
      "startAddress": "37125 Schwartz Ville",
      "endAddress": "313 Carrillo Harbors Apt. 028",
      "startCoords": {
        "latitude": 39.748913,
        "longitude": -104.904645
      },
      "endCoords": {
        "latitude": 39.751312,
        "longitude": -104.911017
      },
      "distanceMeters": 7943.0,
      "durationMs": 1620000,
      "drivingDurationMs": 1279311,
      "idlingDurationMs": 340689,
      "fuelConsumedMl": 360,
      "fuelConsumedGallons": 0.095,
      "maxSpeedMph": 35.2,
      "averageSpeedMph": 11.0,
      "safetyEvents": []
    },
    {
      "id": "trip_49375627_20250209_5352",
      "vehicleId": "49375627",
      "driverId": "20000001",
      "startMs": 1739060773000,
      "endMs": 1739067745000,
      "startAddress": "49472 Diaz Alley",
      "endAddress": "885 Peggy Gateway",
      "startCoords": {
        "latitude": 39.744097,
        "longitude": -104.905137
      },
      "endCoords": {
        "latitude": 39.699934,
        "longitude": -105.041862
      },
      "distanceMeters": 56564.7,
      "durationMs": 6972000,
      "drivingDurationMs": 5919760,
      "idlingDurationMs": 1052240,
      "fuelConsumedMl": 2559,
      "fuelConsumedGallons": 0.676,
      "maxSpeedMph": 38.1,
      "averageSpeedMph": 18.1,
      "safetyEvents": []
    },
    {
      "id": "trip_49375627_20250209_5377",
      "vehicleId": "49375627",
      "driverId": "20000018",
      "startMs": 1739084526000,
      "endMs": 1739086806000,
      "startAddress": "2378 Connor Circles Apt. 151",
      "endAddress": "63508 Hawkins Stream Suite 878",
      "startCoords": {
        "latitude": 39.699664,
        "longitude": -104.916604
      },
      "endCoords": {
        "latitude": 39.686652,
        "longitude": -104.972311
      },
      "distanceMeters": 17285.6,
      "durationMs": 2280000,
      "drivingDurationMs": 1827151,
      "idlingDurationMs": 452849,
      "fuelConsumedMl": 784,
      "fuelConsumedGallons": 0.207,
      "maxSpeedMph": 32.8,
      "averageSpeedMph": 17.0,
      "safetyEvents": []
    },
    {
      "id": "trip_49375627_20250209_5400",
      "vehicleId": "49375627",
      "driverId": "20000002",
      "startMs": 1739106409000,
      "endMs": 1739108689000,
      "startAddress": "753 Sanchez Haven Suite 252",
      "endAddress": "0884 Cohen Alley Suite 117",
      "startCoords": {
        "latitude": 39.772802,
        "longitude": -104.990764
      },
      "endCoords": {
        "latitude": 39.809406,
        "longitude": -105.083905
      },
      "distanceMeters": 13716.1,
      "durationMs": 2280000,
      "drivingDurationMs": 1831418,
      "idlingDurationMs": 448582,
      "fuelConsumedMl": 621,
      "fuelConsumedGallons": 0.164,
      "maxSpeedMph": 33.5,
      "averageSpeedMph": 13.5,
      "safetyEvents": []
    },
    {
      "id": "trip_49375627_20250209_5426",
      "vehicleId": "49375627",
      "driverId": "20000019",
      "startMs": 1739127545000,
      "endMs": 1739128925000,
      "startAddress": "54200 Christopher Brooks",
      "endAddress": "015 Miller Stravenue Suite 131",
      "startCoords": {
        "latitude": 39.742569,
        "longitude": -104.905716
      },
      "endCoords": {
        "latitude": 39.757478,
        "longitude": -105.07108
      },
      "distanceMeters": 10554.8,
      "durationMs": 1380000,
      "drivingDurationMs": 1217778,
      "idlingDurationMs": 162222,
      "fuelConsumedMl": 477,
      "fuelConsumedGallons": 0.126,
      "maxSpeedMph": 32.1,
      "averageSpeedMph": 17.1,
      "safetyEvents": []
    },
    {
      "id": "trip_49375627_20250210_5457",
      "vehicleId": "49375627",
      "driverId": "20000004",
      "startMs": 1739177266000,
      "endMs": 1739179126000,
      "startAddress": "94973 Lee Divide Apt. 261",
      "endAddress": "672 White Plains",
      "startCoords": {
        "latitude": 39.778906,
        "longitude": -104.909806
      },
      "endCoords": {
        "latitude": 39.744814,
        "longitude": -105.01162
      },
      "distanceMeters": 9021.4,
      "durationMs": 1860000,
      "drivingDurationMs": 1444064,
      "idlingDurationMs": 415936,
      "fuelConsumedMl": 409,
      "fuelConsumedGallons": 0.108,
      "maxSpeedMph": 33.2,
      "averageSpeedMph": 10.8,
      "safetyEvents": []
    },
    {
      "id": "trip_49375627_20250210_5487",
      "vehicleId": "49375627",
      "driverId": "20000018",
      "startMs": 1739192255000,
      "endMs": 1739195075000,
      "startAddress": "1440 Frank Vista Apt. 081",
      "endAddress": "92152 Aaron Radial",
      "startCoords": {
        "latitude": 39.767183,
        "longitude": -104.940509
      },
      "endCoords": {
        "latitude": 39.741218,
        "longitude": -105.032811
      },
      "distanceMeters": 19861.9,
      "durationMs": 2820000,
      "drivingDurationMs": 2153429,
      "idlingDurationMs": 666571,
      "fuelConsumedMl": 897,
      "fuelConsumedGallons": 0.237,
      "maxSpeedMph": 36.6,
      "averageSpeedMph": 15.8,
      "safetyEvents": []
    },
    {
      "id": "trip_49375627_20250210_5515",
      "vehicleId": "49375627",
      "driverId": "20000001",
      "startMs": 1739206109000,
      "endMs": 1739224111000,
      "startAddress": "42797 Brandon Circles Suite 742",
      "endAddress": "693 Turner Shoals Apt. 610",
      "startCoords": {
        "latitude": 39.691639,
        "longitude": -104.903031
      },
      "endCoords": {
        "latitude": 39.809756,
        "longitude": -105.021498
      },
      "distanceMeters": 134131.1,
      "durationMs": 18002000,
      "drivingDurationMs": 15878395,
      "idlingDurationMs": 2123605,
      "fuelConsumedMl": 6068,
      "fuelConsumedGallons": 1.603,
      "maxSpeedMph": 39.8,
      "averageSpeedMph": 16.7,
      "safetyEvents": []
    },
    {
      "id": "trip_49375627_20250210_5549",
      "vehicleId": "49375627",
      "driverId": "20000009",
      "startMs": 1739224306000,
      "endMs": 1739226826000,
      "startAddress": "23739 Gregory Wall Suite 626",
      "endAddress": "2631 Danielle Parkway",
      "startCoords": {
        "latitude": 39.826628,
        "longitude": -105.027905
      },
      "endCoords": {
        "latitude": 39.719042,
        "longitude": -104.947814
      },
      "distanceMeters": 19142.2,
      "durationMs": 2520000,
      "drivingDurationMs": 1944339,
      "idlingDurationMs": 575661,
      "fuelConsumedMl": 867,
      "fuelConsumedGallons": 0.229,
      "maxSpeedMph": 32.0,
      "averageSpeedMph": 17.0,
      "safetyEvents": []
    },
    {
      "id": "trip_49375627_20250211_5581",
      "vehicleId": "49375627",
      "driverId": "20000001",
      "startMs": 1739245284000,
      "endMs": 1739247384000,
      "startAddress": "246 Smith Fork",
      "endAddress": "890 Mcintosh Rest Apt. 251",
      "startCoords": {
        "latitude": 39.7836,
        "longitude": -104.975337
      },
      "endCoords": {
        "latitude": 39.722638,
        "longitude": -104.949205
      },
      "distanceMeters": 16380.8,
      "durationMs": 2100000,
      "drivingDurationMs": 1625852,
      "idlingDurationMs": 474148,
      "fuelConsumedMl": 742,
      "fuelConsumedGallons": 0.196,
      "maxSpeedMph": 40.3,
      "averageSpeedMph": 17.4,
      "safetyEvents": []
    },
    {
      "id": "trip_49375627_20250211_5608",
      "vehicleId": "49375627",
      "driverId": "20000021",
      "startMs": 1739265554000,
      "endMs": 1739267174000,
      "startAddress": "98497 Kenneth Mountains Apt. 340",
      "endAddress": "94191 Galvan Plain Apt. 970",
      "startCoords": {
        "latitude": 39.813862,
        "longitude": -105.038804
      },
      "endCoords": {
        "latitude": 39.757562,
        "longitude": -104.965258
      },
      "distanceMeters": 15028.9,
      "durationMs": 1620000,
      "drivingDurationMs": 1436178,
      "idlingDurationMs": 183822,
      "fuelConsumedMl": 681,
      "fuelConsumedGallons": 0.18,
      "maxSpeedMph": 32.6,
      "averageSpeedMph": 20.8,
      "safetyEvents": []
    },
    {
      "id": "trip_49375627_20250211_5637",
      "vehicleId": "49375627",
      "driverId": "20000016",
      "startMs": 1739279682000,
      "endMs": 1739282442000,
      "startAddress": "71322 James Common",
      "endAddress": "885 Erica Locks Apt. 271",
      "startCoords": {
        "latitude": 39.719264,
        "longitude": -104.90003
      },
      "endCoords": {
        "latitude": 39.810899,
        "longitude": -104.981619
      },
      "distanceMeters": 17855.9,
      "durationMs": 2760000,
      "drivingDurationMs": 2328187,
      "idlingDurationMs": 431813,
      "fuelConsumedMl": 806,
      "fuelConsumedGallons": 0.213,
      "maxSpeedMph": 46.5,
      "averageSpeedMph": 14.5,
      "safetyEvents": []
    },
    {
      "id": "trip_49375627_20250211_5672",
      "vehicleId": "49375627",
      "driverId": "20000010",
      "startMs": 1739298102000,
      "endMs": 1739312545000,
      "startAddress": "79691 Griffin Burg Suite 928",
      "endAddress": "1788 Victoria Coves Apt. 378",
      "startCoords": {
        "latitude": 39.709437,
        "longitude": -105.014568
      },
      "endCoords": {
        "latitude": 39.769835,
        "longitude": -104.948856
      },
      "distanceMeters": 105864.0,
      "durationMs": 14443000,
      "drivingDurationMs": 10866433,
      "idlingDurationMs": 3576567,
      "fuelConsumedMl": 4789,
      "fuelConsumedGallons": 1.265,
      "maxSpeedMph": 47.1,
      "averageSpeedMph": 16.4,
      "safetyEvents": []
    },
    {
      "id": "trip_49375627_20250211_5703",
      "vehicleId": "49375627",
      "driverId": "20000016",
      "startMs": 1739312554000,
      "endMs": 1739314669000,
      "startAddress": "99572 Cheyenne Islands",
      "endAddress": "36053 Garrett Underpass Suite 704",
      "startCoords": {
        "latitude": 39.786687,
        "longitude": -104.93129
      },
      "endCoords": {
        "latitude": 39.724107,
        "longitude": -104.905165
      },
      "distanceMeters": 12476.9,
      "durationMs": 2115000,
      "drivingDurationMs": 1834870,
      "idlingDurationMs": 280130,
      "fuelConsumedMl": 564,
      "fuelConsumedGallons": 0.149,
      "maxSpeedMph": 42.0,
      "averageSpeedMph": 13.2,
      "safetyEvents": []
    },
    {
      "id": "trip_49375627_20250212_5734",
      "vehicleId": "49375627",
      "driverId": "20000003",
      "startMs": 1739334352000,
      "endMs": 1739336512000,
      "startAddress": "19213 Bruce Creek",
      "endAddress": "7746 James Rest",
      "startCoords": {
        "latitude": 39.789538,
        "longitude": -104.953218
      },
      "endCoords": {
        "latitude": 39.812824,
        "longitude": -104.90132
      },
      "distanceMeters": 19093.5,
      "durationMs": 2160000,
      "drivingDurationMs": 1882112,
      "idlingDurationMs": 277888,
      "fuelConsumedMl": 863,
      "fuelConsumedGallons": 0.228,
      "maxSpeedMph": 41.2,
      "averageSpeedMph": 19.8,
      "safetyEvents": []
    },
    {
      "id": "trip_49375627_20250212_5763",
      "vehicleId": "49375627",
      "driverId": "20000022",
      "startMs": 1739347407000,
      "endMs": 1739349807000,
      "startAddress": "02129 Lauren Squares",
      "endAddress": "1626 Haynes Orchard Apt. 229",
      "startCoords": {
        "latitude": 39.761015,
        "longitude": -105.048412
      },
      "endCoords": {
        "latitude": 39.782282,
        "longitude": -105.051595
      },
      "distanceMeters": 19470.6,
      "durationMs": 2400000,
      "drivingDurationMs": 1996771,
      "idlingDurationMs": 403229,
      "fuelConsumedMl": 882,
      "fuelConsumedGallons": 0.233,
      "maxSpeedMph": 45.7,
      "averageSpeedMph": 18.1,
      "safetyEvents": []
    },
    {
      "id": "trip_49375627_20250212_5791",
      "vehicleId": "49375627",
      "driverId": "20000020",
      "startMs": 1739361947000,
      "endMs": 1739368998000,
      "startAddress": "3748 Kelli Tunnel Suite 834",
      "endAddress": "996 Christina Stream Apt. 387",
      "startCoords": {
        "latitude": 39.742609,
        "longitude": -104.962455
      },
      "endCoords": {
        "latitude": 39.827407,
        "longitude": -104.931615
      },
      "distanceMeters": 53212.1,
      "durationMs": 7051000,
      "drivingDurationMs": 5418620,
      "idlingDurationMs": 1632380,
      "fuelConsumedMl": 2408,
      "fuelConsumedGallons": 0.636,
      "maxSpeedMph": 39.0,
      "averageSpeedMph": 16.9,
      "safetyEvents": []
    },
    {
      "id": "trip_49375627_20250212_5816",
      "vehicleId": "49375627",
      "driverId": "20000018",
      "startMs": 1739374379000,
      "endMs": 1739382533000,
      "startAddress": "821 Briggs Drive Suite 492",
      "endAddress": "714 Nichole Isle Apt. 445",
      "startCoords": {
        "latitude": 39.702815,
        "longitude": -104.983988
      },
      "endCoords": {
        "latitude": 39.801963,
        "longitude": -104.971309
      },
      "distanceMeters": 61435.9,
      "durationMs": 8154000,
      "drivingDurationMs": 6455840,
      "idlingDurationMs": 1698160,
      "fuelConsumedMl": 2778,
      "fuelConsumedGallons": 0.734,
      "maxSpeedMph": 47.2,
      "averageSpeedMph": 16.9,
      "safetyEvents": []
    },
    {
      "id": "trip_49375627_20250212_5847",
      "vehicleId": "49375627",
      "driverId": "20000007",
      "startMs": 1739387235000,
      "endMs": 1739392671000,
      "startAddress": "817 Cuevas Overpass Apt. 452",
      "endAddress": "03193 Dawson Via Apt. 581",
      "startCoords": {
        "latitude": 39.717577,
        "longitude": -104.933241
      },
      "endCoords": {
        "latitude": 39.821179,
        "longitude": -104.958754
      },
      "distanceMeters": 38854.0,
      "durationMs": 5436000,
      "drivingDurationMs": 4097450,
      "idlingDurationMs": 1338550,
      "fuelConsumedMl": 1756,
      "fuelConsumedGallons": 0.464,
      "maxSpeedMph": 32.7,
      "averageSpeedMph": 16.0,
      "safetyEvents": []
    },
    {
      "id": "trip_49375627_20250213_5878",
      "vehicleId": "49375627",
      "driverId": "20000016",
      "startMs": 1739405346000,
      "endMs": 1739409965000,
      "startAddress": "420 Daniels Circle Apt. 828",
      "endAddress": "05303 Paul Walk Apt. 933",
      "startCoords": {
        "latitude": 39.75206,
        "longitude": -105.028685
      },
      "endCoords": {
        "latitude": 39.692212,
        "longitude": -105.081951
      },
      "distanceMeters": 27553.9,
      "durationMs": 4619000,
      "drivingDurationMs": 3635360,
      "idlingDurationMs": 983640,
      "fuelConsumedMl": 1245,
      "fuelConsumedGallons": 0.329,
      "maxSpeedMph": 35.1,
      "averageSpeedMph": 13.3,
      "safetyEvents": []
    },
    {
      "id": "trip_49375627_20250213_5911",
      "vehicleId": "49375627",
      "driverId": "20000019",
      "startMs": 1739429753000,
      "endMs": 1739431133000,
      "startAddress": "0759 Kelly Ridge",
      "endAddress": "682 Wallace Lodge Suite 451",
      "startCoords": {
        "latitude": 39.691837,
        "longitude": -104.915788
      },
      "endCoords": {
        "latitude": 39.801612,
        "longitude": -105.032252
      },
      "distanceMeters": 7444.4,
      "durationMs": 1380000,
      "drivingDurationMs": 1201360,
      "idlingDurationMs": 178640,
      "fuelConsumedMl": 337,
      "fuelConsumedGallons": 0.089,
      "maxSpeedMph": 37.9,
      "averageSpeedMph": 12.1,
      "safetyEvents": []
    },
    {
      "id": "trip_49375627_20250213_5941",
      "vehicleId": "49375627",
      "driverId": "20000006",
      "startMs": 1739442182000,
      "endMs": 1739446352000,
      "startAddress": "85903 Eugene Falls Apt. 786",
      "endAddress": "14211 Woods Forest",
      "startCoords": {
        "latitude": 39.687738,
        "longitude": -105.072575
      },
      "endCoords": {
        "latitude": 39.775019,
        "longitude": -105.06111
      },
      "distanceMeters": 29040.2,
      "durationMs": 4170000,
      "drivingDurationMs": 3664395,
      "idlingDurationMs": 505605,
      "fuelConsumedMl": 1314,
      "fuelConsumedGallons": 0.347,
      "maxSpeedMph": 45.8,
      "averageSpeedMph": 15.6,
      "safetyEvents": []
    },
    {
      "id": "trip_49375627_20250213_5968",
      "vehicleId": "49375627",
      "driverId": "20000010",
      "startMs": 1739456467000,
      "endMs": 1739468069000,
      "startAddress": "240 Green Trace Suite 647",
      "endAddress": "11712 Miller Rue Apt. 199",
      "startCoords": {
        "latitude": 39.770641,
        "longitude": -105.067332
      },
      "endCoords": {
        "latitude": 39.700684,
        "longitude": -104.991994
      },
      "distanceMeters": 76317.6,
      "durationMs": 11602000,
      "drivingDurationMs": 8917571,
      "idlingDurationMs": 2684429,
      "fuelConsumedMl": 3452,
      "fuelConsumedGallons": 0.912,
      "maxSpeedMph": 46.6,
      "averageSpeedMph": 14.7,
      "safetyEvents": []
    },
    {
      "id": "trip_49375627_20250213_5999",
      "vehicleId": "49375627",
      "driverId": "20000002",
      "startMs": 1739471835000,
      "endMs": 1739474115000,
      "startAddress": "517 Michael Extensions Suite 257",
      "endAddress": "00955 Jason Viaduct",
      "startCoords": {
        "latitude": 39.72862,
        "longitude": -104.925211
      },
      "endCoords": {
        "latitude": 39.724832,
        "longitude": -104.980247
      },
      "distanceMeters": 18768.1,
      "durationMs": 2280000,
      "drivingDurationMs": 1971145,
      "idlingDurationMs": 308855,
      "fuelConsumedMl": 848,
      "fuelConsumedGallons": 0.224,
      "maxSpeedMph": 38.3,
      "averageSpeedMph": 18.4,
      "safetyEvents": []
    },
    {
      "id": "trip_49375627_20250213_6026",
      "vehicleId": "49375627",
      "driverId": "20000014",
      "startMs": 1739483393000,
      "endMs": 1739486192000,
      "startAddress": "0249 Heather Turnpike Apt. 828",
      "endAddress": "574 Clark Heights",
      "startCoords": {
        "latitude": 39.697263,
        "longitude": -104.907521
      },
      "endCoords": {
        "latitude": 39.750191,
        "longitude": -105.081502
      },
      "distanceMeters": 22694.2,
      "durationMs": 2799000,
      "drivingDurationMs": 2255978,
      "idlingDurationMs": 543022,
      "fuelConsumedMl": 1026,
      "fuelConsumedGallons": 0.271,
      "maxSpeedMph": 45.0,
      "averageSpeedMph": 18.1,
      "safetyEvents": []
    },
    {
      "id": "trip_49375627_20250214_6056",
      "vehicleId": "49375627",
      "driverId": "20000017",
      "startMs": 1739504557000,
      "endMs": 1739506777000,
      "startAddress": "9275 Jordan Crescent",
      "endAddress": "404 Bentley Greens",
      "startCoords": {
        "latitude": 39.705653,
        "longitude": -105.06526
      },
      "endCoords": {
        "latitude": 39.712094,
        "longitude": -105.079414
      },
      "distanceMeters": 17582.0,
      "durationMs": 2220000,
      "drivingDurationMs": 1901544,
      "idlingDurationMs": 318456,
      "fuelConsumedMl": 795,
      "fuelConsumedGallons": 0.21,
      "maxSpeedMph": 34.5,
      "averageSpeedMph": 17.7,
      "safetyEvents": []
    },
    {
      "id": "trip_49375627_20250214_6084",
      "vehicleId": "49375627",
      "driverId": "20000011",
      "startMs": 1739522205000,
      "endMs": 1739524545000,
      "startAddress": "713 John Village",
      "endAddress": "9269 Gillespie Brooks Apt. 202",
      "startCoords": {
        "latitude": 39.688999,
        "longitude": -105.026714
      },
      "endCoords": {
        "latitude": 39.69024,
        "longitude": -105.00326
      },
      "distanceMeters": 15019.0,
      "durationMs": 2340000,
      "drivingDurationMs": 2028233,
      "idlingDurationMs": 311767,
      "fuelConsumedMl": 678,
      "fuelConsumedGallons": 0.179,
      "maxSpeedMph": 31.2,
      "averageSpeedMph": 14.4,
      "safetyEvents": []
    },
    {
      "id": "trip_49375627_20250214_6111",
      "vehicleId": "49375627",
      "driverId": "20000009",
      "startMs": 1739534617000,
      "endMs": 1739535997000,
      "startAddress": "60244 Hill Viaduct",
      "endAddress": "67965 Julie Flats",
      "startCoords": {
        "latitude": 39.795964,
        "longitude": -104.991519
      },
      "endCoords": {
        "latitude": 39.809732,
        "longitude": -104.904042
      },
      "distanceMeters": 7930.0,
      "durationMs": 1380000,
      "drivingDurationMs": 1213688,
      "idlingDurationMs": 166312,
      "fuelConsumedMl": 360,
      "fuelConsumedGallons": 0.095,
      "maxSpeedMph": 30.9,
      "averageSpeedMph": 12.9,
      "safetyEvents": []
    },
    {
      "id": "trip_49375627_20250214_6142",
      "vehicleId": "49375627",
      "driverId": "20000012",
      "startMs": 1739550472000,
      "endMs": 1739552632000,
      "startAddress": "40677 Angela Island Suite 381",
      "endAddress": "507 Mcgee Canyon",
      "startCoords": {
        "latitude": 39.770397,
        "longitude": -104.936498
      },
      "endCoords": {
        "latitude": 39.788434,
        "longitude": -104.912008
      },
      "distanceMeters": 15083.2,
      "durationMs": 2160000,
      "drivingDurationMs": 1704363,
      "idlingDurationMs": 455637,
      "fuelConsumedMl": 681,
      "fuelConsumedGallons": 0.18,
      "maxSpeedMph": 33.0,
      "averageSpeedMph": 15.6,
      "safetyEvents": []
    },
    {
      "id": "trip_49375627_20250214_6172",
      "vehicleId": "49375627",
      "driverId": "20000002",
      "startMs": 1739566657000,
      "endMs": 1739567977000,
      "startAddress": "33613 Cameron Lake Suite 763",
      "endAddress": "5703 Dominique Meadow",
      "startCoords": {
        "latitude": 39.72645,
        "longitude": -104.991692
      },
      "endCoords": {
        "latitude": 39.726004,
        "longitude": -105.055154
      },
      "distanceMeters": 8965.7,
      "durationMs": 1320000,
      "drivingDurationMs": 1120014,
      "idlingDurationMs": 199986,
      "fuelConsumedMl": 405,
      "fuelConsumedGallons": 0.107,
      "maxSpeedMph": 43.6,
      "averageSpeedMph": 15.2,
      "safetyEvents": []
    },
    {
      "id": "trip_49375627_20250215_6197",
      "vehicleId": "49375627",
      "driverId": "20000007",
      "startMs": 1739584143000,
      "endMs": 1739585943000,
      "startAddress": "34335 Mcmillan Port",
      "endAddress": "22751 Kimberly Harbors Suite 340",
      "startCoords": {
        "latitude": 39.745501,
        "longitude": -104.949778
      },
      "endCoords": {
        "latitude": 39.785393,
        "longitude": -104.998372
      },
      "distanceMeters": 13231.3,
      "durationMs": 1800000,
      "drivingDurationMs": 1453939,
      "idlingDurationMs": 346061,
      "fuelConsumedMl": 598,
      "fuelConsumedGallons": 0.158,
      "maxSpeedMph": 44.0,
      "averageSpeedMph": 16.4,
      "safetyEvents": []
    },
    {
      "id": "trip_49375627_20250215_6223",
      "vehicleId": "49375627",
      "driverId": "20000009",
      "startMs": 1739601878000,
      "endMs": 1739617616000,
      "startAddress": "4107 Watson Camp",
      "endAddress": "19048 Angela Square Suite 044",
      "startCoords": {
        "latitude": 39.756838,
        "longitude": -105.032285
      },
      "endCoords": {
        "latitude": 39.742149,
        "longitude": -104.964524
      },
      "distanceMeters": 102061.1,
      "durationMs": 15738000,
      "drivingDurationMs": 12143165,
      "idlingDurationMs": 3594835,
      "fuelConsumedMl": 4618,
      "fuelConsumedGallons": 1.22,
      "maxSpeedMph": 37.3,
      "averageSpeedMph": 14.5,
      "safetyEvents": []
    },
    {
      "id": "trip_49375627_20250215_6260",
      "vehicleId": "49375627",
      "driverId": "20000001",
      "startMs": 1739617760000,
      "endMs": 1739619140000,
      "startAddress": "949 Seth Gateway",
      "endAddress": "2446 Benjamin Cape Suite 589",
      "startCoords": {
        "latitude": 39.730615,
        "longitude": -105.034829
      },
      "endCoords": {
        "latitude": 39.724292,
        "longitude": -104.975251
      },
      "distanceMeters": 9975.3,
      "durationMs": 1380000,
      "drivingDurationMs": 1173398,
      "idlingDurationMs": 206602,
      "fuelConsumedMl": 450,
      "fuelConsumedGallons": 0.119,
      "maxSpeedMph": 42.6,
      "averageSpeedMph": 16.2,
      "safetyEvents": []
    },
    {
      "id": "trip_49375627_20250215_6286",
      "vehicleId": "49375627",
      "driverId": "20000016",
      "startMs": 1739629929000,
      "endMs": 1739640169000,
      "startAddress": "32360 Clifford Unions",
      "endAddress": "012 Angela Inlet",
      "startCoords": {
        "latitude": 39.767888,
        "longitude": -104.923802
      },
      "endCoords": {
        "latitude": 39.735593,
        "longitude": -104.930457
      },
      "distanceMeters": 53194.2,
      "durationMs": 10240000,
      "drivingDurationMs": 8519652,
      "idlingDurationMs": 1720348,
      "fuelConsumedMl": 2408,
      "fuelConsumedGallons": 0.636,
      "maxSpeedMph": 43.3,
      "averageSpeedMph": 11.6,
      "safetyEvents": []
    },
    {
      "id": "trip_49375627_20250215_6316",
      "vehicleId": "49375627",
      "driverId": "20000017",
      "startMs": 1739647760000,
      "endMs": 1739649440000,
      "startAddress": "159 Soto Fort",
      "endAddress": "3296 Conway Ville Apt. 565",
      "startCoords": {
        "latitude": 39.776776,
        "longitude": -104.98327
      },
      "endCoords": {
        "latitude": 39.783684,
        "longitude": -104.920143
      },
      "distanceMeters": 9090.8,
      "durationMs": 1680000,
      "drivingDurationMs": 1383129,
      "idlingDurationMs": 296871,
      "fuelConsumedMl": 413,
      "fuelConsumedGallons": 0.109,
      "maxSpeedMph": 41.1,
      "averageSpeedMph": 12.1,
      "safetyEvents": []
    },
    {
      "id": "trip_49375627_20250216_6345",
      "vehicleId": "49375627",
      "driverId": "20000019",
      "startMs": 1739676994000,
      "endMs": 1739679214000,
      "startAddress": "15674 Billy Isle",
      "endAddress": "811 Barnes Locks Suite 119",
      "startCoords": {
        "latitude": 39.704901,
        "longitude": -105.001735
      },
      "endCoords": {
        "latitude": 39.691602,
        "longitude": -105.032046
      },
      "distanceMeters": 12836.8,
      "durationMs": 2220000,
      "drivingDurationMs": 1867897,
      "idlingDurationMs": 352103,
      "fuelConsumedMl": 579,
      "fuelConsumedGallons": 0.153,
      "maxSpeedMph": 33.0,
      "averageSpeedMph": 12.9,
      "safetyEvents": []
    },
    {
      "id": "trip_49375627_20250216_6377",
      "vehicleId": "49375627",
      "driverId": "20000011",
      "startMs": 1739707585000,
      "endMs": 1739710527000,
      "startAddress": "552 Richards Hollow",
      "endAddress": "0758 Michelle Turnpike Suite 308",
      "startCoords": {
        "latitude": 39.733102,
        "longitude": -105.042782
      },
      "endCoords": {
        "latitude": 39.801331,
        "longitude": -105.05143
      },
      "distanceMeters": 21280.6,
      "durationMs": 2942000,
      "drivingDurationMs": 2385523,
      "idlingDurationMs": 556477,
      "fuelConsumedMl": 961,
      "fuelConsumedGallons": 0.254,
      "maxSpeedMph": 45.7,
      "averageSpeedMph": 16.2,
      "safetyEvents": []
    },
    {
      "id": "trip_49375627_20250216_6407",
      "vehicleId": "49375627",
      "driverId": "20000018",
      "startMs": 1739738172000,
      "endMs": 1739739732000,
      "startAddress": "19789 Kemp Parkway",
      "endAddress": "212 Mitchell Run Suite 379",
      "startCoords": {
        "latitude": 39.763535,
        "longitude": -105.004058
      },
      "endCoords": {
        "latitude": 39.734109,
        "longitude": -104.971644
      },
      "distanceMeters": 10699.0,
      "durationMs": 1560000,
      "drivingDurationMs": 1246337,
      "idlingDurationMs": 313663,
      "fuelConsumedMl": 485,
      "fuelConsumedGallons": 0.128,
      "maxSpeedMph": 34.0,
      "averageSpeedMph": 15.3,
      "safetyEvents": []
    },
    {
      "id": "trip_49375627_20250217_6438",
      "vehicleId": "49375627",
      "driverId": "20000005",
      "startMs": 1739781541000,
      "endMs": 1739783893000,
      "startAddress": "1926 Tammy Neck",
      "endAddress": "756 Katie Forges",
      "startCoords": {
        "latitude": 39.713461,
        "longitude": -104.989995
      },
      "endCoords": {
        "latitude": 39.81858,
        "longitude": -104.990053
      },
      "distanceMeters": 19332.1,
      "durationMs": 2352000,
      "drivingDurationMs": 1835726,
      "idlingDurationMs": 516274,
      "fuelConsumedMl": 874,
      "fuelConsumedGallons": 0.231,
      "maxSpeedMph": 31.9,
      "averageSpeedMph": 18.4,
      "safetyEvents": []
    },
    {
      "id": "trip_49375627_20250217_6464",
      "vehicleId": "49375627",
      "driverId": "20000017",
      "startMs": 1739792104000,
      "endMs": 1739794444000,
      "startAddress": "61413 Robert Ferry",
      "endAddress": "69171 Andrew Ford",
      "startCoords": {
        "latitude": 39.73263,
        "longitude": -104.954063
      },
      "endCoords": {
        "latitude": 39.724834,
        "longitude": -104.984343
      },
      "distanceMeters": 11877.5,
      "durationMs": 2340000,
      "drivingDurationMs": 1780526,
      "idlingDurationMs": 559474,
      "fuelConsumedMl": 538,
      "fuelConsumedGallons": 0.142,
      "maxSpeedMph": 46.6,
      "averageSpeedMph": 11.4,
      "safetyEvents": []
    },
    {
      "id": "trip_49375627_20250217_6492",
      "vehicleId": "49375627",
      "driverId": "20000007",
      "startMs": 1739806133000,
      "endMs": 1739827797000,
      "startAddress": "0313 Ward Streets",
      "endAddress": "7337 Reynolds Orchard",
      "startCoords": {
        "latitude": 39.762877,
        "longitude": -104.979596
      },
      "endCoords": {
        "latitude": 39.713302,
        "longitude": -104.931165
      },
      "distanceMeters": 146693.1,
      "durationMs": 21664000,
      "drivingDurationMs": 17905885,
      "idlingDurationMs": 3758115,
      "fuelConsumedMl": 6636,
      "fuelConsumedGallons": 1.753,
      "maxSpeedMph": 39.9,
      "averageSpeedMph": 15.1,
      "safetyEvents": []
    },
    {
      "id": "trip_49375627_20250217_6533",
      "vehicleId": "49375627",
      "driverId": "20000010",
      "startMs": 1739830924000,
      "endMs": 1739833084000,
      "startAddress": "3114 Roy Passage",
      "endAddress": "9467 Cynthia Stravenue Suite 612",
      "startCoords": {
        "latitude": 39.793244,
        "longitude": -105.086833
      },
      "endCoords": {
        "latitude": 39.75204,
        "longitude": -105.034125
      },
      "distanceMeters": 16998.5,
      "durationMs": 2160000,
      "drivingDurationMs": 1700297,
      "idlingDurationMs": 459703,
      "fuelConsumedMl": 768,
      "fuelConsumedGallons": 0.203,
      "maxSpeedMph": 31.6,
      "averageSpeedMph": 17.6,
      "safetyEvents": []
    },
    {
      "id": "trip_49375627_20250218_6559",
      "vehicleId": "49375627",
      "driverId": "20000016",
      "startMs": 1739848447000,
      "endMs": 1739849947000,
      "startAddress": "23394 Amy Passage",
      "endAddress": "4311 Corey Well Suite 838",
      "startCoords": {
        "latitude": 39.827386,
        "longitude": -104.907782
      },
      "endCoords": {
        "latitude": 39.71114,
        "longitude": -105.047997
      },
      "distanceMeters": 8452.9,
      "durationMs": 1500000,
      "drivingDurationMs": 1262563,
      "idlingDurationMs": 237437,
      "fuelConsumedMl": 382,
      "fuelConsumedGallons": 0.101,
      "maxSpeedMph": 39.3,
      "averageSpeedMph": 12.6,
      "safetyEvents": []
    },
    {
      "id": "trip_49375627_20250218_6589",
      "vehicleId": "49375627",
      "driverId": "20000019",
      "startMs": 1739865437000,
      "endMs": 1739889901000,
      "startAddress": "387 Lauren Orchard Suite 027",
      "endAddress": "516 Davis Flat",
      "startCoords": {
        "latitude": 39.785306,
        "longitude": -104.958727
      },
      "endCoords": {
        "latitude": 39.715118,
        "longitude": -104.905081
      },
      "distanceMeters": 120206.2,
      "durationMs": 24464000,
      "drivingDurationMs": 19289235,
      "idlingDurationMs": 5174765,
      "fuelConsumedMl": 5436,
      "fuelConsumedGallons": 1.436,
      "maxSpeedMph": 30.9,
      "averageSpeedMph": 11.0,
      "safetyEvents": []
    },
    {
      "id": "trip_49375627_20250218_6638",
      "vehicleId": "49375627",
      "driverId": "20000006",
      "startMs": 1739890233000,
      "endMs": 1739897071000,
      "startAddress": "1161 John Manor Suite 512",
      "endAddress": "943 Garza Brook",
      "startCoords": {
        "latitude": 39.692851,
        "longitude": -105.018014
      },
      "endCoords": {
        "latitude": 39.7787,
        "longitude": -105.046547
      },
      "distanceMeters": 55667.5,
      "durationMs": 6838000,
      "drivingDurationMs": 6007170,
      "idlingDurationMs": 830830,
      "fuelConsumedMl": 2517,
      "fuelConsumedGallons": 0.665,
      "maxSpeedMph": 42.8,
      "averageSpeedMph": 18.2,
      "safetyEvents": []
    },
    {
      "id": "trip_49375627_20250218_6666",
      "vehicleId": "49375627",
      "driverId": "20000019",
      "startMs": 1739904246000,
      "endMs": 1739906915000,
      "startAddress": "04617 Reynolds Lane",
      "endAddress": "425 Francis Plain Apt. 131",
      "startCoords": {
        "latitude": 39.707921,
        "longitude": -104.917999
      },
      "endCoords": {
        "latitude": 39.765051,
        "longitude": -104.923058
      },
      "distanceMeters": 20998.4,
      "durationMs": 2669000,
      "drivingDurationMs": 2297965,
      "idlingDurationMs": 371035,
      "fuelConsumedMl": 950,
      "fuelConsumedGallons": 0.251,
      "maxSpeedMph": 41.2,
      "averageSpeedMph": 17.6,
      "safetyEvents": []
    },
    {
      "id": "trip_49375627_20250218_6694",
      "vehicleId": "49375627",
      "driverId": "20000017",
      "startMs": 1739917702000,
      "endMs": 1739931024000,
      "startAddress": "0541 Aguilar Trail Suite 835",
      "endAddress": "9023 Barnett Island",
      "startCoords": {
        "latitude": 39.758518,
        "longitude": -105.06206
      },
      "endCoords": {
        "latitude": 39.789639,
        "longitude": -105.027718
      },
      "distanceMeters": 113539.6,
      "durationMs": 13322000,
      "drivingDurationMs": 10885096,
      "idlingDurationMs": 2436904,
      "fuelConsumedMl": 5137,
      "fuelConsumedGallons": 1.357,
      "maxSpeedMph": 34.8,
      "averageSpeedMph": 19.1,
      "safetyEvents": []
    },
    {
      "id": "trip_49375627_20250219_6722",
      "vehicleId": "49375627",
      "driverId": "20000021",
      "startMs": 1739944822000,
      "endMs": 1739957674000,
      "startAddress": "413 Alan Throughway Suite 877",
      "endAddress": "1499 Jones Trace Suite 163",
      "startCoords": {
        "latitude": 39.743087,
        "longitude": -105.064198
      },
      "endCoords": {
        "latitude": 39.739761,
        "longitude": -105.040997
      },
      "distanceMeters": 91325.4,
      "durationMs": 12852000,
      "drivingDurationMs": 10842734,
      "idlingDurationMs": 2009266,
      "fuelConsumedMl": 4130,
      "fuelConsumedGallons": 1.091,
      "maxSpeedMph": 42.1,
      "averageSpeedMph": 15.9,
      "safetyEvents": []
    },
    {
      "id": "trip_49375627_20250219_6751",
      "vehicleId": "49375627",
      "driverId": "20000006",
      "startMs": 1739959560000,
      "endMs": 1739961420000,
      "startAddress": "3588 Margaret Creek Suite 580",
      "endAddress": "4468 Benjamin Islands",
      "startCoords": {
        "latitude": 39.714562,
        "longitude": -104.931268
      },
      "endCoords": {
        "latitude": 39.749374,
        "longitude": -105.069258
      },
      "distanceMeters": 10221.6,
      "durationMs": 1860000,
      "drivingDurationMs": 1414090,
      "idlingDurationMs": 445910,
      "fuelConsumedMl": 462,
      "fuelConsumedGallons": 0.122,
      "maxSpeedMph": 37.6,
      "averageSpeedMph": 12.3,
      "safetyEvents": []
    },
    {
      "id": "trip_49375627_20250219_6781",
      "vehicleId": "49375627",
      "driverId": "20000018",
      "startMs": 1739975947000,
      "endMs": 1739986149000,
      "startAddress": "888 Hahn Courts Apt. 808",
      "endAddress": "238 Jennifer Shoals",
      "startCoords": {
        "latitude": 39.738317,
        "longitude": -105.048051
      },
      "endCoords": {
        "latitude": 39.695366,
        "longitude": -105.082152
      },
      "distanceMeters": 82293.6,
      "durationMs": 10202000,
      "drivingDurationMs": 8599689,
      "idlingDurationMs": 1602311,
      "fuelConsumedMl": 3721,
      "fuelConsumedGallons": 0.983,
      "maxSpeedMph": 42.7,
      "averageSpeedMph": 18.0,
      "safetyEvents": []
    },
    {
      "id": "trip_49375627_20250219_6809",
      "vehicleId": "49375627",
      "driverId": "20000001",
      "startMs": 1739988313000,
      "endMs": 1739989873000,
      "startAddress": "0971 Hill Ridge",
      "endAddress": "707 Donald Greens",
      "startCoords": {
        "latitude": 39.73967,
        "longitude": -105.000587
      },
      "endCoords": {
        "latitude": 39.772796,
        "longitude": -105.029172
      },
      "distanceMeters": 11956.0,
      "durationMs": 1560000,
      "drivingDurationMs": 1269842,
      "idlingDurationMs": 290158,
      "fuelConsumedMl": 541,
      "fuelConsumedGallons": 0.143,
      "maxSpeedMph": 45.2,
      "averageSpeedMph": 17.1,
      "safetyEvents": []
    },
    {
      "id": "trip_49375627_20250219_6838",
      "vehicleId": "49375627",
      "driverId": "20000004",
      "startMs": 1740005490000,
      "endMs": 1740014312000,
      "startAddress": "680 Benson Brooks",
      "endAddress": "75216 Nathan Branch",
      "startCoords": {
        "latitude": 39.721502,
        "longitude": -104.901217
      },
      "endCoords": {
        "latitude": 39.760296,
        "longitude": -104.990724
      },
      "distanceMeters": 64601.7,
      "durationMs": 8822000,
      "drivingDurationMs": 7656860,
      "idlingDurationMs": 1165140,
      "fuelConsumedMl": 2922,
      "fuelConsumedGallons": 0.772,
      "maxSpeedMph": 44.8,
      "averageSpeedMph": 16.4,
      "safetyEvents": []
    },
    {
      "id": "trip_49375627_20250220_6867",
      "vehicleId": "49375627",
      "driverId": "20000018",
      "startMs": 1740023007000,
      "endMs": 1740025347000,
      "startAddress": "21157 Mary Inlet",
      "endAddress": "033 Amber Ridge Apt. 135",
      "startCoords": {
        "latitude": 39.767256,
        "longitude": -104.97326
      },
      "endCoords": {
        "latitude": 39.78799,
        "longitude": -104.98396
      },
      "distanceMeters": 18580.0,
      "durationMs": 2340000,
      "drivingDurationMs": 1824525,
      "idlingDurationMs": 515475,
      "fuelConsumedMl": 840,
      "fuelConsumedGallons": 0.222,
      "maxSpeedMph": 37.9,
      "averageSpeedMph": 17.8,
      "safetyEvents": []
    },
    {
      "id": "trip_49375627_20250220_6895",
      "vehicleId": "49375627",
      "driverId": "20000019",
      "startMs": 1740040634000,
      "endMs": 1740042254000,
      "startAddress": "838 Oneal Courts",
      "endAddress": "724 Deleon Turnpike Apt. 035",
      "startCoords": {
        "latitude": 39.819241,
        "longitude": -104.926413
      },
      "endCoords": {
        "latitude": 39.79982,
        "longitude": -105.070382
      },
      "distanceMeters": 12799.4,
      "durationMs": 1620000,
      "drivingDurationMs": 1434862,
      "idlingDurationMs": 185138,
      "fuelConsumedMl": 579,
      "fuelConsumedGallons": 0.153,
      "maxSpeedMph": 32.2,
      "averageSpeedMph": 17.7,
      "safetyEvents": []
    },
    {
      "id": "trip_49375627_20250220_6928",
      "vehicleId": "49375627",
      "driverId": "20000018",
      "startMs": 1740054051000,
      "endMs": 1740056391000,
      "startAddress": "7595 Joshua Drives Suite 260",
      "endAddress": "35236 James Causeway",
      "startCoords": {
        "latitude": 39.700875,
        "longitude": -104.934303
      },
      "endCoords": {
        "latitude": 39.797825,
        "longitude": -104.974002
      },
      "distanceMeters": 12907.2,
      "durationMs": 2340000,
      "drivingDurationMs": 1767829,
      "idlingDurationMs": 572171,
      "fuelConsumedMl": 583,
      "fuelConsumedGallons": 0.154,
      "maxSpeedMph": 33.9,
      "averageSpeedMph": 12.3,
      "safetyEvents": []
    },
    {
      "id": "trip_49375627_20250220_6956",
      "vehicleId": "49375627",
      "driverId": "20000022",
      "startMs": 1740065907000,
      "endMs": 1740072724000,
      "startAddress": "844 Stephanie Lodge Apt. 082",
      "endAddress": "733 David Circle",
      "startCoords": {
        "latitude": 39.701337,
        "longitude": -104.913012
      },
      "endCoords": {
        "latitude": 39.789448,
        "longitude": -104.927214
      },
      "distanceMeters": 52573.9,
      "durationMs": 6817000,
      "drivingDurationMs": 5433049,
      "idlingDurationMs": 1383951,
      "fuelConsumedMl": 2377,
      "fuelConsumedGallons": 0.628,
      "maxSpeedMph": 43.0,
      "averageSpeedMph": 17.3,
      "safetyEvents": []
    },
    {
      "id": "trip_49375627_20250220_6984",
      "vehicleId": "49375627",
      "driverId": "20000020",
      "startMs": 1740078384000,
      "endMs": 1740080484000,
      "startAddress": "5701 Roberson Turnpike Apt. 554",
      "endAddress": "301 Matthew Junction",
      "startCoords": {
        "latitude": 39.81207,
        "longitude": -104.919489
      },
      "endCoords": {
        "latitude": 39.761487,
        "longitude": -105.003503
      },
      "distanceMeters": 14522.7,
      "durationMs": 2100000,
      "drivingDurationMs": 1589184,
      "idlingDurationMs": 510816,
      "fuelConsumedMl": 659,
      "fuelConsumedGallons": 0.174,
      "maxSpeedMph": 41.7,
      "averageSpeedMph": 15.5,
      "safetyEvents": []
    },
    {
      "id": "trip_49375627_20250220_7013",
      "vehicleId": "49375627",
      "driverId": "20000011",
      "startMs": 1740091140000,
      "endMs": 1740099491000,
      "startAddress": "89839 Michelle Mountain",
      "endAddress": "77631 Martin Villages Suite 586",
      "startCoords": {
        "latitude": 39.8081,
        "longitude": -105.00622
      },
      "endCoords": {
        "latitude": 39.696041,
        "longitude": -105.079965
      },
      "distanceMeters": 62142.6,
      "durationMs": 8351000,
      "drivingDurationMs": 7450345,
      "idlingDurationMs": 900655,
      "fuelConsumedMl": 2813,
      "fuelConsumedGallons": 0.743,
      "maxSpeedMph": 45.8,
      "averageSpeedMph": 16.6,
      "safetyEvents": []
    },
    {
      "id": "trip_49375627_20250221_7043",
      "vehicleId": "49375627",
      "driverId": "20000020",
      "startMs": 1740113403000,
      "endMs": 1740118896000,
      "startAddress": "41040 Rose Light Apt. 021",
      "endAddress": "3717 Williamson Spurs",
      "startCoords": {
        "latitude": 39.817857,
        "longitude": -104.943896
      },
      "endCoords": {
        "latitude": 39.769784,
        "longitude": -105.08043
      },
      "distanceMeters": 40835.5,
      "durationMs": 5493000,
      "drivingDurationMs": 4160646,
      "idlingDurationMs": 1332354,
      "fuelConsumedMl": 1847,
      "fuelConsumedGallons": 0.488,
      "maxSpeedMph": 46.1,
      "averageSpeedMph": 16.6,
      "safetyEvents": []
    },
    {
      "id": "trip_49375627_20250221_7071",
      "vehicleId": "49375627",
      "driverId": "20000015",
      "startMs": 1740129427000,
      "endMs": 1740133436000,
      "startAddress": "66785 Erickson Lock",
      "endAddress": "55715 Palmer Port Apt. 349",
      "startCoords": {
        "latitude": 39.799858,
        "longitude": -104.908003
      },
      "endCoords": {
        "latitude": 39.760283,
        "longitude": -105.004807
      },
      "distanceMeters": 20889.4,
      "durationMs": 4009000,
      "drivingDurationMs": 3190105,
      "idlingDurationMs": 818895,
      "fuelConsumedMl": 946,
      "fuelConsumedGallons": 0.25,
      "maxSpeedMph": 35.2,
      "averageSpeedMph": 11.7,
      "safetyEvents": []
    },
    {
      "id": "trip_49375627_20250221_7100",
      "vehicleId": "49375627",
      "driverId": "20000013",
      "startMs": 1740146994000,
      "endMs": 1740148854000,
      "startAddress": "590 Ramirez Falls",
      "endAddress": "51574 Conley Forest Suite 678",
      "startCoords": {
        "latitude": 39.818836,
        "longitude": -105.084317
      },
      "endCoords": {
        "latitude": 39.810011,
        "longitude": -104.959796
      },
      "distanceMeters": 15110.3,
      "durationMs": 1860000,
      "drivingDurationMs": 1599029,
      "idlingDurationMs": 260971,
      "fuelConsumedMl": 685,
      "fuelConsumedGallons": 0.181,
      "maxSpeedMph": 39.3,
      "averageSpeedMph": 18.2,
      "safetyEvents": []
    },
    {
      "id": "trip_49375627_20250221_7129",
      "vehicleId": "49375627",
      "driverId": "20000020",
      "startMs": 1740160387000,
      "endMs": 1740169629000,
      "startAddress": "759 Johnson Locks",
      "endAddress": "07387 Edward Stream",
      "startCoords": {
        "latitude": 39.71682,
        "longitude": -105.009993
      },
      "endCoords": {
        "latitude": 39.761043,
        "longitude": -104.984506
      },
      "distanceMeters": 58181.9,
      "durationMs": 9242000,
      "drivingDurationMs": 8076367,
      "idlingDurationMs": 1165633,
      "fuelConsumedMl": 2631,
      "fuelConsumedGallons": 0.695,
      "maxSpeedMph": 39.5,
      "averageSpeedMph": 14.1,
      "safetyEvents": []
    },
    {
      "id": "trip_49375627_20250221_7156",
      "vehicleId": "49375627",
      "driverId": "20000010",
      "startMs": 1740173882000,
      "endMs": 1740175322000,
      "startAddress": "769 Roberts Unions",
      "endAddress": "787 Cohen Key",
      "startCoords": {
        "latitude": 39.694182,
        "longitude": -105.082084
      },
      "endCoords": {
        "latitude": 39.780384,
        "longitude": -105.070034
      },
      "distanceMeters": 9045.0,
      "durationMs": 1440000,
      "drivingDurationMs": 1125287,
      "idlingDurationMs": 314713,
      "fuelConsumedMl": 409,
      "fuelConsumedGallons": 0.108,
      "maxSpeedMph": 32.9,
      "averageSpeedMph": 14.1,
      "safetyEvents": []
    },
    {
      "id": "trip_49375627_20250222_7187",
      "vehicleId": "49375627",
      "driverId": "20000020",
      "startMs": 1740192626000,
      "endMs": 1740199702000,
      "startAddress": "07536 Lydia Tunnel Suite 319",
      "endAddress": "565 Loretta Divide",
      "startCoords": {
        "latitude": 39.771052,
        "longitude": -104.999657
      },
      "endCoords": {
        "latitude": 39.740012,
        "longitude": -104.963663
      },
      "distanceMeters": 56242.5,
      "durationMs": 7076000,
      "drivingDurationMs": 5630663,
      "idlingDurationMs": 1445337,
      "fuelConsumedMl": 2544,
      "fuelConsumedGallons": 0.672,
      "maxSpeedMph": 43.0,
      "averageSpeedMph": 17.8,
      "safetyEvents": []
    },
    {
      "id": "trip_49375627_20250222_7218",
      "vehicleId": "49375627",
      "driverId": "20000003",
      "startMs": 1740211587000,
      "endMs": 1740213027000,
      "startAddress": "82840 Laura Port",
      "endAddress": "607 Mercado Manors",
      "startCoords": {
        "latitude": 39.799005,
        "longitude": -105.056148
      },
      "endCoords": {
        "latitude": 39.768285,
        "longitude": -105.018983
      },
      "distanceMeters": 10710.3,
      "durationMs": 1440000,
      "drivingDurationMs": 1100727,
      "idlingDurationMs": 339273,
      "fuelConsumedMl": 485,
      "fuelConsumedGallons": 0.128,
      "maxSpeedMph": 37.3,
      "averageSpeedMph": 16.6,
      "safetyEvents": []
    },
    {
      "id": "trip_49375627_20250222_7246",
      "vehicleId": "49375627",
      "driverId": "20000009",
      "startMs": 1740227417000,
      "endMs": 1740229697000,
      "startAddress": "39068 Calderon Villages",
      "endAddress": "5276 Spence Shoal",
      "startCoords": {
        "latitude": 39.780951,
        "longitude": -105.024887
      },
      "endCoords": {
        "latitude": 39.734817,
        "longitude": -105.06986
      },
      "distanceMeters": 14564.4,
      "durationMs": 2280000,
      "drivingDurationMs": 1742153,
      "idlingDurationMs": 537847,
      "fuelConsumedMl": 659,
      "fuelConsumedGallons": 0.174,
      "maxSpeedMph": 36.2,
      "averageSpeedMph": 14.3,
      "safetyEvents": []
    },
    {
      "id": "trip_49375627_20250222_7284",
      "vehicleId": "49375627",
      "driverId": "20000011",
      "startMs": 1740248165000,
      "endMs": 1740250325000,
      "startAddress": "1238 Holloway Causeway Apt. 390",
      "endAddress": "873 Kidd Curve",
      "startCoords": {
        "latitude": 39.727828,
        "longitude": -105.05405
      },
      "endCoords": {
        "latitude": 39.689486,
        "longitude": -105.03062
      },
      "distanceMeters": 17034.1,
      "durationMs": 2160000,
      "drivingDurationMs": 1749308,
      "idlingDurationMs": 410692,
      "fuelConsumedMl": 772,
      "fuelConsumedGallons": 0.204,
      "maxSpeedMph": 45.4,
      "averageSpeedMph": 17.6,
      "safetyEvents": []
    },
    {
      "id": "trip_49375627_20250222_7311",
      "vehicleId": "49375627",
      "driverId": "20000019",
      "startMs": 1740266742000,
      "endMs": 1740269022000,
      "startAddress": "6386 Brandon Throughway",
      "endAddress": "59386 Hannah Loaf",
      "startCoords": {
        "latitude": 39.824418,
        "longitude": -105.030169
      },
      "endCoords": {
        "latitude": 39.709937,
        "longitude": -104.931914
      },
      "distanceMeters": 19317.4,
      "durationMs": 2280000,
      "drivingDurationMs": 2005140,
      "idlingDurationMs": 274860,
      "fuelConsumedMl": 874,
      "fuelConsumedGallons": 0.231,
      "maxSpeedMph": 42.7,
      "averageSpeedMph": 19.0,
      "safetyEvents": []
    },
    {
      "id": "trip_49375627_20250223_7339",
      "vehicleId": "49375627",
      "driverId": "20000016",
      "startMs": 1740287271000,
      "endMs": 1740289748000,
      "startAddress": "080 Ashlee Station Apt. 725",
      "endAddress": "481 Robert Stream Suite 602",
      "startCoords": {
        "latitude": 39.766751,
        "longitude": -104.958871
      },
      "endCoords": {
        "latitude": 39.756664,
        "longitude": -104.997654
      },
      "distanceMeters": 13690.4,
      "durationMs": 2477000,
      "drivingDurationMs": 2171261,
      "idlingDurationMs": 305739,
      "fuelConsumedMl": 621,
      "fuelConsumedGallons": 0.164,
      "maxSpeedMph": 30.9,
      "averageSpeedMph": 12.4,
      "safetyEvents": []
    },
    {
      "id": "trip_49375627_20250223_7367",
      "vehicleId": "49375627",
      "driverId": "20000006",
      "startMs": 1740307866000,
      "endMs": 1740310326000,
      "startAddress": "692 Angela Ways",
      "endAddress": "50434 Smith Mountains Suite 590",
      "startCoords": {
        "latitude": 39.730749,
        "longitude": -105.077901
      },
      "endCoords": {
        "latitude": 39.738416,
        "longitude": -105.032473
      },
      "distanceMeters": 16168.0,
      "durationMs": 2460000,
      "drivingDurationMs": 1936475,
      "idlingDurationMs": 523525,
      "fuelConsumedMl": 731,
      "fuelConsumedGallons": 0.193,
      "maxSpeedMph": 39.8,
      "averageSpeedMph": 14.7,
      "safetyEvents": []
    },
    {
      "id": "trip_49375627_20250223_7398",
      "vehicleId": "49375627",
      "driverId": "20000006",
      "startMs": 1740335445000,
      "endMs": 1740339034000,
      "startAddress": "8887 Dillon Mews Apt. 789",
      "endAddress": "44550 Kelly Ville Suite 898",
      "startCoords": {
        "latitude": 39.788352,
        "longitude": -104.95203
      },
      "endCoords": {
        "latitude": 39.752934,
        "longitude": -105.056569
      },
      "distanceMeters": 17941.6,
      "durationMs": 3589000,
      "drivingDurationMs": 2844504,
      "idlingDurationMs": 744496,
      "fuelConsumedMl": 810,
      "fuelConsumedGallons": 0.214,
      "maxSpeedMph": 33.1,
      "averageSpeedMph": 11.2,
      "safetyEvents": []
    },
    {
      "id": "trip_49375627_20250224_7426",
      "vehicleId": "49375627",
      "driverId": "20000017",
      "startMs": 1740374868000,
      "endMs": 1740376608000,
      "startAddress": "01160 Evans Tunnel",
      "endAddress": "87373 Johnson Cliff Apt. 326",
      "startCoords": {
        "latitude": 39.802919,
        "longitude": -104.933173
      },
      "endCoords": {
        "latitude": 39.77027,
        "longitude": -104.963438
      },
      "distanceMeters": 15119.2,
      "durationMs": 1740000,
      "drivingDurationMs": 1465092,
      "idlingDurationMs": 274908,
      "fuelConsumedMl": 685,
      "fuelConsumedGallons": 0.181,
      "maxSpeedMph": 42.4,
      "averageSpeedMph": 19.4,
      "safetyEvents": []
    },
    {
      "id": "trip_49375627_20250224_7456",
      "vehicleId": "49375627",
      "driverId": "20000005",
      "startMs": 1740395762000,
      "endMs": 1740402526000,
      "startAddress": "93026 Castro Mountains",
      "endAddress": "340 Moore Crescent",
      "startCoords": {
        "latitude": 39.763568,
        "longitude": -104.955134
      },
      "endCoords": {
        "latitude": 39.790189,
        "longitude": -105.034411
      },
      "distanceMeters": 41874.8,
      "durationMs": 6764000,
      "drivingDurationMs": 5901597,
      "idlingDurationMs": 862403,
      "fuelConsumedMl": 1893,
      "fuelConsumedGallons": 0.5,
      "maxSpeedMph": 38.4,
      "averageSpeedMph": 13.8,
      "safetyEvents": []
    },
    {
      "id": "trip_49375627_20250224_7487",
      "vehicleId": "49375627",
      "driverId": "20000005",
      "startMs": 1740413729000,
      "endMs": 1740417654000,
      "startAddress": "57032 Miranda Road Suite 259",
      "endAddress": "130 Williams Brook",
      "startCoords": {
        "latitude": 39.742184,
        "longitude": -105.007054
      },
      "endCoords": {
        "latitude": 39.736916,
        "longitude": -105.049147
      },
      "distanceMeters": 27356.7,
      "durationMs": 3925000,
      "drivingDurationMs": 3387128,
      "idlingDurationMs": 537872,
      "fuelConsumedMl": 1238,
      "fuelConsumedGallons": 0.327,
      "maxSpeedMph": 44.5,
      "averageSpeedMph": 15.6,
      "safetyEvents": []
    },
    {
      "id": "trip_49375627_20250224_7518",
      "vehicleId": "49375627",
      "driverId": "20000011",
      "startMs": 1740425977000,
      "endMs": 1740428351000,
      "startAddress": "85300 Gutierrez Point",
      "endAddress": "776 Karen Summit",
      "startCoords": {
        "latitude": 39.748766,
        "longitude": -104.97179
      },
      "endCoords": {
        "latitude": 39.697718,
        "longitude": -105.001245
      },
      "distanceMeters": 13492.4,
      "durationMs": 2374000,
      "drivingDurationMs": 1860421,
      "idlingDurationMs": 513579,
      "fuelConsumedMl": 609,
      "fuelConsumedGallons": 0.161,
      "maxSpeedMph": 31.2,
      "averageSpeedMph": 12.7,
      "safetyEvents": []
    },
    {
      "id": "trip_49375627_20250225_7545",
      "vehicleId": "49375627",
      "driverId": "20000021",
      "startMs": 1740443755000,
      "endMs": 1740445495000,
      "startAddress": "86632 Nunez Green Suite 287",
      "endAddress": "327 Erin Hills",
      "startCoords": {
        "latitude": 39.705986,
        "longitude": -104.979207
      },
      "endCoords": {
        "latitude": 39.779395,
        "longitude": -104.933257
      },
      "distanceMeters": 12014.8,
      "durationMs": 1740000,
      "drivingDurationMs": 1536628,
      "idlingDurationMs": 203372,
      "fuelConsumedMl": 545,
      "fuelConsumedGallons": 0.144,
      "maxSpeedMph": 43.4,
      "averageSpeedMph": 15.4,
      "safetyEvents": []
    },
    {
      "id": "trip_49375627_20250225_7578",
      "vehicleId": "49375627",
      "driverId": "20000018",
      "startMs": 1740468407000,
      "endMs": 1740470747000,
      "startAddress": "516 Bradley Junction Suite 080",
      "endAddress": "59625 Billy Springs",
      "startCoords": {
        "latitude": 39.703921,
        "longitude": -105.049603
      },
      "endCoords": {
        "latitude": 39.685542,
        "longitude": -104.945525
      },
      "distanceMeters": 15215.7,
      "durationMs": 2340000,
      "drivingDurationMs": 2098949,
      "idlingDurationMs": 241051,
      "fuelConsumedMl": 689,
      "fuelConsumedGallons": 0.182,
      "maxSpeedMph": 31.6,
      "averageSpeedMph": 14.5,
      "safetyEvents": []
    },
    {
      "id": "trip_49375627_20250225_7606",
      "vehicleId": "49375627",
      "driverId": "20000012",
      "startMs": 1740481603000,
      "endMs": 1740489508000,
      "startAddress": "125 Hernandez Ports",
      "endAddress": "58603 Andrea Cliff Suite 094",
      "startCoords": {
        "latitude": 39.824967,
        "longitude": -104.99082
      },
      "endCoords": {
        "latitude": 39.723234,
        "longitude": -105.046292
      },
      "distanceMeters": 46120.1,
      "durationMs": 7905000,
      "drivingDurationMs": 6998011,
      "idlingDurationMs": 906989,
      "fuelConsumedMl": 2086,
      "fuelConsumedGallons": 0.551,
      "maxSpeedMph": 37.9,
      "averageSpeedMph": 13.1,
      "safetyEvents": []
    },
    {
      "id": "trip_49375627_20250225_7635",
      "vehicleId": "49375627",
      "driverId": "20000018",
      "startMs": 1740498976000,
      "endMs": 1740503438000,
      "startAddress": "95769 Steven Radial",
      "endAddress": "603 Hill Stream Suite 692",
      "startCoords": {
        "latitude": 39.807254,
        "longitude": -104.967194
      },
      "endCoords": {
        "latitude": 39.771638,
        "longitude": -104.913884
      },
      "distanceMeters": 25974.8,
      "durationMs": 4462000,
      "drivingDurationMs": 3505984,
      "idlingDurationMs": 956016,
      "fuelConsumedMl": 1173,
      "fuelConsumedGallons": 0.31,
      "maxSpeedMph": 43.6,
      "averageSpeedMph": 13.0,
      "safetyEvents": []
    },
    {
      "id": "trip_49375627_20250225_7659",
      "vehicleId": "49375627",
      "driverId": "20000017",
      "startMs": 1740511023000,
      "endMs": 1740513303000,
      "startAddress": "10319 Erica Cape",
      "endAddress": "8330 Carson Isle Suite 010",
      "startCoords": {
        "latitude": 39.778982,
        "longitude": -105.041529
      },
      "endCoords": {
        "latitude": 39.806117,
        "longitude": -104.954494
      },
      "distanceMeters": 17151.7,
      "durationMs": 2280000,
      "drivingDurationMs": 1887572,
      "idlingDurationMs": 392428,
      "fuelConsumedMl": 776,
      "fuelConsumedGallons": 0.205,
      "maxSpeedMph": 37.5,
      "averageSpeedMph": 16.8,
      "safetyEvents": []
    },
    {
      "id": "trip_49375627_20250225_7686",
      "vehicleId": "49375627",
      "driverId": "20000002",
      "startMs": 1740527977000,
      "endMs": 1740529897000,
      "startAddress": "38302 Richard Villages",
      "endAddress": "79817 Brown Island Suite 531",
      "startCoords": {
        "latitude": 39.731526,
        "longitude": -105.085061
      },
      "endCoords": {
        "latitude": 39.72007,
        "longitude": -105.07457
      },
      "distanceMeters": 15637.2,
      "durationMs": 1920000,
      "drivingDurationMs": 1693829,
      "idlingDurationMs": 226171,
      "fuelConsumedMl": 708,
      "fuelConsumedGallons": 0.187,
      "maxSpeedMph": 45.2,
      "averageSpeedMph": 18.2,
      "safetyEvents": []
    },
    {
      "id": "trip_49375627_20250226_7715",
      "vehicleId": "49375627",
      "driverId": "20000013",
      "startMs": 1740547115000,
      "endMs": 1740549155000,
      "startAddress": "679 Luis Lakes Suite 065",
      "endAddress": "13655 Petty Square",
      "startCoords": {
        "latitude": 39.798072,
        "longitude": -104.920096
      },
      "endCoords": {
        "latitude": 39.757212,
        "longitude": -104.970766
      },
      "distanceMeters": 17315.7,
      "durationMs": 2040000,
      "drivingDurationMs": 1752089,
      "idlingDurationMs": 287911,
      "fuelConsumedMl": 784,
      "fuelConsumedGallons": 0.207,
      "maxSpeedMph": 47.1,
      "averageSpeedMph": 19.0,
      "safetyEvents": []
    },
    {
      "id": "trip_49375627_20250226_7742",
      "vehicleId": "49375627",
      "driverId": "20000012",
      "startMs": 1740560642000,
      "endMs": 1740569133000,
      "startAddress": "07788 Karen Rapid",
      "endAddress": "7597 White Centers Apt. 944",
      "startCoords": {
        "latitude": 39.701947,
        "longitude": -105.083017
      },
      "endCoords": {
        "latitude": 39.788725,
        "longitude": -104.990782
      },
      "distanceMeters": 61332.5,
      "durationMs": 8491000,
      "drivingDurationMs": 7052635,
      "idlingDurationMs": 1438365,
      "fuelConsumedMl": 2775,
      "fuelConsumedGallons": 0.733,
      "maxSpeedMph": 38.1,
      "averageSpeedMph": 16.2,
      "safetyEvents": []
    },
    {
      "id": "trip_49375627_20250226_7771",
      "vehicleId": "49375627",
      "driverId": "20000013",
      "startMs": 1740577111000,
      "endMs": 1740579365000,
      "startAddress": "89985 Daniel Trace Apt. 226",
      "endAddress": "6161 Ashley Inlet Apt. 756",
      "startCoords": {
        "latitude": 39.686119,
        "longitude": -104.955559
      },
      "endCoords": {
        "latitude": 39.725944,
        "longitude": -105.076048
      },
      "distanceMeters": 19062.3,
      "durationMs": 2254000,
      "drivingDurationMs": 1870150,
      "idlingDurationMs": 383850,
      "fuelConsumedMl": 863,
      "fuelConsumedGallons": 0.228,
      "maxSpeedMph": 43.4,
      "averageSpeedMph": 18.9,
      "safetyEvents": []
    },
    {
      "id": "trip_49375627_20250226_7802",
      "vehicleId": "49375627",
      "driverId": "20000021",
      "startMs": 1740589326000,
      "endMs": 1740595202000,
      "startAddress": "454 Porter Trail",
      "endAddress": "018 Holly Locks Suite 645",
      "startCoords": {
        "latitude": 39.708686,
        "longitude": -104.998277
      },
      "endCoords": {
        "latitude": 39.820652,
        "longitude": -104.913659
      },
      "distanceMeters": 47711.3,
      "durationMs": 5876000,
      "drivingDurationMs": 5223006,
      "idlingDurationMs": 652994,
      "fuelConsumedMl": 2158,
      "fuelConsumedGallons": 0.57,
      "maxSpeedMph": 44.4,
      "averageSpeedMph": 18.2,
      "safetyEvents": []
    },
    {
      "id": "trip_49375627_20250226_7822",
      "vehicleId": "49375627",
      "driverId": "20000020",
      "startMs": 1740606014000,
      "endMs": 1740607694000,
      "startAddress": "31019 Cooper Pike Suite 360",
      "endAddress": "5828 Baker Spring Suite 634",
      "startCoords": {
        "latitude": 39.711925,
        "longitude": -105.028968
      },
      "endCoords": {
        "latitude": 39.801511,
        "longitude": -105.081917
      },
      "distanceMeters": 14678.7,
      "durationMs": 1680000,
      "drivingDurationMs": 1480777,
      "idlingDurationMs": 199223,
      "fuelConsumedMl": 662,
      "fuelConsumedGallons": 0.175,
      "maxSpeedMph": 44.7,
      "averageSpeedMph": 19.5,
      "safetyEvents": []
    },
    {
      "id": "trip_49375627_20250227_7849",
      "vehicleId": "49375627",
      "driverId": "20000004",
      "startMs": 1740622925000,
      "endMs": 1740625565000,
      "startAddress": "35321 Martinez Mall",
      "endAddress": "82281 Weber Village",
      "startCoords": {
        "latitude": 39.82578,
        "longitude": -104.931852
      },
      "endCoords": {
        "latitude": 39.793045,
        "longitude": -105.021619
      },
      "distanceMeters": 20289.1,
      "durationMs": 2640000,
      "drivingDurationMs": 2014106,
      "idlingDurationMs": 625894,
      "fuelConsumedMl": 916,
      "fuelConsumedGallons": 0.242,
      "maxSpeedMph": 32.1,
      "averageSpeedMph": 17.2,
      "safetyEvents": []
    },
    {
      "id": "trip_49375627_20250227_7876",
      "vehicleId": "49375627",
      "driverId": "20000010",
      "startMs": 1740639982000,
      "endMs": 1740644873000,
      "startAddress": "4258 Heather Cape",
      "endAddress": "132 James Locks",
      "startCoords": {
        "latitude": 39.762414,
        "longitude": -105.065965
      },
      "endCoords": {
        "latitude": 39.76051,
        "longitude": -104.910487
      },
      "distanceMeters": 31949.5,
      "durationMs": 4891000,
      "drivingDurationMs": 4165277,
      "idlingDurationMs": 725723,
      "fuelConsumedMl": 1446,
      "fuelConsumedGallons": 0.382,
      "maxSpeedMph": 38.6,
      "averageSpeedMph": 14.6,
      "safetyEvents": []
    },
    {
      "id": "trip_49375627_20250227_7905",
      "vehicleId": "49375627",
      "driverId": "20000016",
      "startMs": 1740654019000,
      "endMs": 1740656239000,
      "startAddress": "721 Gina Drive Apt. 602",
      "endAddress": "6410 Michael Lakes Apt. 683",
      "startCoords": {
        "latitude": 39.783331,
        "longitude": -105.015105
      },
      "endCoords": {
        "latitude": 39.730837,
        "longitude": -104.92637
      },
      "distanceMeters": 13325.5,
      "durationMs": 2220000,
      "drivingDurationMs": 1841820,
      "idlingDurationMs": 378180,
      "fuelConsumedMl": 602,
      "fuelConsumedGallons": 0.159,
      "maxSpeedMph": 44.7,
      "averageSpeedMph": 13.4,
      "safetyEvents": []
    },
    {
      "id": "trip_49375627_20250227_7935",
      "vehicleId": "49375627",
      "driverId": "20000016",
      "startMs": 1740669047000,
      "endMs": 1740680053000,
      "startAddress": "4594 Ellis Canyon Apt. 056",
      "endAddress": "78529 Henderson Fords",
      "startCoords": {
        "latitude": 39.715023,
        "longitude": -105.07976
      },
      "endCoords": {
        "latitude": 39.750904,
        "longitude": -104.953062
      },
      "distanceMeters": 71002.5,
      "durationMs": 11006000,
      "drivingDurationMs": 8628846,
      "idlingDurationMs": 2377154,
      "fuelConsumedMl": 3210,
      "fuelConsumedGallons": 0.848,
      "maxSpeedMph": 42.1,
      "averageSpeedMph": 14.4,
      "safetyEvents": []
    },
    {
      "id": "trip_49375627_20250227_7963",
      "vehicleId": "49375627",
      "driverId": "20000007",
      "startMs": 1740684128000,
      "endMs": 1740688501000,
      "startAddress": "2228 Patterson Fork Apt. 881",
      "endAddress": "518 Lamb Knoll Apt. 982",
      "startCoords": {
        "latitude": 39.688575,
        "longitude": -105.012747
      },
      "endCoords": {
        "latitude": 39.702648,
        "longitude": -105.012683
      },
      "distanceMeters": 34408.6,
      "durationMs": 4373000,
      "drivingDurationMs": 3769827,
      "idlingDurationMs": 603173,
      "fuelConsumedMl": 1556,
      "fuelConsumedGallons": 0.411,
      "maxSpeedMph": 44.8,
      "averageSpeedMph": 17.6,
      "safetyEvents": []
    },
    {
      "id": "trip_49375627_20250227_7984",
      "vehicleId": "49375627",
      "driverId": "20000020",
      "startMs": 1740695866000,
      "endMs": 1740701699000,
      "startAddress": "86874 Jonathan Ridges",
      "endAddress": "2557 Michael Divide Apt. 933",
      "startCoords": {
        "latitude": 39.821902,
        "longitude": -104.903029
      },
      "endCoords": {
        "latitude": 39.77178,
        "longitude": -104.981735
      },
      "distanceMeters": 53196.6,
      "durationMs": 5833000,
      "drivingDurationMs": 5192929,
      "idlingDurationMs": 640071,
      "fuelConsumedMl": 2408,
      "fuelConsumedGallons": 0.636,
      "maxSpeedMph": 43.1,
      "averageSpeedMph": 20.4,
      "safetyEvents": []
    },
    {
      "id": "trip_49375627_20250228_8013",
      "vehicleId": "49375627",
      "driverId": "20000020",
      "startMs": 1740717711000,
      "endMs": 1740723169000,
      "startAddress": "99439 Jensen Coves",
      "endAddress": "93035 Maria Parkway",
      "startCoords": {
        "latitude": 39.709233,
        "longitude": -105.065024
      },
      "endCoords": {
        "latitude": 39.758103,
        "longitude": -105.064876
      },
      "distanceMeters": 33998.1,
      "durationMs": 5458000,
      "drivingDurationMs": 4702803,
      "idlingDurationMs": 755197,
      "fuelConsumedMl": 1537,
      "fuelConsumedGallons": 0.406,
      "maxSpeedMph": 45.4,
      "averageSpeedMph": 13.9,
      "safetyEvents": []
    },
    {
      "id": "trip_49375627_20250228_8043",
      "vehicleId": "49375627",
      "driverId": "20000020",
      "startMs": 1740735058000,
      "endMs": 1740752516000,
      "startAddress": "030 Dalton Route Suite 930",
      "endAddress": "86277 Jonathan Manors Suite 331",
      "startCoords": {
        "latitude": 39.746202,
        "longitude": -104.969383
      },
      "endCoords": {
        "latitude": 39.757058,
        "longitude": -104.909097
      },
      "distanceMeters": 110926.9,
      "durationMs": 17458000,
      "drivingDurationMs": 14929735,
      "idlingDurationMs": 2528265,
      "fuelConsumedMl": 5019,
      "fuelConsumedGallons": 1.326,
      "maxSpeedMph": 31.2,
      "averageSpeedMph": 14.2,
      "safetyEvents": []
    },
    {
      "id": "trip_49375627_20250228_8075",
      "vehicleId": "49375627",
      "driverId": "20000015",
      "startMs": 1740753004000,
      "endMs": 1740754324000,
      "startAddress": "59384 Michelle Mews",
      "endAddress": "991 Johnson Radial",
      "startCoords": {
        "latitude": 39.711848,
        "longitude": -104.964497
      },
      "endCoords": {
        "latitude": 39.790799,
        "longitude": -105.027217
      },
      "distanceMeters": 8602.4,
      "durationMs": 1320000,
      "drivingDurationMs": 1119881,
      "idlingDurationMs": 200119,
      "fuelConsumedMl": 390,
      "fuelConsumedGallons": 0.103,
      "maxSpeedMph": 46.1,
      "averageSpeedMph": 14.6,
      "safetyEvents": []
    },
    {
      "id": "trip_49375627_20250228_8101",
      "vehicleId": "49375627",
      "driverId": "20000011",
      "startMs": 1740765455000,
      "endMs": 1740768579000,
      "startAddress": "875 Sanchez Stream Apt. 392",
      "endAddress": "6468 Frye Spring",
      "startCoords": {
        "latitude": 39.7312,
        "longitude": -105.053361
      },
      "endCoords": {
        "latitude": 39.816461,
        "longitude": -104.948547
      },
      "distanceMeters": 18752.8,
      "durationMs": 3124000,
      "drivingDurationMs": 2492195,
      "idlingDurationMs": 631805,
      "fuelConsumedMl": 848,
      "fuelConsumedGallons": 0.224,
      "maxSpeedMph": 43.1,
      "averageSpeedMph": 13.4,
      "safetyEvents": []
    },