{
  "vehicleId": "49375627",
  "vehicleName": "DEN-MOTO-06",
  "month": "2025_02",
  "pagination": {
    "endCursor": "trip_49375627_20250228_008",
    "hasNextPage": false
  },
  "trips": [
    {
      "id": "trip_49375627_20250201_001",
      "vehicleId": "49375627",
      "driverId": "20000011",
      "startMs": 1738391580000,
      "endMs": 1738392514933,
      "startAddress": "7315 Gardner Flats Apt. 408",
      "endAddress": "81315 Michael Trail",
      "startCoords": {
        "latitude": 39.719228,
        "longitude": -105.086159
      },
      "endCoords": {
        "latitude": 39.772589,
        "longitude": -105.069892
      },
      "distanceMeters": 6179.2,
      "durationMs": 934933,
      "drivingDurationMs": 754574,
      "idlingDurationMs": 180359,
      "fuelConsumedMl": 280,
      "fuelConsumedGallons": 0.074,
      "maxSpeedMph": 52.9,
      "averageSpeedMph": 14.8,
      "safetyEvents": []
    },
    {
      "id": "trip_49375627_20250201_002",
      "vehicleId": "49375627",
      "driverId": "20000011",
      "startMs": 1738422900000,
      "endMs": 1738424418872,
      "startAddress": "4288 Benjamin Squares Apt. 639",
      "endAddress": "920 George Run",
      "startCoords": {
        "latitude": 39.699703,
        "longitude": -105.064703
      },
      "endCoords": {
        "latitude": 39.73871,
        "longitude": -104.986433
      },
      "distanceMeters": 13335.6,
      "durationMs": 1518872,
      "drivingDurationMs": 1322680,
      "idlingDurationMs": 196193,
      "fuelConsumedMl": 602,
      "fuelConsumedGallons": 0.159,
      "maxSpeedMph": 32.1,
      "averageSpeedMph": 19.6,
      "safetyEvents": []
    },
    {
      "id": "trip_49375627_20250201_003",
      "vehicleId": "49375627",
      "driverId": "20000011",
      "startMs": 1738433220000,
      "endMs": 1738436273346,
      "startAddress": "6023 Gentry Gardens Apt. 575",
      "endAddress": "1134 Nicholas Center Suite 077",
      "startCoords": {
        "latitude": 39.716502,
        "longitude": -104.905258
      },
      "endCoords": {
        "latitude": 39.761486,
        "longitude": -105.04265
      },
      "distanceMeters": 20116.2,
      "durationMs": 3053346,
      "drivingDurationMs": 2673352,
      "idlingDurationMs": 379995,
      "fuelConsumedMl": 908,
      "fuelConsumedGallons": 0.24,
      "maxSpeedMph": 29.9,
      "averageSpeedMph": 14.7,
      "safetyEvents": []
    },
    {
      "id": "trip_49375627_20250201_004",
      "vehicleId": "49375627",
      "driverId": "20000011",
      "startMs": 1738422240000,
      "endMs": 1738425355550,
      "startAddress": "13143 Hamilton Crossroad",
      "endAddress": "3372 Cross Ridge Apt. 667",
      "startCoords": {
        "latitude": 39.727141,
        "longitude": -104.924459
      },
      "endCoords": {
        "latitude": 39.772248,
        "longitude": -104.971451
      },
      "distanceMeters": 20780.6,
      "durationMs": 3115551,
      "drivingDurationMs": 2537556,
      "idlingDurationMs": 577995,
      "fuelConsumedMl": 939,
      "fuelConsumedGallons": 0.248,
      "maxSpeedMph": 70.3,
      "averageSpeedMph": 14.9,
      "safetyEvents": [
        {
          "type": "speeding",
          "startMs": 1738422540000,
          "maxSpeedMph": 70.3
        }
      ]
    },
    {
      "id": "trip_49375627_20250201_005",
      "vehicleId": "49375627",
      "driverId": "20000011",
      "startMs": 1738408260000,
      "endMs": 1738410917380,
      "startAddress": "31510 Anthony Alley Suite 672",
      "endAddress": "07327 Joel Groves",
      "startCoords": {
        "latitude": 39.73239,
        "longitude": -104.936173
      },
      "endCoords": {
        "latitude": 39.79309,
        "longitude": -104.979075
      },
      "distanceMeters": 19595.7,
      "durationMs": 2657380,
      "drivingDurationMs": 2142604,
      "idlingDurationMs": 514776,
      "fuelConsumedMl": 886,
      "fuelConsumedGallons": 0.234,
      "maxSpeedMph": 57.1,
      "averageSpeedMph": 16.5,
      "safetyEvents": []
    },
    {
      "id": "trip_49375627_20250201_006",
      "vehicleId": "49375627",
      "driverId": "20000011",
      "startMs": 1738396620000,
      "endMs": 1738398896972,
      "startAddress": "030 Little Dale",
      "endAddress": "4127 Warner Freeway Suite 542",
      "startCoords": {
        "latitude": 39.817789,
        "longitude": -105.036868
      },
      "endCoords": {
        "latitude": 39.688786,
        "longitude": -104.968987
      },
      "distanceMeters": 13132.6,
      "durationMs": 2276972,
      "drivingDurationMs": 1884166,
      "idlingDurationMs": 392806,
      "fuelConsumedMl": 594,
      "fuelConsumedGallons": 0.157,
      "maxSpeedMph": 36.4,
      "averageSpeedMph": 12.9,
      "safetyEvents": []
    },
    {
      "id": "trip_49375627_20250201_007",
      "vehicleId": "49375627",
      "driverId": "20000011",
      "startMs": 1738428120000,
      "endMs": 1738429357522,
      "startAddress": "998 Rogers Points Apt. 737",
      "endAddress": "895 Smith Falls Suite 740",
      "startCoords": {
        "latitude": 39.734212,
        "longitude": -104.998276
      },
      "endCoords": {
        "latitude": 39.751605,
        "longitude": -105.083314
      },
      "distanceMeters": 10489.3,
      "durationMs": 1237522,
      "drivingDurationMs": 1019621,
      "idlingDurationMs": 217902,
      "fuelConsumedMl": 473,
      "fuelConsumedGallons": 0.125,
      "maxSpeedMph": 31.2,
      "averageSpeedMph": 19.0,
      "safetyEvents": []
    },
    {
      "id": "trip_49375627_20250201_008",
      "vehicleId": "49375627",
      "driverId": "20000011",
      "startMs": 1738416180000,
      "endMs": 1738417634464,
      "startAddress": "04220 David Passage",
      "endAddress": "65443 Ritter Ports Apt. 965",
      "startCoords": {
        "latitude": 39.694008,
        "longitude": -104.927548
      },
      "endCoords": {
        "latitude": 39.786027,
        "longitude": -105.068252
      },
      "distanceMeters": 12864.2,
      "durationMs": 1454464,
      "drivingDurationMs": 1220260,
      "idlingDurationMs": 234204,
      "fuelConsumedMl": 583,
      "fuelConsumedGallons": 0.154,
      "maxSpeedMph": 33.8,
      "averageSpeedMph": 19.8,
      "safetyEvents": []
    },
    {
      "id": "trip_49375627_20250201_009",
      "vehicleId": "49375627",
      "driverId": "20000011",
      "startMs": 1738390680000,
      "endMs": 1738391482907,
      "startAddress": "764 Donald Forges",
      "endAddress": "74397 David Mews Apt. 143",
      "startCoords": {
        "latitude": 39.78951,
        "longitude": -105.043666
      },
      "endCoords": {
        "latitude": 39.74002,
        "longitude": -105.060622
      },
      "distanceMeters": 5968.5,
      "durationMs": 802907,
      "drivingDurationMs": 628616,
      "idlingDurationMs": 174291,
      "fuelConsumedMl": 269,
      "fuelConsumedGallons": 0.071,
      "maxSpeedMph": 48.8,
      "averageSpeedMph": 16.6,
      "safetyEvents": []
    },
    {
      "id": "trip_49375627_20250201_010",
      "vehicleId": "49375627",
      "driverId": "20000011",
      "startMs": 1738418640000,
      "endMs": 1738419807685,
      "startAddress": "931 Glover Walk",
      "endAddress": "3983 Gonzalez Hill",
      "startCoords": {
        "latitude": 39.817935,
        "longitude": -104.965021
      },
      "endCoords": {
        "latitude": 39.764635,
        "longitude": -104.920196
      },
      "distanceMeters": 9403.2,
      "durationMs": 1167685,
      "drivingDurationMs": 959705,
      "idlingDurationMs": 207980,
      "fuelConsumedMl": 424,
      "fuelConsumedGallons": 0.112,
      "maxSpeedMph": 28.9,
      "averageSpeedMph": 18.0,
      "safetyEvents": []
    },
    {
      "id": "trip_49375627_20250201_011",
      "vehicleId": "49375627",
      "driverId": "20000011",
      "startMs": 1738413480000,
      "endMs": 1738413825680,
      "startAddress": "3015 Hood Prairie",
      "endAddress": "90596 Jeffrey Row Suite 139",
      "startCoords": {
        "latitude": 39.729087,
        "longitude": -104.947207
      },
      "endCoords": {
        "latitude": 39.726618,
        "longitude": -104.988914
      },
      "distanceMeters": 2015.5,
      "durationMs": 345680,
      "drivingDurationMs": 206458,
      "idlingDurationMs": 139222,
      "fuelConsumedMl": 91,
      "fuelConsumedGallons": 0.024,
      "maxSpeedMph": 39.5,
      "averageSpeedMph": 13.0,
      "safetyEvents": []
    },
    {
      "id": "trip_49375627_20250201_012",
      "vehicleId": "49375627",
      "driverId": "20000011",
      "startMs": 1738405140000,
      "endMs": 1738408947501,
      "startAddress": "6838 Garcia Square",
      "endAddress": "1113 Austin Neck",
      "startCoords": {
        "latitude": 39.707965,
        "longitude": -105.012639
      },
      "endCoords": {
        "latitude": 39.743413,
        "longitude": -105.046932
      },
      "distanceMeters": 23308.3,
      "durationMs": 3807502,
      "drivingDurationMs": 3253370,
      "idlingDurationMs": 554132,
      "fuelConsumedMl": 1056,
      "fuelConsumedGallons": 0.279,
      "maxSpeedMph": 40.4,
      "averageSpeedMph": 13.7,
      "safetyEvents": []
    },
    {
      "id": "trip_49375627_20250201_013",
      "vehicleId": "49375627",
      "driverId": "20000011",
      "startMs": 1738407960000,
      "endMs": 1738409844680,
      "startAddress": "061 Cody Land",
      "endAddress": "56498 Graham Hills Suite 442",
      "startCoords": {
        "latitude": 39.81683,
        "longitude": -105.052214
      },
      "endCoords": {
        "latitude": 39.815494,
        "longitude": -104.923311
      },
      "distanceMeters": 15457.7,
      "durationMs": 1884681,
      "drivingDurationMs": 1678901,
      "idlingDurationMs": 205780,
      "fuelConsumedMl": 700,
      "fuelConsumedGallons": 0.185,
      "maxSpeedMph": 64.3,
      "averageSpeedMph": 18.3,
      "safetyEvents": []
    },
    {
      "id": "trip_49375627_20250203_001",
      "vehicleId": "49375627",
      "driverId": "20000004",
      "startMs": 1738608240000,
      "endMs": 1738610999104,
      "startAddress": "762 John Creek Apt. 796",
      "endAddress": "84801 Fernandez Road Suite 490",
      "startCoords": {
        "latitude": 39.811351,
        "longitude": -105.008691
      },
      "endCoords": {
        "latitude": 39.767012,
        "longitude": -104.994487
      },
      "distanceMeters": 20226.0,
      "durationMs": 2759105,
      "drivingDurationMs": 2327486,
      "idlingDurationMs": 431619,
      "fuelConsumedMl": 916,
      "fuelConsumedGallons": 0.242,
      "maxSpeedMph": 64.0,
      "averageSpeedMph": 16.4,
      "safetyEvents": []
    },
    {
      "id": "trip_49375627_20250203_002",
      "vehicleId": "49375627",
      "driverId": null,
      "startMs": 1738588320000,
      "endMs": 1738591129581,
      "startAddress": "596 Eric Junctions",
      "endAddress": "67826 Sue Mission Apt. 527",
      "startCoords": {
        "latitude": 39.718406,
        "longitude": -104.927839
      },
      "endCoords": {
        "latitude": 39.761357,
        "longitude": -104.942799
      },
      "distanceMeters": 21904.5,
      "durationMs": 2809581,
      "drivingDurationMs": 2470321,
      "idlingDurationMs": 339260,
      "fuelConsumedMl": 992,
      "fuelConsumedGallons": 0.262,
      "maxSpeedMph": 38.2,
      "averageSpeedMph": 17.4,
      "safetyEvents": []
    },
    {
      "id": "trip_49375627_20250203_003",
      "vehicleId": "49375627",
      "driverId": null,
      "startMs": 1738594140000,
      "endMs": 1738595947631,
      "startAddress": "433 Washington Station",
      "endAddress": "5603 David Place",
      "startCoords": {
        "latitude": 39.798475,
        "longitude": -104.92433
      },
      "endCoords": {
        "latitude": 39.738333,
        "longitude": -105.003146
      },
      "distanceMeters": 11881.8,
      "durationMs": 1807632,
      "drivingDurationMs": 1565304,
      "idlingDurationMs": 242328,
      "fuelConsumedMl": 538,
      "fuelConsumedGallons": 0.142,
      "maxSpeedMph": 34.2,
      "averageSpeedMph": 14.7,
      "safetyEvents": []
    },
    {
      "id": "trip_49375627_20250203_004",
      "vehicleId": "49375627",
      "driverId": "20000004",
      "startMs": 1738581300000,
      "endMs": 1738582849363,
      "startAddress": "6802 Harris Overpass",
      "endAddress": "4444 Nancy Extension",
      "startCoords": {
        "latitude": 39.703433,
        "longitude": -105.009867
      },
      "endCoords": {
        "latitude": 39.756991,
        "longitude": -105.019222
      },
      "distanceMeters": 12706.5,
      "durationMs": 1549363,
      "drivingDurationMs": 1363563,
      "idlingDurationMs": 185800,
      "fuelConsumedMl": 575,
      "fuelConsumedGallons": 0.152,
      "maxSpeedMph": 45.4,
      "averageSpeedMph": 18.3,
      "safetyEvents": []
    },
    {
      "id": "trip_49375627_20250203_005",
      "vehicleId": "49375627",
      "driverId": "20000004",
      "startMs": 1738584060000,
      "endMs": 1738587913391,
      "startAddress": "40618 Justin Crossing Suite 861",
      "endAddress": "3442 Klein Burg Suite 043",
      "startCoords": {
        "latitude": 39.721897,
        "longitude": -104.948809
      },
      "endCoords": {
        "latitude": 39.761721,
        "longitude": -105.072879
      },
      "distanceMeters": 23930.9,
      "durationMs": 3853392,
      "drivingDurationMs": 3627149,
      "idlingDurationMs": 226243,
      "fuelConsumedMl": 1083,
      "fuelConsumedGallons": 0.286,
      "maxSpeedMph": 55.2,
      "averageSpeedMph": 13.9,
      "safetyEvents": []
    },
    {
      "id": "trip_49375627_20250203_006",
      "vehicleId": "49375627",
      "driverId": "20000004",
      "startMs": 1738583580000,
      "endMs": 1738584971469,
      "startAddress": "221 Olsen Corners Suite 219",
      "endAddress": "59067 Church Port",
      "startCoords": {
        "latitude": 39.746164,
        "longitude": -105.053251
      },
      "endCoords": {
        "latitude": 39.736191,
        "longitude": -104.980772
      },
      "distanceMeters": 8344.9,
      "durationMs": 1391469,
      "drivingDurationMs": 1159121,
      "idlingDurationMs": 232348,
      "fuelConsumedMl": 379,
      "fuelConsumedGallons": 0.1,
      "maxSpeedMph": 40.0,
      "averageSpeedMph": 13.4,
      "safetyEvents": []
    },
    {
      "id": "trip_49375627_20250203_007",
      "vehicleId": "49375627",
      "driverId": "20000004",
      "startMs": 1738571460000,
      "endMs": 1738571982839,
      "startAddress": "6673 Villarreal Square",
      "endAddress": "004 Simpson Highway",
      "startCoords": {
        "latitude": 39.695001,
        "longitude": -105.067851
      },
      "endCoords": {
        "latitude": 39.780894,
        "longitude": -105.015269
      },
      "distanceMeters": 3702.0,
      "durationMs": 522840,
      "drivingDurationMs": 416748,
      "idlingDurationMs": 106092,
      "fuelConsumedMl": 167,
      "fuelConsumedGallons": 0.044,
      "maxSpeedMph": 28.4,
      "averageSpeedMph": 15.8,
      "safetyEvents": []
    },
    {
      "id": "trip_49375627_20250203_008",
      "vehicleId": "49375627",
      "driverId": "20000004",
      "startMs": 1738597920000,
      "endMs": 1738600491973,
      "startAddress": "9676 Medina Mountains",
      "endAddress": "4997 Tate Mill Suite 681",
      "startCoords": {
        "latitude": 39.811537,
        "longitude": -105.026893
      },
      "endCoords": {
        "latitude": 39.758794,
        "longitude": -104.945091
      },
      "distanceMeters": 17400.6,
      "durationMs": 2571974,
      "drivingDurationMs": 2102792,
      "idlingDurationMs": 469182,
      "fuelConsumedMl": 787,
      "fuelConsumedGallons": 0.208,
      "maxSpeedMph": 71.3,
      "averageSpeedMph": 15.1,
      "safetyEvents": [
        {
          "type": "speeding",
          "startMs": 1738600200000,
          "maxSpeedMph": 71.3
        }
      ]
    },
    {
      "id": "trip_49375627_20250204_001",
      "vehicleId": "49375627",
      "driverId": "20000016",
      "startMs": 1738665720000,
      "endMs": 1738668880392,
      "startAddress": "262 Walker Squares Apt. 032",
      "endAddress": "3435 Ronald Falls",
      "startCoords": {
        "latitude": 39.702209,
        "longitude": -105.00297
      },
      "endCoords": {
        "latitude": 39.716006,
        "longitude": -105.035169
      },
      "distanceMeters": 17568.6,
      "durationMs": 3160393,
      "drivingDurationMs": 2688068,
      "idlingDurationMs": 472324,
      "fuelConsumedMl": 795,
      "fuelConsumedGallons": 0.21,
      "maxSpeedMph": 37.8,
      "averageSpeedMph": 12.4,
      "safetyEvents": []
    },
    {
      "id": "trip_49375627_20250204_002",
      "vehicleId": "49375627",
      "driverId": "20000016",
      "startMs": 1738651080000,
      "endMs": 1738653507802,
      "startAddress": "949 Seth Gateway",
      "endAddress": "2446 Benjamin Cape Suite 589",
      "startCoords": {
        "latitude": 39.719706,
        "longitude": -105.061486
      },
      "endCoords": {
        "latitude": 39.796291,
        "longitude": -104.923282
      },
      "distanceMeters": 18373.4,
      "durationMs": 2427802,
      "drivingDurationMs": 2159825,
      "idlingDurationMs": 267977,
      "fuelConsumedMl": 833,
      "fuelConsumedGallons": 0.22,
      "maxSpeedMph": 40.8,
      "averageSpeedMph": 16.9,
      "safetyEvents": []
    },
    {
      "id": "trip_49375627_20250204_003",
      "vehicleId": "49375627",
      "driverId": "20000016",
      "startMs": 1738656960000,
      "endMs": 1738657696279,
      "startAddress": "7098 Megan Mountains Apt. 374",
      "endAddress": "50621 Hines Cliffs",
      "startCoords": {
        "latitude": 39.823792,
        "longitude": -104.933463
      },
      "endCoords": {
        "latitude": 39.768907,
        "longitude": -104.92424
      },
      "distanceMeters": 5501.7,
      "durationMs": 736280,
      "drivingDurationMs": 588771,
      "idlingDurationMs": 147509,
      "fuelConsumedMl": 250,
      "fuelConsumedGallons": 0.066,
      "maxSpeedMph": 60.7,
      "averageSpeedMph": 16.7,
      "safetyEvents": []
    },
    {
      "id": "trip_49375627_20250204_004",
      "vehicleId": "49375627",
      "driverId": "20000016",
      "startMs": 1738675020000,
      "endMs": 1738675838600,
      "startAddress": "1633 Thomas Highway Apt. 253",
      "endAddress": "2073 Roberson Passage Suite 669",
      "startCoords": {
        "latitude": 39.695855,
        "longitude": -105.059836
      },
      "endCoords": {
        "latitude": 39.8102,
        "longitude": -105.082634
      },
      "distanceMeters": 5026.7,
      "durationMs": 818601,
      "drivingDurationMs": 642544,
      "idlingDurationMs": 176056,
      "fuelConsumedMl": 227,
      "fuelConsumedGallons": 0.06,
      "maxSpeedMph": 50.1,
      "averageSpeedMph": 13.7,
      "safetyEvents": []
    },
    {
      "id": "trip_49375627_20250204_005",
      "vehicleId": "49375627",
      "driverId": "20000016",
      "startMs": 1738659120000,
      "endMs": 1738660190093,
      "startAddress": "848 Robert Avenue Apt. 059",
      "endAddress": "680 Gilbert Loop",
      "startCoords": {
        "latitude": 39.808604,
        "longitude": -105.0837
      },
      "endCoords": {
        "latitude": 39.799801,
        "longitude": -104.902431
      },
      "distanceMeters": 7117.7,
      "durationMs": 1070094,
      "drivingDurationMs": 866874,
      "idlingDurationMs": 203219,
      "fuelConsumedMl": 322,
      "fuelConsumedGallons": 0.085,
      "maxSpeedMph": 64.4,
      "averageSpeedMph": 14.9,
      "safetyEvents": []
    },
    {
      "id": "trip_49375627_20250204_006",
      "vehicleId": "49375627",
      "driverId": "20000016",
      "startMs": 1738694580000,
      "endMs": 1738695658428,
      "startAddress": "621 Scott Drive Suite 157",
      "endAddress": "3554 Long Stream Suite 011",
      "startCoords": {
        "latitude": 39.739881,
        "longitude": -105.057596
      },
      "endCoords": {
        "latitude": 39.76859,
        "longitude": -105.049724
      },
      "distanceMeters": 6496.3,
      "durationMs": 1078428,
      "drivingDurationMs": 880088,
      "idlingDurationMs": 198341,
      "fuelConsumedMl": 295,
      "fuelConsumedGallons": 0.078,
      "maxSpeedMph": 38.8,
      "averageSpeedMph": 13.5,
      "safetyEvents": []
    },
    {
      "id": "trip_49375627_20250204_007",
      "vehicleId": "49375627",
      "driverId": "20000016",
      "startMs": 1738654500000,
      "endMs": 1738656930630,
      "startAddress": "08234 Love Circles Apt. 431",
      "endAddress": "0018 Amy Branch",
      "startCoords": {
        "latitude": 39.817767,
        "longitude": -105.021595
      },
      "endCoords": {
        "latitude": 39.695432,
        "longitude": -104.940462
      },
      "distanceMeters": 15593.8,
      "durationMs": 2430631,
      "drivingDurationMs": 2041893,
      "idlingDurationMs": 388738,
      "fuelConsumedMl": 704,
      "fuelConsumedGallons": 0.186,
      "maxSpeedMph": 57.4,
      "averageSpeedMph": 14.4,
      "safetyEvents": []
    },
    {
      "id": "trip_49375627_20250205_001",
      "vehicleId": "49375627",
      "driverId": "20000006",
      "startMs": 1738738980000,
      "endMs": 1738740667805,
      "startAddress": "976 Stephen Glen Apt. 188",
      "endAddress": "43178 Moore Meadow",
      "startCoords": {
        "latitude": 39.689916,
        "longitude": -104.955304
      },
      "endCoords": {
        "latitude": 39.716024,
        "longitude": -104.975425
      },
      "distanceMeters": 12010.4,
      "durationMs": 1687805,
      "drivingDurationMs": 1412188,
      "idlingDurationMs": 275617,
      "fuelConsumedMl": 545,
      "fuelConsumedGallons": 0.144,
      "maxSpeedMph": 43.2,
      "averageSpeedMph": 15.9,
      "safetyEvents": []
    },
    {
      "id": "trip_49375627_20250205_002",
      "vehicleId": "49375627",
      "driverId": null,
      "startMs": 1738739520000,
      "endMs": 1738740330733,
      "startAddress": "26811 Todd Manors Suite 317",
      "endAddress": "349 Johnson Roads",
      "startCoords": {
        "latitude": 39.793816,
        "longitude": -105.033687
      },
      "endCoords": {
        "latitude": 39.807013,
        "longitude": -104.938078
      },
      "distanceMeters": 6217.4,
      "durationMs": 810733,
      "drivingDurationMs": 637957,
      "idlingDurationMs": 172777,
      "fuelConsumedMl": 280,
      "fuelConsumedGallons": 0.074,
      "maxSpeedMph": 67.5,
      "averageSpeedMph": 17.2,
      "safetyEvents": [
        {
          "type": "speeding",
          "startMs": 1738740120000,
          "maxSpeedMph": 67.5
        }
      ]
    },
    {
      "id": "trip_49375627_20250205_003",
      "vehicleId": "49375627",
      "driverId": "20000006",
      "startMs": 1738742940000,
      "endMs": 1738744432862,
      "startAddress": "4768 Sims Brook Apt. 484",
      "endAddress": "16612 Jason Lodge Suite 862",
      "startCoords": {
        "latitude": 39.730469,
        "longitude": -104.989426
      },
      "endCoords": {
        "latitude": 39.73626,
        "longitude": -104.915466
      },
      "distanceMeters": 8422.2,
      "durationMs": 1492863,
      "drivingDurationMs": 1196017,
      "idlingDurationMs": 296846,
      "fuelConsumedMl": 382,
      "fuelConsumedGallons": 0.101,
      "maxSpeedMph": 36.1,
      "averageSpeedMph": 12.6,
      "safetyEvents": []
    },
    {
      "id": "trip_49375627_20250205_004",
      "vehicleId": "49375627",
      "driverId": "20000006",
      "startMs": 1738756620000,
      "endMs": 1738758231949,
      "startAddress": "61413 Robert Ferry",
      "endAddress": "69171 Andrew Ford",
      "startCoords": {
        "latitude": 39.82566,
        "longitude": -105.086309
      },
      "endCoords": {
        "latitude": 39.735464,
        "longitude": -105.079352
      },
      "distanceMeters": 12206.2,
      "durationMs": 1611950,
      "drivingDurationMs": 1394814,
      "idlingDurationMs": 217136,
      "fuelConsumedMl": 553,
      "fuelConsumedGallons": 0.146,
      "maxSpeedMph": 49.5,
      "averageSpeedMph": 16.9,
      "safetyEvents": []
    },
    {
      "id": "trip_49375627_20250205_005",
      "vehicleId": "49375627",
      "driverId": "20000006",
      "startMs": 1738772700000,
      "endMs": 1738773423924,
      "startAddress": "0796 William Points",
      "endAddress": "983 Sandra Hill",
      "startCoords": {
        "latitude": 39.79314,
        "longitude": -104.906803
      },
      "endCoords": {
        "latitude": 39.803424,
        "longitude": -104.929118
      },
      "distanceMeters": 5621.2,
      "durationMs": 723924,
      "drivingDurationMs": 573038,
      "idlingDurationMs": 150886,
      "fuelConsumedMl": 254,
      "fuelConsumedGallons": 0.067,
      "maxSpeedMph": 53.8,
      "averageSpeedMph": 17.4,
      "safetyEvents": []
    },
    {
      "id": "trip_49375627_20250205_006",
      "vehicleId": "49375627",
      "driverId": "20000006",
      "startMs": 1738753980000,
      "endMs": 1738756547200,
      "startAddress": "875 Morgan Forge",
      "endAddress": "1401 Hall Wells Apt. 730",
      "startCoords": {
        "latitude": 39.804874,
        "longitude": -105.000204
      },
      "endCoords": {
        "latitude": 39.707026,
        "longitude": -105.084978
      },
      "distanceMeters": 20160.6,
      "durationMs": 2567201,
      "drivingDurationMs": 2068025,
      "idlingDurationMs": 499175,
      "fuelConsumedMl": 912,
      "fuelConsumedGallons": 0.241,
      "maxSpeedMph": 63.3,
      "averageSpeedMph": 17.6,
      "safetyEvents": []
    },
    {
      "id": "trip_49375627_20250205_007",
      "vehicleId": "49375627",
      "driverId": "20000006",
      "startMs": 1738736100000,
      "endMs": 1738737834603,
      "startAddress": "46929 Jonathan Station Apt. 167",
      "endAddress": "22486 Johnson Gateway Suite 251",
      "startCoords": {
        "latitude": 39.713055,
        "longitude": -105.051241
      },
      "endCoords": {
        "latitude": 39.715454,
        "longitude": -104.933823
      },
      "distanceMeters": 12013.7,
      "durationMs": 1734604,
      "drivingDurationMs": 1452553,
      "idlingDurationMs": 282050,
      "fuelConsumedMl": 545,
      "fuelConsumedGallons": 0.144,
      "maxSpeedMph": 62.5,
      "averageSpeedMph": 15.5,
      "safetyEvents": []
    },
    {
      "id": "trip_49375627_20250205_008",
      "vehicleId": "49375627",
      "driverId": "20000006",
      "startMs": 1738740120000,
      "endMs": 1738744141238,
      "startAddress": "3204 Butler Harbor Suite 573",
      "endAddress": "2175 Benjamin Keys Suite 896",
      "startCoords": {
        "latitude": 39.787164,
        "longitude": -104.938545
      },
      "endCoords": {
        "latitude": 39.697137,
        "longitude": -104.987663
      },
      "distanceMeters": 22570.0,
      "durationMs": 4021239,
      "drivingDurationMs": 3259030,
      "idlingDurationMs": 762208,
      "fuelConsumedMl": 1022,
      "fuelConsumedGallons": 0.27,
      "maxSpeedMph": 71.0,
      "averageSpeedMph": 12.6,
      "safetyEvents": [
        {
          "type": "speeding",
          "startMs": 1738742340000,
          "maxSpeedMph": 71.0
        }
      ]
    },
    {
      "id": "trip_49375627_20250205_009",
      "vehicleId": "49375627",
      "driverId": "20000006",
      "startMs": 1738765860000,
      "endMs": 1738767547499,
      "startAddress": "724 Raymond Fields Apt. 796",
      "endAddress": "6412 Evan Gardens Suite 098",
      "startCoords": {
        "latitude": 39.724687,
        "longitude": -105.07827
      },
      "endCoords": {
        "latitude": 39.68699,
        "longitude": -104.927701
      },
      "distanceMeters": 14280.3,
      "durationMs": 1687500,
      "drivingDurationMs": 1442914,
      "idlingDurationMs": 244586,
      "fuelConsumedMl": 647,
      "fuelConsumedGallons": 0.171,
      "maxSpeedMph": 53.3,
      "averageSpeedMph": 18.9,
      "safetyEvents": []
    },
    {
      "id": "trip_49375627_20250205_010",
      "vehicleId": "49375627",
      "driverId": "20000006",
      "startMs": 1738743660000,
      "endMs": 1738745989439,
      "startAddress": "34483 Brown Crest Suite 959",
      "endAddress": "32730 Joel Club Apt. 479",
      "startCoords": {
        "latitude": 39.712421,
        "longitude": -105.067127
      },
      "endCoords": {
        "latitude": 39.714256,
        "longitude": -105.053983
      },
      "distanceMeters": 20509.0,
      "durationMs": 2329440,
      "drivingDurationMs": 2002896,
      "idlingDurationMs": 326544,
      "fuelConsumedMl": 927,
      "fuelConsumedGallons": 0.245,
      "maxSpeedMph": 34.7,
      "averageSpeedMph": 19.7,
      "safetyEvents": []
    },
    {
      "id": "trip_49375627_20250205_011",
      "vehicleId": "49375627",
      "driverId": "20000006",
      "startMs": 1738778460000,
      "endMs": 1738782057250,
      "startAddress": "595 Branch Rapid Suite 084",
      "endAddress": "107 Rebekah Brook",
      "startCoords": {
        "latitude": 39.689805,
        "longitude": -104.940574
      },
      "endCoords": {
        "latitude": 39.775996,
        "longitude": -105.049883
      },
      "distanceMeters": 24000.2,
      "durationMs": 3597250,
      "drivingDurationMs": 2954509,
      "idlingDurationMs": 642742,
      "fuelConsumedMl": 1086,
      "fuelConsumedGallons": 0.287,
      "maxSpeedMph": 69.0,
      "averageSpeedMph": 14.9,
      "safetyEvents": [
        {
          "type": "speeding",
          "startMs": 1738781160000,
          "maxSpeedMph": 69.0
        }
      ]
    },
    {
      "id": "trip_49375627_20250205_012",
      "vehicleId": "49375627",
      "driverId": "20000006",
      "startMs": 1738752540000,
      "endMs": 1738754844628,
      "startAddress": "12607 Stacy Green",
      "endAddress": "21156 Shaw Point",
      "startCoords": {
        "latitude": 39.825802,
        "longitude": -105.0011
      },
      "endCoords": {
        "latitude": 39.789569,
        "longitude": -104.962671
      },
      "distanceMeters": 20242.1,
      "durationMs": 2304628,
      "drivingDurationMs": 2091732,
      "idlingDurationMs": 212896,
      "fuelConsumedMl": 916,
      "fuelConsumedGallons": 0.242,
      "maxSpeedMph": 40.2,
      "averageSpeedMph": 19.6,
      "safetyEvents": []
    },
    {
      "id": "trip_49375627_20250205_013",
      "vehicleId": "49375627",
      "driverId": "20000006",
      "startMs": 1738776360000,
      "endMs": 1738779531220,
      "startAddress": "091 Hart Corners Suite 063",
      "endAddress": "77734 Diane Coves Suite 670",
      "startCoords": {
        "latitude": 39.761012,
        "longitude": -105.021256
      },
      "endCoords": {
        "latitude": 39.816466,
        "longitude": -105.074363
      },
      "distanceMeters": 23500.2,
      "durationMs": 3171220,
      "drivingDurationMs": 2644595,
      "idlingDurationMs": 526625,
      "fuelConsumedMl": 1064,
      "fuelConsumedGallons": 0.281,
      "maxSpeedMph": 36.7,
      "averageSpeedMph": 16.6,
      "safetyEvents": []
    },
    {
      "id": "trip_49375627_20250205_014",
      "vehicleId": "49375627",
      "driverId": "20000006",
      "startMs": 1738745100000,
      "endMs": 1738747657510,
      "startAddress": "4440 Patel Viaduct Suite 782",
      "endAddress": "53162 Johnson Mill Apt. 560",
      "startCoords": {
        "latitude": 39.730228,
        "longitude": -104.986512
      },
      "endCoords": {
        "latitude": 39.698926,
        "longitude": -104.935528
      },
      "distanceMeters": 22317.6,
      "durationMs": 2557511,
      "drivingDurationMs": 2117094,
      "idlingDurationMs": 440416,
      "fuelConsumedMl": 1011,
      "fuelConsumedGallons": 0.267,
      "maxSpeedMph": 63.8,
      "averageSpeedMph": 19.5,
      "safetyEvents": []
    },
    {
      "id": "trip_49375627_20250206_001",
      "vehicleId": "49375627",
      "driverId": "20000012",
      "startMs": 1738834740000,
      "endMs": 1738835996148,
      "startAddress": "04617 Reynolds Lane",
      "endAddress": "425 Francis Plain Apt. 131",
      "startCoords": {
        "latitude": 39.802344,
        "longitude": -104.95725
      },
      "endCoords": {
        "latitude": 39.776958,
        "longitude": -104.985468
      },
      "distanceMeters": 6879.8,
      "durationMs": 1256149,
      "drivingDurationMs": 1060428,
      "idlingDurationMs": 195721,
      "fuelConsumedMl": 310,
      "fuelConsumedGallons": 0.082,
      "maxSpeedMph": 37.6,
      "averageSpeedMph": 12.3,
      "safetyEvents": []
    },
    {
      "id": "trip_49375627_20250206_002",
      "vehicleId": "49375627",
      "driverId": "20000012",
      "startMs": 1738823040000,
      "endMs": 1738825130657,
      "startAddress": "78337 Kristen Locks Suite 115",
      "endAddress": "23183 Kevin Lake Suite 709",
      "startCoords": {
        "latitude": 39.793188,
        "longitude": -105.037696
      },
      "endCoords": {
        "latitude": 39.728069,
        "longitude": -104.953747
      },
      "distanceMeters": 15187.7,
      "durationMs": 2090657,
      "drivingDurationMs": 1866044,
      "idlingDurationMs": 224613,
      "fuelConsumedMl": 685,
      "fuelConsumedGallons": 0.181,
      "maxSpeedMph": 66.1,
      "averageSpeedMph": 16.3,
      "safetyEvents": [
        {
          "type": "speeding",
          "startMs": 1738823820000,
          "maxSpeedMph": 66.1
        }
      ]
    },
    {
      "id": "trip_49375627_20250206_003",
      "vehicleId": "49375627",
      "driverId": "20000012",
      "startMs": 1738861260000,
      "endMs": 1738862398055,
      "startAddress": "84878 Bryant Pine",
      "endAddress": "81137 Clark Throughway",
      "startCoords": {
        "latitude": 39.730273,
        "longitude": -104.995617
      },
      "endCoords": {
        "latitude": 39.689981,
        "longitude": -104.927473
      },
      "distanceMeters": 7144.9,
      "durationMs": 1138055,
      "drivingDurationMs": 950894,
      "idlingDurationMs": 187161,
      "fuelConsumedMl": 322,
      "fuelConsumedGallons": 0.085,
      "maxSpeedMph": 68.0,
      "averageSpeedMph": 14.0,
      "safetyEvents": [
        {
          "type": "speeding",
          "startMs": 1738861860000,
          "maxSpeedMph": 68.0
        }
      ]
    },
    {
      "id": "trip_49375627_20250206_004",
      "vehicleId": "49375627",
      "driverId": "20000012",
      "startMs": 1738849320000,
      "endMs": 1738849818947,
      "startAddress": "1541 Debra Keys Apt. 677",
      "endAddress": "126 Gail Street",
      "startCoords": {
        "latitude": 39.751316,
        "longitude": -105.04306
      },
      "endCoords": {
        "latitude": 39.754212,
        "longitude": -104.93101
      },
      "distanceMeters": 3449.4,
      "durationMs": 498948,
      "drivingDurationMs": 340949,
      "idlingDurationMs": 157999,
      "fuelConsumedMl": 155,
      "fuelConsumedGallons": 0.041,
      "maxSpeedMph": 60.1,
      "averageSpeedMph": 15.5,
      "safetyEvents": []
    },
    {
      "id": "trip_49375627_20250206_005",
      "vehicleId": "49375627",
      "driverId": "20000012",
      "startMs": 1738851720000,
      "endMs": 1738853773557,
      "startAddress": "235 Steven Mountains Suite 123",
      "endAddress": "329 Butler Rue Apt. 927",
      "startCoords": {
        "latitude": 39.80696,
        "longitude": -104.964467
      },
      "endCoords": {
        "latitude": 39.692583,
        "longitude": -105.02885
      },
      "distanceMeters": 11978.5,
      "durationMs": 2053557,
      "drivingDurationMs": 1765535,
      "idlingDurationMs": 288023,
      "fuelConsumedMl": 541,
      "fuelConsumedGallons": 0.143,
      "maxSpeedMph": 37.3,
      "averageSpeedMph": 13.0,
      "safetyEvents": []
    },
    {
      "id": "trip_49375627_20250206_006",
      "vehicleId": "49375627",
      "driverId": "20000012",
      "startMs": 1738847100000,
      "endMs": 1738849005439,
      "startAddress": "9467 Meghan Viaduct Suite 770",
      "endAddress": "0747 Thomas Estate Suite 452",
      "startCoords": {
        "latitude": 39.744624,
        "longitude": -105.034498
      },
      "endCoords": {
        "latitude": 39.723765,
        "longitude": -104.981345
      },
      "distanceMeters": 13423.4,
      "durationMs": 1905439,
      "drivingDurationMs": 1665437,
      "idlingDurationMs": 240003,
      "fuelConsumedMl": 606,
      "fuelConsumedGallons": 0.16,
      "maxSpeedMph": 60.1,
      "averageSpeedMph": 15.8,
      "safetyEvents": []
    },
    {
      "id": "trip_49375627_20250206_007",
      "vehicleId": "49375627",
      "driverId": "20000012",
      "startMs": 1738843620000,
      "endMs": 1738845757545,
      "startAddress": "89065 Davis Plains Apt. 743",
      "endAddress": "39445 Dylan Green Apt. 871",
      "startCoords": {
        "latitude": 39.686231,
        "longitude": -105.085504
      },
      "endCoords": {
        "latitude": 39.72469,
        "longitude": -105.049383
      },
      "distanceMeters": 17859.3,
      "durationMs": 2137545,
      "drivingDurationMs": 1741438,
      "idlingDurationMs": 396108,
      "fuelConsumedMl": 806,
      "fuelConsumedGallons": 0.213,
      "maxSpeedMph": 56.9,
      "averageSpeedMph": 18.7,
      "safetyEvents": []
    },
    {
      "id": "trip_49375627_20250206_008",
      "vehicleId": "49375627",
      "driverId": null,
      "startMs": 1738863240000,
      "endMs": 1738864425806,
      "startAddress": "52882 Dickerson Villages Apt. 106",
      "endAddress": "703 Reed Ford",
      "startCoords": {
        "latitude": 39.780196,
        "longitude": -104.999027
      },
      "endCoords": {
        "latitude": 39.797647,
        "longitude": -104.951805
      },
      "distanceMeters": 7245.3,
      "durationMs": 1185806,
      "drivingDurationMs": 948693,
      "idlingDurationMs": 237113,
      "fuelConsumedMl": 329,
      "fuelConsumedGallons": 0.087,
      "maxSpeedMph": 32.7,
      "averageSpeedMph": 13.7,
      "safetyEvents": []
    },
    {
      "id": "trip_49375627_20250206_009",
      "vehicleId": "49375627",
      "driverId": "20000012",
      "startMs": 1738859220000,
      "endMs": 1738859573075,
      "startAddress": "27421 Lynch Lakes Suite 252",
      "endAddress": "82820 James Light",
      "startCoords": {
        "latitude": 39.686531,
        "longitude": -104.964448
      },
      "endCoords": {
        "latitude": 39.784379,
        "longitude": -104.967874
      },
      "distanceMeters": 2563.1,
      "durationMs": 353075,
      "drivingDurationMs": 253134,
      "idlingDurationMs": 99941,
      "fuelConsumedMl": 117,
      "fuelConsumedGallons": 0.031,
      "maxSpeedMph": 61.4,
      "averageSpeedMph": 16.2,
      "safetyEvents": []
    },
    {
      "id": "trip_49375627_20250206_010",
      "vehicleId": "49375627",
      "driverId": "20000012",
      "startMs": 1738836300000,
      "endMs": 1738837825522,
      "startAddress": "879 Davis Garden",
      "endAddress": "65037 Lawrence Mission Suite 872",
      "startCoords": {
        "latitude": 39.704115,
        "longitude": -105.064859
      },
      "endCoords": {
        "latitude": 39.712674,
        "longitude": -105.076583
      },
      "distanceMeters": 10271.8,
      "durationMs": 1525522,
      "drivingDurationMs": 1245989,
      "idlingDurationMs": 279534,
      "fuelConsumedMl": 466,
      "fuelConsumedGallons": 0.123,
      "maxSpeedMph": 34.8,
      "averageSpeedMph": 15.1,
      "safetyEvents": []
    },
    {
      "id": "trip_49375627_20250207_001",
      "vehicleId": "49375627",
      "driverId": "20000006",
      "startMs": 1738942740000,
      "endMs": 1738946158825,
      "startAddress": "630 Richard View",
      "endAddress": "247 Sanchez Oval",
      "startCoords": {
        "latitude": 39.813535,
        "longitude": -105.04336
      },
      "endCoords": {
        "latitude": 39.823355,
        "longitude": -105.046578
      },
      "distanceMeters": 24148.6,
      "durationMs": 3418826,
      "drivingDurationMs": 2739908,
      "idlingDurationMs": 678918,
      "fuelConsumedMl": 1094,
      "fuelConsumedGallons": 0.289,
      "maxSpeedMph": 55.9,
      "averageSpeedMph": 15.8,
      "safetyEvents": []
    },
    {
      "id": "trip_49375627_20250207_002",
      "vehicleId": "49375627",
      "driverId": "20000006",
      "startMs": 1738921080000,
      "endMs": 1738923156734,
      "startAddress": "9285 David Park",
      "endAddress": "91236 Robert Groves",
      "startCoords": {
        "latitude": 39.746612,
        "longitude": -104.973466
      },
      "endCoords": {
        "latitude": 39.81837,
        "longitude": -105.003977
      },
      "distanceMeters": 15379.2,
      "durationMs": 2076735,
      "drivingDurationMs": 1847716,
      "idlingDurationMs": 229019,
      "fuelConsumedMl": 697,
      "fuelConsumedGallons": 0.184,
      "maxSpeedMph": 46.2,
      "averageSpeedMph": 16.6,
      "safetyEvents": []
    },
    {
      "id": "trip_49375627_20250207_003",
      "vehicleId": "49375627",
      "driverId": "20000006",
      "startMs": 1738946760000,
      "endMs": 1738948198405,
      "startAddress": "6176 Kimberly Stravenue",
      "endAddress": "45990 Harvey Street",
      "startCoords": {
        "latitude": 39.809109,
        "longitude": -104.950743
      },
      "endCoords": {
        "latitude": 39.818746,
        "longitude": -104.967112
      },
      "distanceMeters": 12741.3,
      "durationMs": 1438405,
      "drivingDurationMs": 1209851,
      "idlingDurationMs": 228554,
      "fuelConsumedMl": 575,
      "fuelConsumedGallons": 0.152,
      "maxSpeedMph": 55.0,
      "averageSpeedMph": 19.8,
      "safetyEvents": []
    },
    {
      "id": "trip_49375627_20250207_004",
      "vehicleId": "49375627",
      "driverId": "20000006",
      "startMs": 1738938540000,
      "endMs": 1738942459450,
      "startAddress": "545 Key Lock",
      "endAddress": "32476 Weaver Rest",
      "startCoords": {
        "latitude": 39.822455,
        "longitude": -105.037463
      },
      "endCoords": {
        "latitude": 39.696382,
        "longitude": -105.025635
      },
      "distanceMeters": 20461.9,
      "durationMs": 3919451,
      "drivingDurationMs": 3194703,
      "idlingDurationMs": 724748,
      "fuelConsumedMl": 927,
      "fuelConsumedGallons": 0.245,
      "maxSpeedMph": 56.8,
      "averageSpeedMph": 11.7,
      "safetyEvents": []
    },
    {
      "id": "trip_49375627_20250207_005",
      "vehicleId": "49375627",
      "driverId": "20000006",
      "startMs": 1738927440000,
      "endMs": 1738929116662,
      "startAddress": "5817 Horn Ridges Suite 632",
      "endAddress": "2380 Catherine Meadow Suite 611",
      "startCoords": {
        "latitude": 39.702714,
        "longitude": -104.911451
      },
      "endCoords": {
        "latitude": 39.777475,
        "longitude": -104.922485
      },
      "distanceMeters": 13211.1,
      "durationMs": 1676662,
      "drivingDurationMs": 1448584,
      "idlingDurationMs": 228079,
      "fuelConsumedMl": 598,
      "fuelConsumedGallons": 0.158,
      "maxSpeedMph": 70.7,
      "averageSpeedMph": 17.6,
      "safetyEvents": [
        {
          "type": "speeding",
          "startMs": 1738928520000,
          "maxSpeedMph": 70.7
        }
      ]
    },
    {
      "id": "trip_49375627_20250207_006",
      "vehicleId": "49375627",
      "driverId": "20000006",
      "startMs": 1738923060000,
      "endMs": 1738925940479,
      "startAddress": "7021 Miller Station Suite 258",
      "endAddress": "98794 Bennett Mills Apt. 775",
      "startCoords": {
        "latitude": 39.805401,
        "longitude": -104.921937
      },
      "endCoords": {
        "latitude": 39.741356,
        "longitude": -105.030225
      },
      "distanceMeters": 16573.8,
      "durationMs": 2880480,
      "drivingDurationMs": 2496884,
      "idlingDurationMs": 383596,
      "fuelConsumedMl": 750,
      "fuelConsumedGallons": 0.198,
      "maxSpeedMph": 57.5,
      "averageSpeedMph": 12.9,
      "safetyEvents": []
    },
    {
      "id": "trip_49375627_20250207_007",
      "vehicleId": "49375627",
      "driverId": "20000006",
      "startMs": 1738932720000,
      "endMs": 1738934215777,
      "startAddress": "21157 Mary Inlet",
      "endAddress": "033 Amber Ridge Apt. 135",
      "startCoords": {
        "latitude": 39.760459,
        "longitude": -104.920468
      },
      "endCoords": {
        "latitude": 39.805339,
        "longitude": -105.072015
      },
      "distanceMeters": 12149.6,
      "durationMs": 1495777,
      "drivingDurationMs": 1278936,
      "idlingDurationMs": 216841,
      "fuelConsumedMl": 549,
      "fuelConsumedGallons": 0.145,
      "maxSpeedMph": 37.8,
      "averageSpeedMph": 18.2,
      "safetyEvents": []
    },
    {
      "id": "trip_49375627_20250207_008",
      "vehicleId": "49375627",
      "driverId": "20000006",
      "startMs": 1738934400000,
      "endMs": 1738937164892,
      "startAddress": "715 Perry Way",
      "endAddress": "160 Soto River",
      "startCoords": {
        "latitude": 39.752553,
        "longitude": -104.905137
      },
      "endCoords": {
        "latitude": 39.685609,
        "longitude": -104.924848
      },
      "distanceMeters": 22620.2,
      "durationMs": 2764892,
      "drivingDurationMs": 2579705,
      "idlingDurationMs": 185187,
      "fuelConsumedMl": 1022,
      "fuelConsumedGallons": 0.27,
      "maxSpeedMph": 50.0,
      "averageSpeedMph": 18.3,
      "safetyEvents": []
    },
    {
      "id": "trip_49375627_20250208_001",
      "vehicleId": "49375627",
      "driverId": "20000016",
      "startMs": 1739024100000,
      "endMs": 1739026765554,
      "startAddress": "41040 Rose Light Apt. 021",
      "endAddress": "3717 Williamson Spurs",
      "startCoords": {
        "latitude": 39.784666,
        "longitude": -104.932584
      },
      "endCoords": {
        "latitude": 39.716837,
        "longitude": -105.038448
      },
      "distanceMeters": 22406.2,
      "durationMs": 2665554,
      "drivingDurationMs": 2388225,
      "idlingDurationMs": 277329,
      "fuelConsumedMl": 1014,
      "fuelConsumedGallons": 0.268,
      "maxSpeedMph": 51.5,
      "averageSpeedMph": 18.8,
      "safetyEvents": []
    },
    {
      "id": "trip_49375627_20250208_002",
      "vehicleId": "49375627",
      "driverId": "20000016",
      "startMs": 1738998240000,
      "endMs": 1738999801021,
      "startAddress": "2136 Amber Dam Suite 991",
      "endAddress": "8018 Jose Walk Suite 667",
      "startCoords": {
        "latitude": 39.696927,
        "longitude": -104.9646
      },
      "endCoords": {
        "latitude": 39.714966,
        "longitude": -105.059503
      },
      "distanceMeters": 11815.7,
      "durationMs": 1561022,
      "drivingDurationMs": 1283020,
      "idlingDurationMs": 278002,
      "fuelConsumedMl": 534,
      "fuelConsumedGallons": 0.141,
      "maxSpeedMph": 71.2,
      "averageSpeedMph": 16.9,
      "safetyEvents": [
        {
          "type": "speeding",
          "startMs": 1738998660000,
          "maxSpeedMph": 71.2
        }
      ]
    },
    {
      "id": "trip_49375627_20250208_003",
      "vehicleId": "49375627",
      "driverId": "20000016",
      "startMs": 1739003160000,
      "endMs": 1739003907000,
      "startAddress": "77811 Anthony Expressway Suite 322",
      "endAddress": "9450 Nathan Ports Apt. 258",
      "startCoords": {
        "latitude": 39.801439,
        "longitude": -104.952268
      },
      "endCoords": {
        "latitude": 39.772422,
        "longitude": -104.971962
      },
      "distanceMeters": 5533.7,
      "durationMs": 747000,
      "drivingDurationMs": 580240,
      "idlingDurationMs": 166760,
      "fuelConsumedMl": 250,
      "fuelConsumedGallons": 0.066,
      "maxSpeedMph": 42.9,
      "averageSpeedMph": 16.6,
      "safetyEvents": []
    },
    {
      "id": "trip_49375627_20250208_004",
      "vehicleId": "49375627",
      "driverId": "20000016",
      "startMs": 1738995660000,
      "endMs": 1738996746533,
      "startAddress": "52089 Jeremy Mountain Suite 816",
      "endAddress": "3085 Escobar Lights Suite 493",
      "startCoords": {
        "latitude": 39.729394,
        "longitude": -105.016179
      },
      "endCoords": {
        "latitude": 39.781428,
        "longitude": -104.959427
      },
      "distanceMeters": 5456.8,
      "durationMs": 1086533,
      "drivingDurationMs": 871858,
      "idlingDurationMs": 214675,
      "fuelConsumedMl": 246,
      "fuelConsumedGallons": 0.065,
      "maxSpeedMph": 52.1,
      "averageSpeedMph": 11.2,
      "safetyEvents": []
    },
    {
      "id": "trip_49375627_20250208_005",
      "vehicleId": "49375627",
      "driverId": "20000016",
      "startMs": 1739000820000,
      "endMs": 1739001774344,
      "startAddress": "792 Fowler Light",
      "endAddress": "745 Michele Ranch",
      "startCoords": {
        "latitude": 39.724815,
        "longitude": -105.080602
      },
      "endCoords": {
        "latitude": 39.726771,
        "longitude": -104.990842
      },
      "distanceMeters": 6433.6,
      "durationMs": 954345,
      "drivingDurationMs": 769696,
      "idlingDurationMs": 184648,
      "fuelConsumedMl": 291,
      "fuelConsumedGallons": 0.077,
      "maxSpeedMph": 43.6,
      "averageSpeedMph": 15.1,
      "safetyEvents": []
    },
    {
      "id": "trip_49375627_20250208_006",
      "vehicleId": "49375627",
      "driverId": "20000016",
      "startMs": 1739022960000,
      "endMs": 1739023576470,
      "startAddress": "71967 Roger Estates",
      "endAddress": "7504 Jordan River Suite 517",
      "startCoords": {
        "latitude": 39.760663,
        "longitude": -104.918561
      },
      "endCoords": {
        "latitude": 39.755347,
        "longitude": -105.01388
      },
      "distanceMeters": 3777.3,
      "durationMs": 616471,
      "drivingDurationMs": 445901,
      "idlingDurationMs": 170569,
      "fuelConsumedMl": 170,
      "fuelConsumedGallons": 0.045,
      "maxSpeedMph": 54.9,
      "averageSpeedMph": 13.7,
      "safetyEvents": []
    },
    {
      "id": "trip_49375627_20250208_007",
      "vehicleId": "49375627",
      "driverId": "20000016",
      "startMs": 1739001540000,
      "endMs": 1739003143297,
      "startAddress": "0935 Brown Burg Apt. 308",
      "endAddress": "90937 Jessica Villages Suite 650",
      "startCoords": {
        "latitude": 39.774562,
        "longitude": -105.067886
      },
      "endCoords": {
        "latitude": 39.75875,
        "longitude": -105.077814
      },
      "distanceMeters": 10337.7,
      "durationMs": 1603298,
      "drivingDurationMs": 1342538,
      "idlingDurationMs": 260760,
      "fuelConsumedMl": 469,
      "fuelConsumedGallons": 0.124,
      "maxSpeedMph": 28.4,
      "averageSpeedMph": 14.4,
      "safetyEvents": []
    },
    {
      "id": "trip_49375627_20250208_008",
      "vehicleId": "49375627",
      "driverId": "20000016",
      "startMs": 1738998780000,
      "endMs": 1739000803271,
      "startAddress": "883 Michael Village",
      "endAddress": "328 Lisa Roads",
      "startCoords": {
        "latitude": 39.747958,
        "longitude": -104.974203
      },
      "endCoords": {
        "latitude": 39.718282,
        "longitude": -105.029435
      },
      "distanceMeters": 11507.2,
      "durationMs": 2023271,
      "drivingDurationMs": 1793701,
      "idlingDurationMs": 229571,
      "fuelConsumedMl": 522,
      "fuelConsumedGallons": 0.138,
      "maxSpeedMph": 30.8,
      "averageSpeedMph": 12.7,
      "safetyEvents": []
    },
    {
      "id": "trip_49375627_20250210_001",
      "vehicleId": "49375627",
      "driverId": "20000010",
      "startMs": 1739178720000,
      "endMs": 1739180898070,
      "startAddress": "718 Joshua Valleys",
      "endAddress": "4823 Wade Manors",
      "startCoords": {
        "latitude": 39.728061,
        "longitude": -105.079477
      },
      "endCoords": {
        "latitude": 39.804054,
        "longitude": -105.00464
      },
      "distanceMeters": 19752.5,
      "durationMs": 2178070,
      "drivingDurationMs": 1922758,
      "idlingDurationMs": 255312,
      "fuelConsumedMl": 893,
      "fuelConsumedGallons": 0.236,
      "maxSpeedMph": 32.7,
      "averageSpeedMph": 20.3,
      "safetyEvents": []
    },
    {
      "id": "trip_49375627_20250210_002",
      "vehicleId": "49375627",
      "driverId": "20000010",
      "startMs": 1739176200000,
      "endMs": 1739177870937,
      "startAddress": "6386 Brandon Throughway",
      "endAddress": "59386 Hannah Loaf",
      "startCoords": {
        "latitude": 39.744025,
        "longitude": -105.060418
      },
      "endCoords": {
        "latitude": 39.778094,
        "longitude": -104.947818
      },
      "distanceMeters": 11471.6,
      "durationMs": 1670937,
      "drivingDurationMs": 1345048,
      "idlingDurationMs": 325889,
      "fuelConsumedMl": 519,
      "fuelConsumedGallons": 0.137,
      "maxSpeedMph": 58.2,
      "averageSpeedMph": 15.4,
      "safetyEvents": []
    },
    {
      "id": "trip_49375627_20250210_003",
      "vehicleId": "49375627",
      "driverId": "20000010",
      "startMs": 1739193360000,
      "endMs": 1739196034522,
      "startAddress": "26944 Elizabeth Gardens Apt. 269",
      "endAddress": "164 Donald Springs",
      "startCoords": {
        "latitude": 39.800601,
        "longitude": -104.995334
      },
      "endCoords": {
        "latitude": 39.824781,
        "longitude": -104.909217
      },
      "distanceMeters": 24881.3,
      "durationMs": 2674523,
      "drivingDurationMs": 2364766,
      "idlingDurationMs": 309757,
      "fuelConsumedMl": 1124,
      "fuelConsumedGallons": 0.297,
      "maxSpeedMph": 31.2,
      "averageSpeedMph": 20.8,
      "safetyEvents": []
    },
    {
      "id": "trip_49375627_20250210_004",
      "vehicleId": "49375627",
      "driverId": "20000010",
      "startMs": 1739175780000,
      "endMs": 1739176465602,
      "startAddress": "9295 Janice Ways Apt. 544",
      "endAddress": "448 Bell Field",
      "startCoords": {
        "latitude": 39.753364,
        "longitude": -105.004004
      },
      "endCoords": {
        "latitude": 39.693415,
        "longitude": -105.013557
      },
      "distanceMeters": 4705.2,
      "durationMs": 685602,
      "drivingDurationMs": 510254,
      "idlingDurationMs": 175348,
      "fuelConsumedMl": 212,
      "fuelConsumedGallons": 0.056,
      "maxSpeedMph": 42.9,
      "averageSpeedMph": 15.4,
      "safetyEvents": []
    },
    {
      "id": "trip_49375627_20250210_005",
      "vehicleId": "49375627",
      "driverId": "20000010",
      "startMs": 1739193360000,
      "endMs": 1739195398368,
      "startAddress": "068 Brooks Crescent Suite 517",
      "endAddress": "0455 Catherine Loop Apt. 143",
      "startCoords": {
        "latitude": 39.738918,
        "longitude": -104.962746
      },
      "endCoords": {
        "latitude": 39.796367,
        "longitude": -104.972262
      },
      "distanceMeters": 17298.6,
      "durationMs": 2038368,
      "drivingDurationMs": 1742319,
      "idlingDurationMs": 296049,
      "fuelConsumedMl": 784,
      "fuelConsumedGallons": 0.207,
      "maxSpeedMph": 64.8,
      "averageSpeedMph": 19.0,
      "safetyEvents": []
    },
    {
      "id": "trip_49375627_20250210_006",
      "vehicleId": "49375627",
      "driverId": "20000010",
      "startMs": 1739168820000,
      "endMs": 1739171114228,
      "startAddress": "461 Steve Valley",
      "endAddress": "84154 Grace Junction",
      "startCoords": {
        "latitude": 39.732319,
        "longitude": -105.033935
      },
      "endCoords": {
        "latitude": 39.719399,
        "longitude": -104.913327
      },
      "distanceMeters": 19127.3,
      "durationMs": 2294228,
      "drivingDurationMs": 1928177,
      "idlingDurationMs": 366051,
      "fuelConsumedMl": 867,
      "fuelConsumedGallons": 0.229,
      "maxSpeedMph": 59.9,
      "averageSpeedMph": 18.6,
      "safetyEvents": []
    },
    {
      "id": "trip_49375627_20250210_007",
      "vehicleId": "49375627",
      "driverId": "20000010",
      "startMs": 1739198340000,
      "endMs": 1739199191256,
      "startAddress": "0199 Palmer Grove",
      "endAddress": "2428 John Landing Apt. 372",
      "startCoords": {
        "latitude": 39.819752,
        "longitude": -104.936864
      },
      "endCoords": {
        "latitude": 39.76449,
        "longitude": -104.907581
      },
      "distanceMeters": 5425.6,
      "durationMs": 851256,
      "drivingDurationMs": 674564,
      "idlingDurationMs": 176693,
      "fuelConsumedMl": 246,
      "fuelConsumedGallons": 0.065,
      "maxSpeedMph": 42.6,
      "averageSpeedMph": 14.3,
      "safetyEvents": []
    },
    {
      "id": "trip_49375627_20250210_008",
      "vehicleId": "49375627",
      "driverId": "20000010",
      "startMs": 1739176500000,
      "endMs": 1739179904164,
      "startAddress": "29370 Lowe Ways Apt. 391",
      "endAddress": "31939 Cox Extension Suite 214",
      "startCoords": {
        "latitude": 39.723037,
        "longitude": -104.926794
      },
      "endCoords": {
        "latitude": 39.808073,
        "longitude": -104.935711
      },
      "distanceMeters": 23637.1,
      "durationMs": 3404165,
      "drivingDurationMs": 3162599,
      "idlingDurationMs": 241566,
      "fuelConsumedMl": 1067,
      "fuelConsumedGallons": 0.282,
      "maxSpeedMph": 40.7,
      "averageSpeedMph": 15.5,
      "safetyEvents": []
    },
    {
      "id": "trip_49375627_20250210_009",
      "vehicleId": "49375627",
      "driverId": "20000010",
      "startMs": 1739195340000,
      "endMs": 1739196582204,
      "startAddress": "34370 Reginald Wall",
      "endAddress": "9526 Debbie Circles",
      "startCoords": {
        "latitude": 39.814403,
        "longitude": -105.059165
      },
      "endCoords": {
        "latitude": 39.823549,
        "longitude": -105.004849
      },
      "distanceMeters": 9895.0,
      "durationMs": 1242204,
      "drivingDurationMs": 1033377,
      "idlingDurationMs": 208827,
      "fuelConsumedMl": 447,
      "fuelConsumedGallons": 0.118,
      "maxSpeedMph": 37.5,
      "averageSpeedMph": 17.8,
      "safetyEvents": []
    },
    {
      "id": "trip_49375627_20250210_010",
      "vehicleId": "49375627",
      "driverId": "20000010",
      "startMs": 1739203020000,
      "endMs": 1739204545253,
      "startAddress": "3102 Andrew Forest",
      "endAddress": "97349 Vega Prairie",
      "startCoords": {
        "latitude": 39.823684,
        "longitude": -105.005026
      },
      "endCoords": {
        "latitude": 39.714661,
        "longitude": -105.087078
      },
      "distanceMeters": 10303.7,
      "durationMs": 1525254,
      "drivingDurationMs": 1290751,
      "idlingDurationMs": 234502,
      "fuelConsumedMl": 466,
      "fuelConsumedGallons": 0.123,
      "maxSpeedMph": 34.1,
      "averageSpeedMph": 15.1,
      "safetyEvents": []
    },
    {
      "id": "trip_49375627_20250210_011",
      "vehicleId": "49375627",
      "driverId": "20000010",
      "startMs": 1739186400000,
      "endMs": 1739187386212,
      "startAddress": "455 Watson Park",
      "endAddress": "501 Leon Shoals Suite 144",
      "startCoords": {
        "latitude": 39.822838,
        "longitude": -104.977946
      },
      "endCoords": {
        "latitude": 39.752506,
        "longitude": -104.902307
      },
      "distanceMeters": 8342.7,
      "durationMs": 986213,
      "drivingDurationMs": 801713,
      "idlingDurationMs": 184500,
      "fuelConsumedMl": 379,
      "fuelConsumedGallons": 0.1,
      "maxSpeedMph": 46.1,
      "averageSpeedMph": 18.9,
      "safetyEvents": []
    },
    {
      "id": "trip_49375627_20250210_012",
      "vehicleId": "49375627",
      "driverId": "20000010",
      "startMs": 1739213700000,
      "endMs": 1739216207301,
      "startAddress": "73262 Dustin Circle",
      "endAddress": "355 Brandon Fall",
      "startCoords": {
        "latitude": 39.817947,
        "longitude": -104.902635
      },
      "endCoords": {
        "latitude": 39.745662,
        "longitude": -104.984569
      },
      "distanceMeters": 13138.8,
      "durationMs": 2507301,
      "drivingDurationMs": 2130898,
      "idlingDurationMs": 376403,
      "fuelConsumedMl": 594,
      "fuelConsumedGallons": 0.157,
      "maxSpeedMph": 67.2,
      "averageSpeedMph": 11.7,
      "safetyEvents": [
        {
          "type": "speeding",
          "startMs": 1739214600000,
          "maxSpeedMph": 67.2
        }
      ]
    },
    {
      "id": "trip_49375627_20250210_013",
      "vehicleId": "49375627",
      "driverId": "20000010",
      "startMs": 1739198880000,
      "endMs": 1739201805123,
      "startAddress": "81362 Jillian Causeway",
      "endAddress": "799 Stone Bypass",
      "startCoords": {
        "latitude": 39.767461,
        "longitude": -105.064987
      },
      "endCoords": {
        "latitude": 39.736447,
        "longitude": -104.955546
      },
      "distanceMeters": 24105.5,
      "durationMs": 2925123,
      "drivingDurationMs": 2341479,
      "idlingDurationMs": 583645,
      "fuelConsumedMl": 1090,
      "fuelConsumedGallons": 0.288,
      "maxSpeedMph": 65.0,
      "averageSpeedMph": 18.4,
      "safetyEvents": []
    },
    {
      "id": "trip_49375627_20250210_014",
      "vehicleId": "49375627",
      "driverId": "20000010",
      "startMs": 1739191620000,
      "endMs": 1739194758208,
      "startAddress": "79892 Michelle Fords Suite 689",
      "endAddress": "46203 Tiffany Track",
      "startCoords": {
        "latitude": 39.741105,
        "longitude": -105.040716
      },
      "endCoords": {
        "latitude": 39.714887,
        "longitude": -104.950877
      },
      "distanceMeters": 18115.3,
      "durationMs": 3138208,
      "drivingDurationMs": 2682875,
      "idlingDurationMs": 455334,
      "fuelConsumedMl": 818,
      "fuelConsumedGallons": 0.216,
      "maxSpeedMph": 54.0,
      "averageSpeedMph": 12.9,
      "safetyEvents": []
    },
    {
      "id": "trip_49375627_20250211_001",
      "vehicleId": "49375627",
      "driverId": "20000013",
      "startMs": 1739299440000,
      "endMs": 1739300305995,
      "startAddress": "5563 Mcgrath Cliffs Suite 642",
      "endAddress": "031 Amanda Street",
      "startCoords": {
        "latitude": 39.738317,
        "longitude": -105.048051
      },
      "endCoords": {
        "latitude": 39.695366,
        "longitude": -105.082152
      },
      "distanceMeters": 4527.0,
      "durationMs": 865995,
      "drivingDurationMs": 691533,
      "idlingDurationMs": 174462,
      "fuelConsumedMl": 204,
      "fuelConsumedGallons": 0.054,
      "maxSpeedMph": 44.7,
      "averageSpeedMph": 11.7,
      "safetyEvents": []
    },
    {
      "id": "trip_49375627_20250211_002",
      "vehicleId": "49375627",
      "driverId": "20000013",
      "startMs": 1739285340000,
      "endMs": 1739287687050,
      "startAddress": "85300 Gutierrez Point",
      "endAddress": "776 Karen Summit",
      "startCoords": {
        "latitude": 39.771486,
        "longitude": -105.002296
      },
      "endCoords": {
        "latitude": 39.78898,
        "longitude": -104.98091
      },
      "distanceMeters": 16654.2,
      "durationMs": 2347050,
      "drivingDurationMs": 1901400,
      "idlingDurationMs": 445650,
      "fuelConsumedMl": 753,
      "fuelConsumedGallons": 0.199,
      "maxSpeedMph": 51.9,
      "averageSpeedMph": 15.9,
      "safetyEvents": []
    },
    {
      "id": "trip_49375627_20250211_003",
      "vehicleId": "49375627",
      "driverId": "20000013",
      "startMs": 1739262540000,
      "endMs": 1739263615394,
      "startAddress": "9743 Roy Streets",
      "endAddress": "42482 Adam Mountains Suite 984",
      "startCoords": {
        "latitude": 39.794491,
        "longitude": -105.087546
      },
      "endCoords": {
        "latitude": 39.721435,
        "longitude": -105.040062
      },
      "distanceMeters": 7005.1,
      "durationMs": 1075395,
      "drivingDurationMs": 883154,
      "idlingDurationMs": 192241,
      "fuelConsumedMl": 318,
      "fuelConsumedGallons": 0.084,
      "maxSpeedMph": 36.4,
      "averageSpeedMph": 14.6,
      "safetyEvents": []
    },
    {
      "id": "trip_49375627_20250211_004",
      "vehicleId": "49375627",
      "driverId": "20000013",
      "startMs": 1739268480000,
      "endMs": 1739270871718,
      "startAddress": "1084 White Point Apt. 101",
      "endAddress": "14234 Charles Pine Apt. 703",
      "startCoords": {
        "latitude": 39.801931,
        "longitude": -104.977784
      },
      "endCoords": {
        "latitude": 39.79949,
        "longitude": -104.952976
      },
      "distanceMeters": 20973.8,
      "durationMs": 2391719,
      "drivingDurationMs": 2144084,
      "idlingDurationMs": 247635,
      "fuelConsumedMl": 950,
      "fuelConsumedGallons": 0.251,
      "maxSpeedMph": 38.0,
      "averageSpeedMph": 19.6,
      "safetyEvents": []
    },
    {
      "id": "trip_49375627_20250211_005",
      "vehicleId": "49375627",
      "driverId": "20000013",
      "startMs": 1739279220000,
      "endMs": 1739283172403,
      "startAddress": "7367 Chung Mews Apt. 528",
      "endAddress": "621 John Track",
      "startCoords": {
        "latitude": 39.700229,
        "longitude": -104.917259
      },
      "endCoords": {
        "latitude": 39.815401,
        "longitude": -104.906477
      },
      "distanceMeters": 23387.7,
      "durationMs": 3952404,
      "drivingDurationMs": 3321016,
      "idlingDurationMs": 631388,
      "fuelConsumedMl": 1056,
      "fuelConsumedGallons": 0.279,
      "maxSpeedMph": 62.0,
      "averageSpeedMph": 13.2,
      "safetyEvents": []
    },
    {
      "id": "trip_49375627_20250211_006",
      "vehicleId": "49375627",
      "driverId": "20000013",
      "startMs": 1739259180000,
      "endMs": 1739260056623,
      "startAddress": "742 Chen Pine Apt. 997",
      "endAddress": "3859 Smith Turnpike",
      "startCoords": {
        "latitude": 39.785448,
        "longitude": -105.035063
      },
      "endCoords": {
        "latitude": 39.818446,
        "longitude": -105.087144
      },
      "distanceMeters": 6694.5,
      "durationMs": 876624,
      "drivingDurationMs": 698048,
      "idlingDurationMs": 178576,
      "fuelConsumedMl": 303,
      "fuelConsumedGallons": 0.08,
      "maxSpeedMph": 71.0,
      "averageSpeedMph": 17.1,
      "safetyEvents": [
        {
          "type": "speeding",
          "startMs": 1739259900000,
          "maxSpeedMph": 71.0
        }
      ]
    },
    {
      "id": "trip_49375627_20250211_007",
      "vehicleId": "49375627",
      "driverId": "20000013",
      "startMs": 1739288700000,
      "endMs": 1739291509995,
      "startAddress": "284 Robert Divide",
      "endAddress": "195 Simpson Walk Suite 665",
      "startCoords": {
        "latitude": 39.729991,
        "longitude": -105.078068
      },
      "endCoords": {
        "latitude": 39.707561,
        "longitude": -104.953918
      },
      "distanceMeters": 17159.8,
      "durationMs": 2809996,
      "drivingDurationMs": 2521116,
      "idlingDurationMs": 288880,
      "fuelConsumedMl": 776,
      "fuelConsumedGallons": 0.205,
      "maxSpeedMph": 61.5,
      "averageSpeedMph": 13.7,
      "safetyEvents": []
    },
    {
      "id": "trip_49375627_20250211_008",
      "vehicleId": "49375627",
      "driverId": "20000013",
      "startMs": 1739292300000,
      "endMs": 1739293562822,
      "startAddress": "4130 Amber Isle Suite 045",
      "endAddress": "7782 Tony Station Suite 113",
      "startCoords": {
        "latitude": 39.782841,
        "longitude": -104.976462
      },
      "endCoords": {
        "latitude": 39.822336,
        "longitude": -105.029763
      },
      "distanceMeters": 10548.5,
      "durationMs": 1262822,
      "drivingDurationMs": 1068291,
      "idlingDurationMs": 194531,
      "fuelConsumedMl": 477,
      "fuelConsumedGallons": 0.126,
      "maxSpeedMph": 57.8,
      "averageSpeedMph": 18.7,
      "safetyEvents": []
    },
    {
      "id": "trip_49375627_20250211_009",
      "vehicleId": "49375627",
      "driverId": "20000013",
      "startMs": 1739275680000,
      "endMs": 1739276484792,
      "startAddress": "9673 Mack Mountains Apt. 999",
      "endAddress": "5954 Copeland Lodge",
      "startCoords": {
        "latitude": 39.724209,
        "longitude": -104.982819
      },
      "endCoords": {
        "latitude": 39.712245,
        "longitude": -105.069033
      },
      "distanceMeters": 5640.4,
      "durationMs": 804792,
      "drivingDurationMs": 635756,
      "idlingDurationMs": 169036,
      "fuelConsumedMl": 254,
      "fuelConsumedGallons": 0.067,
      "maxSpeedMph": 71.1,
      "averageSpeedMph": 15.7,
      "safetyEvents": [
        {
          "type": "speeding",
          "startMs": 1739275800000,
          "maxSpeedMph": 71.1
        }
      ]
    },
    {
      "id": "trip_49375627_20250211_010",
      "vehicleId": "49375627",
      "driverId": "20000013",
      "startMs": 1739296080000,
      "endMs": 1739299809861,
      "startAddress": "20443 Justin Fords",
      "endAddress": "3692 Kimberly Trafficway",
      "startCoords": {
        "latitude": 39.817011,
        "longitude": -105.009045
      },
      "endCoords": {
        "latitude": 39.813747,
        "longitude": -104.980554
      },
      "distanceMeters": 24225.2,
      "durationMs": 3729862,
      "drivingDurationMs": 3277251,
      "idlingDurationMs": 452611,
      "fuelConsumedMl": 1094,
      "fuelConsumedGallons": 0.289,
      "maxSpeedMph": 33.2,
      "averageSpeedMph": 14.5,
      "safetyEvents": []
    },
    {
      "id": "trip_49375627_20250212_001",
      "vehicleId": "49375627",
      "driverId": "20000022",
      "startMs": 1739358960000,
      "endMs": 1739362311969,
      "startAddress": "234 Miller Hill Apt. 199",
      "endAddress": "02881 Peters Fords Suite 657",
      "startCoords": {
        "latitude": 39.79041,
        "longitude": -104.996602
      },
      "endCoords": {
        "latitude": 39.816027,
        "longitude": -104.976329
      },
      "distanceMeters": 17993.3,
      "durationMs": 3351969,
      "drivingDurationMs": 2690882,
      "idlingDurationMs": 661087,
      "fuelConsumedMl": 814,
      "fuelConsumedGallons": 0.215,
      "maxSpeedMph": 53.6,
      "averageSpeedMph": 12.0,
      "safetyEvents": []
    },
    {
      "id": "trip_49375627_20250212_002",
      "vehicleId": "49375627",
      "driverId": "20000022",
      "startMs": 1739343840000,
      "endMs": 1739346598746,
      "startAddress": "309 Sims Turnpike Suite 775",
      "endAddress": "0848 Gomez Drive",
      "startCoords": {
        "latitude": 39.740048,
        "longitude": -104.915969
      },
      "endCoords": {
        "latitude": 39.711717,
        "longitude": -104.990357
      },
      "distanceMeters": 22716.7,
      "durationMs": 2758747,
      "drivingDurationMs": 2394487,
      "idlingDurationMs": 364260,
      "fuelConsumedMl": 1026,
      "fuelConsumedGallons": 0.271,
      "maxSpeedMph": 63.8,
      "averageSpeedMph": 18.4,
      "safetyEvents": []
    },
    {
      "id": "trip_49375627_20250212_003",
      "vehicleId": "49375627",
      "driverId": "20000022",
      "startMs": 1739347440000,
      "endMs": 1739349003429,
      "startAddress": "361 Wilson Trail",
      "endAddress": "97928 Rebecca River Apt. 733",
      "startCoords": {
        "latitude": 39.802355,
        "longitude": -104.914789
      },
      "endCoords": {
        "latitude": 39.816001,
        "longitude": -105.035389
      },
      "distanceMeters": 12005.4,
      "durationMs": 1563429,
      "drivingDurationMs": 1283634,
      "idlingDurationMs": 279795,
      "fuelConsumedMl": 541,
      "fuelConsumedGallons": 0.143,
      "maxSpeedMph": 59.8,
      "averageSpeedMph": 17.2,
      "safetyEvents": []
    },
    {
      "id": "trip_49375627_20250212_004",
      "vehicleId": "49375627",
      "driverId": "20000022",
      "startMs": 1739362980000,
      "endMs": 1739364694502,
      "startAddress": "9567 Belinda Lakes Apt. 233",
      "endAddress": "1062 George Way Suite 067",
      "startCoords": {
        "latitude": 39.763447,
        "longitude": -105.085466
      },
      "endCoords": {
        "latitude": 39.746586,
        "longitude": -105.086172
      },
      "distanceMeters": 11327.1,
      "durationMs": 1714502,
      "drivingDurationMs": 1377789,
      "idlingDurationMs": 336713,
      "fuelConsumedMl": 511,
      "fuelConsumedGallons": 0.135,
      "maxSpeedMph": 69.2,
      "averageSpeedMph": 14.8,
      "safetyEvents": [
        {
          "type": "speeding",
          "startMs": 1739363820000,
          "maxSpeedMph": 69.2
        }
      ]
    },
    {
      "id": "trip_49375627_20250212_005",
      "vehicleId": "49375627",
      "driverId": "20000022",
      "startMs": 1739347620000,
      "endMs": 1739349099720,
      "startAddress": "07788 Karen Rapid",
      "endAddress": "7597 White Centers Apt. 944",
      "startCoords": {
        "latitude": 39.713492,
        "longitude": -104.941507
      },
      "endCoords": {
        "latitude": 39.715324,
        "longitude": -104.943845
      },
      "distanceMeters": 12590.4,
      "durationMs": 1479721,
      "drivingDurationMs": 1244773,
      "idlingDurationMs": 234947,
      "fuelConsumedMl": 568,
      "fuelConsumedGallons": 0.15,
      "maxSpeedMph": 46.8,
      "averageSpeedMph": 19.0,
      "safetyEvents": []
    },
    {
      "id": "trip_49375627_20250212_006",
      "vehicleId": "49375627",
      "driverId": "20000022",
      "startMs": 1739344140000,
      "endMs": 1739345504220,
      "startAddress": "491 Jordan Rapids",
      "endAddress": "8780 Foley Gateway",
      "startCoords": {
        "latitude": 39.755394,
        "longitude": -104.941193
      },
      "endCoords": {
        "latitude": 39.801034,
        "longitude": -104.979364
      },
      "distanceMeters": 9040.2,
      "durationMs": 1364221,
      "drivingDurationMs": 1134186,
      "idlingDurationMs": 230034,
      "fuelConsumedMl": 409,
      "fuelConsumedGallons": 0.108,
      "maxSpeedMph": 44.5,
      "averageSpeedMph": 14.8,
      "safetyEvents": []
    },
    {
      "id": "trip_49375627_20250212_007",
      "vehicleId": "49375627",
      "driverId": "20000022",
      "startMs": 1739370900000,
      "endMs": 1739375074896,
      "startAddress": "9299 Lance Lodge Apt. 455",
      "endAddress": "45999 Thomas Alley",
      "startCoords": {
        "latitude": 39.776792,
        "longitude": -104.991104
      },
      "endCoords": {
        "latitude": 39.723848,
        "longitude": -105.017445
      },
      "distanceMeters": 24754.1,
      "durationMs": 4174896,
      "drivingDurationMs": 3992779,
      "idlingDurationMs": 182118,
      "fuelConsumedMl": 1120,
      "fuelConsumedGallons": 0.296,
      "maxSpeedMph": 66.8,
      "averageSpeedMph": 13.3,
      "safetyEvents": [
        {
          "type": "speeding",
          "startMs": 1739373840000,
          "maxSpeedMph": 66.8
        }
      ]
    },
    {
      "id": "trip_49375627_20250212_008",
      "vehicleId": "49375627",
      "driverId": "20000022",
      "startMs": 1739381880000,
      "endMs": 1739383207256,
      "startAddress": "1296 David Expressway",
      "endAddress": "7680 Bowman Estates Suite 799",
      "startCoords": {
        "latitude": 39.707769,
        "longitude": -105.075616
      },
      "endCoords": {
        "latitude": 39.724822,
        "longitude": -105.019731
      },
      "distanceMeters": 10685.7,
      "durationMs": 1327256,
      "drivingDurationMs": 1095505,
      "idlingDurationMs": 231752,
      "fuelConsumedMl": 485,
      "fuelConsumedGallons": 0.128,
      "maxSpeedMph": 32.5,
      "averageSpeedMph": 18.0,
      "safetyEvents": []
    },
    {
      "id": "trip_49375627_20250212_009",
      "vehicleId": "49375627",
      "driverId": "20000022",
      "startMs": 1739354340000,
      "endMs": 1739356534636,
      "startAddress": "406 Norman View Apt. 213",
      "endAddress": "3955 Tiffany Burgs Suite 157",
      "startCoords": {
        "latitude": 39.699275,
        "longitude": -105.035264
      },
      "endCoords": {
        "latitude": 39.80503,
        "longitude": -104.961742
      },
      "distanceMeters": 17466.9,
      "durationMs": 2194637,
      "drivingDurationMs": 2006708,
      "idlingDurationMs": 187928,
      "fuelConsumedMl": 791,
      "fuelConsumedGallons": 0.209,
      "maxSpeedMph": 34.7,
      "averageSpeedMph": 17.8,
      "safetyEvents": []
    },
    {
      "id": "trip_49375627_20250212_010",
      "vehicleId": "49375627",
      "driverId": "20000022",
      "startMs": 1739358240000,
      "endMs": 1739360843198,
      "startAddress": "1281 Garcia Glen Suite 019",
      "endAddress": "134 Kathleen Islands Apt. 664",
      "startCoords": {
        "latitude": 39.748356,
        "longitude": -104.990496
      },
      "endCoords": {
        "latitude": 39.79727,
        "longitude": -105.046225
      },
      "distanceMeters": 22802.2,
      "durationMs": 2603199,
      "drivingDurationMs": 2203423,
      "idlingDurationMs": 399776,
      "fuelConsumedMl": 1030,
      "fuelConsumedGallons": 0.272,
      "maxSpeedMph": 61.9,
      "averageSpeedMph": 19.6,
      "safetyEvents": []
    },
    {
      "id": "trip_49375627_20250213_001",
      "vehicleId": "49375627",
      "driverId": "20000002",
      "startMs": 1739441160000,
      "endMs": 1739444094840,
      "startAddress": "37497 Hanna Dale",
      "endAddress": "228 Christina Ports",
      "startCoords": {
        "latitude": 39.713302,
        "longitude": -105.073417
      },
      "endCoords": {
        "latitude": 39.823953,
        "longitude": -104.930675
      },
      "distanceMeters": 19436.2,
      "durationMs": 2934840,
      "drivingDurationMs": 2365615,
      "idlingDurationMs": 569225,
      "fuelConsumedMl": 878,
      "fuelConsumedGallons": 0.232,
      "maxSpeedMph": 55.5,
      "averageSpeedMph": 14.8,
      "safetyEvents": []
    },
    {
      "id": "trip_49375627_20250213_002",
      "vehicleId": "49375627",
      "driverId": "20000002",
      "startMs": 1739449560000,
      "endMs": 1739452698089,
      "startAddress": "8284 Lisa Plaza",
      "endAddress": "033 Bowers Meadow",
      "startCoords": {
        "latitude": 39.774647,
        "longitude": -104.905185
      },
      "endCoords": {
        "latitude": 39.719645,
        "longitude": -104.929371
      },
      "distanceMeters": 22776.5,
      "durationMs": 3138089,
      "drivingDurationMs": 2680182,
      "idlingDurationMs": 457908,
      "fuelConsumedMl": 1030,
      "fuelConsumedGallons": 0.272,
      "maxSpeedMph": 61.0,
      "averageSpeedMph": 16.2,
      "safetyEvents": []
    },
    {
      "id": "trip_49375627_20250213_003",
      "vehicleId": "49375627",
      "driverId": "20000002",
      "startMs": 1739440560000,
      "endMs": 1739442860352,
      "startAddress": "87291 Julia Land",
      "endAddress": "38277 Perez Crest",
      "startCoords": {
        "latitude": 39.793733,
        "longitude": -105.009016
      },
      "endCoords": {
        "latitude": 39.731558,
        "longitude": -105.029836
      },
      "distanceMeters": 12310.0,
      "durationMs": 2300353,
      "drivingDurationMs": 1969177,
      "idlingDurationMs": 331176,
      "fuelConsumedMl": 556,
      "fuelConsumedGallons": 0.147,
      "maxSpeedMph": 40.4,
      "averageSpeedMph": 12.0,
      "safetyEvents": []
    },
    {
      "id": "trip_49375627_20250213_004",
      "vehicleId": "49375627",
      "driverId": "20000002",
      "startMs": 1739464560000,
      "endMs": 1739466673492,
      "startAddress": "74956 Montgomery Mission",
      "endAddress": "06051 Petersen Mountain",
      "startCoords": {
        "latitude": 39.768918,
        "longitude": -105.00467
      },
      "endCoords": {
        "latitude": 39.748201,
        "longitude": -104.981347
      },
      "distanceMeters": 15667.5,
      "durationMs": 2113492,
      "drivingDurationMs": 1750526,
      "idlingDurationMs": 362966,
      "fuelConsumedMl": 708,
      "fuelConsumedGallons": 0.187,
      "maxSpeedMph": 54.0,
      "averageSpeedMph": 16.6,
      "safetyEvents": []
    },
    {
      "id": "trip_49375627_20250213_005",
      "vehicleId": "49375627",
      "driverId": "20000002",
      "startMs": 1739454960000,
      "endMs": 1739455507108,
      "startAddress": "429 Jeremiah Circles",
      "endAddress": "3438 Lisa Street Apt. 760",
      "startCoords": {
        "latitude": 39.798003,
        "longitude": -105.022193
      },
      "endCoords": {
        "latitude": 39.72568,
        "longitude": -105.044569
      },
      "distanceMeters": 3317.3,
      "durationMs": 547108,
      "drivingDurationMs": 396855,
      "idlingDurationMs": 150253,
      "fuelConsumedMl": 151,
      "fuelConsumedGallons": 0.04,
      "maxSpeedMph": 60.4,
      "averageSpeedMph": 13.6,
      "safetyEvents": []
    },
    {
      "id": "trip_49375627_20250213_006",
      "vehicleId": "49375627",
      "driverId": "20000002",
      "startMs": 1739443980000,
      "endMs": 1739445312818,
      "startAddress": "362 Bradley Port Suite 397",
      "endAddress": "3269 Shelley Dale Suite 591",
      "startCoords": {
        "latitude": 39.774993,
        "longitude": -104.903296
      },
      "endCoords": {
        "latitude": 39.799947,
        "longitude": -105.070941
      },
      "distanceMeters": 8219.8,
      "durationMs": 1332818,
      "drivingDurationMs": 1110296,
      "idlingDurationMs": 222522,
      "fuelConsumedMl": 371,
      "fuelConsumedGallons": 0.098,
      "maxSpeedMph": 67.3,
      "averageSpeedMph": 13.8,
      "safetyEvents": [
        {
          "type": "speeding",
          "startMs": 1739444340000,
          "maxSpeedMph": 67.3
        }
      ]
    },
    {
      "id": "trip_49375627_20250213_007",
      "vehicleId": "49375627",
      "driverId": "20000002",
      "startMs": 1739437380000,
      "endMs": 1739438435465,
      "startAddress": "0335 Adams Place",
      "endAddress": "825 Hernandez Knolls",
      "startCoords": {
        "latitude": 39.756115,
        "longitude": -104.914047
      },
      "endCoords": {
        "latitude": 39.806832,
        "longitude": -105.047832
      },
      "distanceMeters": 6219.1,
      "durationMs": 1055466,
      "drivingDurationMs": 844970,
      "idlingDurationMs": 210495,
      "fuelConsumedMl": 280,
      "fuelConsumedGallons": 0.074,
      "maxSpeedMph": 67.8,
      "averageSpeedMph": 13.2,
      "safetyEvents": [
        {
          "type": "speeding",
          "startMs": 1739438280000,
          "maxSpeedMph": 67.8
        }
      ]
    },
    {
      "id": "trip_49375627_20250213_008",
      "vehicleId": "49375627",
      "driverId": "20000002",
      "startMs": 1739433720000,
      "endMs": 1739434468554,
      "startAddress": "25488 Johnny Lock Apt. 278",
      "endAddress": "5599 Jones Flats",
      "startCoords": {
        "latitude": 39.73221,
        "longitude": -105.053578
      },
      "endCoords": {
        "latitude": 39.818684,
        "longitude": -105.028852
      },
      "distanceMeters": 4953.4,
      "durationMs": 748554,
      "drivingDurationMs": 596400,
      "idlingDurationMs": 152155,
      "fuelConsumedMl": 223,
      "fuelConsumedGallons": 0.059,
      "maxSpeedMph": 65.5,
      "averageSpeedMph": 14.8,
      "safetyEvents": [
        {
          "type": "speeding",
          "startMs": 1739434080000,
          "maxSpeedMph": 65.5
        }
      ]
    },
    {
      "id": "trip_49375627_20250213_009",
      "vehicleId": "49375627",
      "driverId": "20000002",
      "startMs": 1739456040000,
      "endMs": 1739456629410,
      "startAddress": "215 James Lakes",
      "endAddress": "952 Holland Rapids",
      "startCoords": {
        "latitude": 39.689122,
        "longitude": -104.903679
      },
      "endCoords": {
        "latitude": 39.697543,
        "longitude": -104.974833
      },
      "distanceMeters": 4720.8,
      "durationMs": 589410,
      "drivingDurationMs": 469857,
      "idlingDurationMs": 119553,
      "fuelConsumedMl": 212,
      "fuelConsumedGallons": 0.056,
      "maxSpeedMph": 59.5,
      "averageSpeedMph": 17.9,
      "safetyEvents": []
    },
    {
      "id": "trip_49375627_20250213_010",
      "vehicleId": "49375627",
      "driverId": "20000002",
      "startMs": 1739458140000,
      "endMs": 1739459389631,
      "startAddress": "2266 Chambers Ridges Suite 609",
      "endAddress": "985 Johnson Roads Suite 870",
      "startCoords": {
        "latitude": 39.735242,
        "longitude": -104.97041
      },
      "endCoords": {
        "latitude": 39.694945,
        "longitude": -104.912884
      },
      "distanceMeters": 10322.9,
      "durationMs": 1249631,
      "drivingDurationMs": 1041555,
      "idlingDurationMs": 208076,
      "fuelConsumedMl": 466,
      "fuelConsumedGallons": 0.123,
      "maxSpeedMph": 30.6,
      "averageSpeedMph": 18.5,
      "safetyEvents": []
    },
    {
      "id": "trip_49375627_20250213_011",
      "vehicleId": "49375627",
      "driverId": "20000002",
      "startMs": 1739443620000,
      "endMs": 1739445861818,
      "startAddress": "2012 Andrews Parkways Apt. 071",
      "endAddress": "261 Jim Spring",
      "startCoords": {
        "latitude": 39.814467,
        "longitude": -105.043194
      },
      "endCoords": {
        "latitude": 39.722266,
        "longitude": -105.000802
      },
      "distanceMeters": 14596.6,
      "durationMs": 2241819,
      "drivingDurationMs": 1816501,
      "idlingDurationMs": 425318,
      "fuelConsumedMl": 659,
      "fuelConsumedGallons": 0.174,
      "maxSpeedMph": 58.3,
      "averageSpeedMph": 14.6,
      "safetyEvents": []
    },
    {
      "id": "trip_49375627_20250213_012",
      "vehicleId": "49375627",
      "driverId": null,
      "startMs": 1739428920000,
      "endMs": 1739429691640,
      "startAddress": "421 Caleb Park Suite 091",
      "endAddress": "531 Sean Lake Suite 794",
      "startCoords": {
        "latitude": 39.727387,
        "longitude": -105.032202
      },
      "endCoords": {
        "latitude": 39.71298,
        "longitude": -104.986877
      },
      "distanceMeters": 4363.5,
      "durationMs": 771640,
      "drivingDurationMs": 617040,
      "idlingDurationMs": 154601,
      "fuelConsumedMl": 197,
      "fuelConsumedGallons": 0.052,
      "maxSpeedMph": 35.0,
      "averageSpeedMph": 12.6,
      "safetyEvents": []
    },
    {
      "id": "trip_49375627_20250213_013",
      "vehicleId": "49375627",
      "driverId": "20000002",
      "startMs": 1739433900000,
      "endMs": 1739437190215,
      "startAddress": "18031 Emily Extensions Apt. 295",
      "endAddress": "528 Robert Fields",
      "startCoords": {
        "latitude": 39.785669,
        "longitude": -104.926203
      },
      "endCoords": {
        "latitude": 39.691641,
        "longitude": -104.9976
      },
      "distanceMeters": 20047.3,
      "durationMs": 3290216,
      "drivingDurationMs": 3079437,
      "idlingDurationMs": 210779,
      "fuelConsumedMl": 908,
      "fuelConsumedGallons": 0.24,
      "maxSpeedMph": 49.7,
      "averageSpeedMph": 13.6,
      "safetyEvents": []
    },
    {
      "id": "trip_49375627_20250213_014",
      "vehicleId": "49375627",
      "driverId": "20000002",
      "startMs": 1739447580000,
      "endMs": 1739449209594,
      "startAddress": "4594 Ellis Canyon Apt. 056",
      "endAddress": "78529 Henderson Fords",
      "startCoords": {
        "latitude": 39.711324,
        "longitude": -105.047249
      },
      "endCoords": {
        "latitude": 39.776115,
        "longitude": -105.008675
      },
      "distanceMeters": 13245.0,
      "durationMs": 1629594,
      "drivingDurationMs": 1308124,
      "idlingDurationMs": 321470,
      "fuelConsumedMl": 598,
      "fuelConsumedGallons": 0.158,
      "maxSpeedMph": 71.9,
      "averageSpeedMph": 18.2,
      "safetyEvents": [
        {
          "type": "speeding",
          "startMs": 1739448540000,
          "maxSpeedMph": 71.9
        }
      ]
    },
    {
      "id": "trip_49375627_20250213_015",
      "vehicleId": "49375627",
      "driverId": "20000002",
      "startMs": 1739440380000,
      "endMs": 1739441297246,
      "startAddress": "118 Clark Alley Apt. 980",
      "endAddress": "96721 Ashley Parkway Suite 277",
      "startCoords": {
        "latitude": 39.757633,
        "longitude": -104.922204
      },
      "endCoords": {
        "latitude": 39.782851,
        "longitude": -105.038709
      },
      "distanceMeters": 5504.9,
      "durationMs": 917246,
      "drivingDurationMs": 737123,
      "idlingDurationMs": 180123,
      "fuelConsumedMl": 250,
      "fuelConsumedGallons": 0.066,
      "maxSpeedMph": 71.3,
      "averageSpeedMph": 13.4,
      "safetyEvents": [
        {
          "type": "speeding",
          "startMs": 1739440620000,
          "maxSpeedMph": 71.3
        }
      ]
    },
    {
      "id": "trip_49375627_20250213_016",
      "vehicleId": "49375627",
      "driverId": "20000002",
      "startMs": 1739471820000,
      "endMs": 1739473391270,
      "startAddress": "4849 Baker Freeway Apt. 135",
      "endAddress": "17473 Tristan Prairie",
      "startCoords": {
        "latitude": 39.72154,
        "longitude": -104.950249
      },
      "endCoords": {
        "latitude": 39.821701,
        "longitude": -104.977402
      },
      "distanceMeters": 10965.5,
      "durationMs": 1571270,
      "drivingDurationMs": 1260758,
      "idlingDurationMs": 310512,
      "fuelConsumedMl": 496,
      "fuelConsumedGallons": 0.131,
      "maxSpeedMph": 38.2,
      "averageSpeedMph": 15.6,
      "safetyEvents": []
    },
    {
      "id": "trip_49375627_20250213_017",
      "vehicleId": "49375627",
      "driverId": "20000002",
      "startMs": 1739467800000,
      "endMs": 1739468204151,
      "startAddress": "274 Daniels Isle",
      "endAddress": "313 Brandon Lodge Apt. 523",
      "startCoords": {
        "latitude": 39.685244,
        "longitude": -104.996371
      },
      "endCoords": {
        "latitude": 39.713298,
        "longitude": -104.909457
      },
      "distanceMeters": 3135.6,
      "durationMs": 404152,
      "drivingDurationMs": 299020,
      "idlingDurationMs": 105132,
      "fuelConsumedMl": 140,
      "fuelConsumedGallons": 0.037,
      "maxSpeedMph": 62.2,
      "averageSpeedMph": 17.4,
      "safetyEvents": []
    },
    {
      "id": "trip_49375627_20250213_018",
      "vehicleId": "49375627",
      "driverId": "20000002",
      "startMs": 1739439240000,
      "endMs": 1739441366621,
      "startAddress": "821 Douglas Ramp Suite 299",
      "endAddress": "880 Mccullough Ridges",
      "startCoords": {
        "latitude": 39.764585,
        "longitude": -104.957377
      },
      "endCoords": {
        "latitude": 39.759637,
        "longitude": -104.926822
      },
      "distanceMeters": 16576.5,
      "durationMs": 2126622,
      "drivingDurationMs": 1784983,
      "idlingDurationMs": 341639,
      "fuelConsumedMl": 750,
      "fuelConsumedGallons": 0.198,
      "maxSpeedMph": 57.8,
      "averageSpeedMph": 17.4,
      "safetyEvents": []
    },
    {
      "id": "trip_49375627_20250214_001",
      "vehicleId": "49375627",
      "driverId": "20000018",
      "startMs": 1739531100000,
      "endMs": 1739533105412,
      "startAddress": "563 Ross Squares Suite 186",
      "endAddress": "408 Cindy Plaza Apt. 572",
      "startCoords": {
        "latitude": 39.70101,
        "longitude": -104.910441
      },
      "endCoords": {
        "latitude": 39.704175,
        "longitude": -104.926444
      },
      "distanceMeters": 15750.4,
      "durationMs": 2005413,
      "drivingDurationMs": 1682089,
      "idlingDurationMs": 323324,
      "fuelConsumedMl": 712,
      "fuelConsumedGallons": 0.188,
      "maxSpeedMph": 48.5,
      "averageSpeedMph": 17.6,
      "safetyEvents": []
    },
    {
      "id": "trip_49375627_20250214_002",
      "vehicleId": "49375627",
      "driverId": null,
      "startMs": 1739524860000,
      "endMs": 1739525294417,
      "startAddress": "21597 Bell Fork Suite 645",
      "endAddress": "7058 Devon Drive",
      "startCoords": {
        "latitude": 39.75189,
        "longitude": -104.922637
      },
      "endCoords": {
        "latitude": 39.722918,
        "longitude": -104.977072
      },
      "distanceMeters": 2748.0,
      "durationMs": 434417,
      "drivingDurationMs": 328415,
      "idlingDurationMs": 106003,
      "fuelConsumedMl": 125,
      "fuelConsumedGallons": 0.033,
      "maxSpeedMph": 51.1,
      "averageSpeedMph": 14.2,
      "safetyEvents": []
    },
    {
      "id": "trip_49375627_20250214_003",
      "vehicleId": "49375627",
      "driverId": "20000018",
      "startMs": 1739535360000,
      "endMs": 1739535920157,
      "startAddress": "8494 Cruz Wall Apt. 170",
      "endAddress": "5323 Hunt Fork Apt. 504",
      "startCoords": {
        "latitude": 39.775262,
        "longitude": -104.976632
      },
      "endCoords": {
        "latitude": 39.810412,
        "longitude": -104.964128
      },
      "distanceMeters": 3970.3,
      "durationMs": 560157,
      "drivingDurationMs": 408703,
      "idlingDurationMs": 151455,
      "fuelConsumedMl": 178,
      "fuelConsumedGallons": 0.047,
      "maxSpeedMph": 66.6,
      "averageSpeedMph": 15.9,
      "safetyEvents": [
        {
          "type": "speeding",
          "startMs": 1739535780000,
          "maxSpeedMph": 66.6
        }
      ]
    },
    {
      "id": "trip_49375627_20250214_004",
      "vehicleId": "49375627",
      "driverId": "20000018",
      "startMs": 1739512860000,
      "endMs": 1739515197193,
      "startAddress": "4048 Weber Center Apt. 852",
      "endAddress": "707 Rebecca Ports Apt. 857",
      "startCoords": {
        "latitude": 39.692152,
        "longitude": -104.907887
      },
      "endCoords": {
        "latitude": 39.724827,
        "longitude": -105.081995
      },
      "distanceMeters": 16844.2,
      "durationMs": 2337194,
      "drivingDurationMs": 1922357,
      "idlingDurationMs": 414837,
      "fuelConsumedMl": 761,
      "fuelConsumedGallons": 0.201,
      "maxSpeedMph": 31.8,
      "averageSpeedMph": 16.1,
      "safetyEvents": []
    },
    {
      "id": "trip_49375627_20250214_005",
      "vehicleId": "49375627",
      "driverId": "20000018",
      "startMs": 1739535060000,
      "endMs": 1739536366695,
      "startAddress": "41102 Yates Harbors Apt. 837",
      "endAddress": "3869 Peterson Plains Apt. 809",
      "startCoords": {
        "latitude": 39.761586,
        "longitude": -104.927223
      },
      "endCoords": {
        "latitude": 39.768307,
        "longitude": -104.914642
      },
      "distanceMeters": 8708.9,
      "durationMs": 1306695,
      "drivingDurationMs": 1101601,
      "idlingDurationMs": 205094,
      "fuelConsumedMl": 394,
      "fuelConsumedGallons": 0.104,
      "maxSpeedMph": 61.7,
      "averageSpeedMph": 14.9,
      "safetyEvents": []
    },
    {
      "id": "trip_49375627_20250214_006",
      "vehicleId": "49375627",
      "driverId": "20000018",
      "startMs": 1739518800000,
      "endMs": 1739521707708,
      "startAddress": "507 Collins Spring",
      "endAddress": "183 Guerrero Ranch Suite 250",
      "startCoords": {
        "latitude": 39.754705,
        "longitude": -105.076
      },
      "endCoords": {
        "latitude": 39.708192,
        "longitude": -105.009619
      },
      "distanceMeters": 21551.1,
      "durationMs": 2907709,
      "drivingDurationMs": 2611454,
      "idlingDurationMs": 296255,
      "fuelConsumedMl": 977,
      "fuelConsumedGallons": 0.258,
      "maxSpeedMph": 30.3,
      "averageSpeedMph": 16.6,
      "safetyEvents": []
    },
    {
      "id": "trip_49375627_20250214_007",
      "vehicleId": "49375627",
      "driverId": "20000018",
      "startMs": 1739527020000,
      "endMs": 1739527988882,
      "startAddress": "5734 Smith Freeway",
      "endAddress": "7505 Farrell Locks",
      "startCoords": {
        "latitude": 39.744816,
        "longitude": -105.037832
      },
      "endCoords": {
        "latitude": 39.696165,
        "longitude": -104.941692
      },
      "distanceMeters": 8156.1,
      "durationMs": 968882,
      "drivingDurationMs": 786091,
      "idlingDurationMs": 182792,
      "fuelConsumedMl": 367,
      "fuelConsumedGallons": 0.097,
      "maxSpeedMph": 41.5,
      "averageSpeedMph": 18.8,
      "safetyEvents": []
    },
    {
      "id": "trip_49375627_20250214_008",
      "vehicleId": "49375627",
      "driverId": "20000018",
      "startMs": 1739520360000,
      "endMs": 1739521268376,
      "startAddress": "003 Jason Flats Suite 633",
      "endAddress": "56639 Roberts Brooks",
      "startCoords": {
        "latitude": 39.807367,
        "longitude": -105.039947
      },
      "endCoords": {
        "latitude": 39.758015,
        "longitude": -104.947474
      },
      "distanceMeters": 6823.7,
      "durationMs": 908377,
      "drivingDurationMs": 727479,
      "idlingDurationMs": 180897,
      "fuelConsumedMl": 310,
      "fuelConsumedGallons": 0.082,
      "maxSpeedMph": 41.7,
      "averageSpeedMph": 16.8,
      "safetyEvents": []
    },
    {
      "id": "trip_49375627_20250214_009",
      "vehicleId": "49375627",
      "driverId": "20000018",
      "startMs": 1739515800000,
      "endMs": 1739517891403,
      "startAddress": "50434 Eric Common",
      "endAddress": "552 Chang Terrace Suite 433",
      "startCoords": {
        "latitude": 39.724267,
        "longitude": -104.98331
      },
      "endCoords": {
        "latitude": 39.69651,
        "longitude": -104.934674
      },
      "distanceMeters": 12701.7,
      "durationMs": 2091404,
      "drivingDurationMs": 1764938,
      "idlingDurationMs": 326466,
      "fuelConsumedMl": 575,
      "fuelConsumedGallons": 0.152,
      "maxSpeedMph": 42.7,
      "averageSpeedMph": 13.6,
      "safetyEvents": []
    },
    {
      "id": "trip_49375627_20250214_010",
      "vehicleId": "49375627",
      "driverId": "20000018",
      "startMs": 1739523540000,
      "endMs": 1739524785417,
      "startAddress": "347 Nash Valley",
      "endAddress": "553 Jackson Hollow Suite 053",
      "startCoords": {
        "latitude": 39.763168,
        "longitude": -104.92003
      },
      "endCoords": {
        "latitude": 39.795082,
        "longitude": -104.950649
      },
      "distanceMeters": 8423.7,
      "durationMs": 1245418,
      "drivingDurationMs": 1009164,
      "idlingDurationMs": 236254,
      "fuelConsumedMl": 382,
      "fuelConsumedGallons": 0.101,
      "maxSpeedMph": 37.7,
      "averageSpeedMph": 15.1,
      "safetyEvents": []
    },
    {
      "id": "trip_49375627_20250214_011",
      "vehicleId": "49375627",
      "driverId": "20000018",
      "startMs": 1739552520000,
      "endMs": 1739554477963,
      "startAddress": "4337 Jones Park",
      "endAddress": "4082 Walter Plain Suite 735",
      "startCoords": {
        "latitude": 39.802214,
        "longitude": -104.989393
      },
      "endCoords": {
        "latitude": 39.77201,
        "longitude": -105.027746
      },
      "distanceMeters": 16985.9,
      "durationMs": 1957964,
      "drivingDurationMs": 1715490,
      "idlingDurationMs": 242473,
      "fuelConsumedMl": 768,
      "fuelConsumedGallons": 0.203,
      "maxSpeedMph": 52.9,
      "averageSpeedMph": 19.4,
      "safetyEvents": []
    },