{
  "vehicleId": "42031656",
  "vehicleName": "DEN-VAN-09",
  "month": "2025_02",
  "pagination": {
    "endCursor": "trip_42031656_20250228_003",
    "hasNextPage": false
  },
  "trips": [
    {
      "id": "trip_42031656_20250201_001",
      "vehicleId": "42031656",
      "driverId": "20000021",
      "startMs": 1738402980000,
      "endMs": 1738412200559,
      "startAddress": "6149 Francis Corners",
      "endAddress": "998 Melanie Parkways Apt. 906",
      "startCoords": {
        "latitude": 39.736651,
        "longitude": -104.912691
      },
      "endCoords": {
        "latitude": 39.74297,
        "longitude": -105.040325
      },
      "distanceMeters": 65086.0,
      "durationMs": 9220559,
      "drivingDurationMs": 8093253,
      "idlingDurationMs": 1127306,
      "fuelConsumedMl": 8275,
      "fuelConsumedGallons": 2.186,
      "maxSpeedMph": 71.6,
      "averageSpeedMph": 15.8,
      "safetyEvents": [
        {
          "type": "speeding",
          "startMs": 1738404300000,
          "maxSpeedMph": 71.6
        }
      ]
    },
    {
      "id": "trip_42031656_20250201_002",
      "vehicleId": "42031656",
      "driverId": "20000021",
      "startMs": 1738430640000,
      "endMs": 1738441020659,
      "startAddress": "672 Williams Loop Apt. 198",
      "endAddress": "161 David Circles Suite 505",
      "startCoords": {
        "latitude": 39.777699,
        "longitude": -104.936483
      },
      "endCoords": {
        "latitude": 39.763597,
        "longitude": -105.02283
      },
      "distanceMeters": 44632.6,
      "durationMs": 10380660,
      "drivingDurationMs": 8652453,
      "idlingDurationMs": 1728206,
      "fuelConsumedMl": 5674,
      "fuelConsumedGallons": 1.499,
      "maxSpeedMph": 62.2,
      "averageSpeedMph": 9.6,
      "safetyEvents": []
    },
    {
      "id": "trip_42031656_20250201_003",
      "vehicleId": "42031656",
      "driverId": "20000021",
      "startMs": 1738428660000,
      "endMs": 1738440961089,
      "startAddress": "499 David Plain",
      "endAddress": "41558 Walls Crescent",
      "startCoords": {
        "latitude": 39.710594,
        "longitude": -105.038387
      },
      "endCoords": {
        "latitude": 39.699231,
        "longitude": -104.98487
      },
      "distanceMeters": 61208.1,
      "durationMs": 12301089,
      "drivingDurationMs": 10246320,
      "idlingDurationMs": 2054769,
      "fuelConsumedMl": 7783,
      "fuelConsumedGallons": 2.056,
      "maxSpeedMph": 53.8,
      "averageSpeedMph": 11.1,
      "safetyEvents": []
    },
    {
      "id": "trip_42031656_20250202_001",
      "vehicleId": "42031656",
      "driverId": "20000011",
      "startMs": 1738522440000,
      "endMs": 1738530000000,
      "startAddress": "106 Stephens Heights Apt. 179",
      "endAddress": "2029 Tina Walks",
      "startCoords": {
        "latitude": 39.811629,
        "longitude": -104.935799
      },
      "endCoords": {
        "latitude": 39.690572,
        "longitude": -104.951913
      },
      "distanceMeters": 33403.5,
      "durationMs": 7560000,
      "drivingDurationMs": 6048000,
      "idlingDurationMs": 1512000,
      "fuelConsumedMl": 4247,
      "fuelConsumedGallons": 1.122,
      "maxSpeedMph": 48.0,
      "averageSpeedMph": 9.9,
      "safetyEvents": []
    },
    {
      "id": "trip_42031656_20250203_001",
      "vehicleId": "42031656",
      "driverId": "20000003",
      "startMs": 1738568880000,
      "endMs": 1738573837470,
      "startAddress": "028 Caitlyn Island Suite 736",
      "endAddress": "617 Danielle Fields",
      "startCoords": {
        "latitude": 39.764059,
        "longitude": -105.002447
      },
      "endCoords": {
        "latitude": 39.743435,
        "longitude": -104.973261
      },
      "distanceMeters": 38126.4,
      "durationMs": 4957470,
      "drivingDurationMs": 4562973,
      "idlingDurationMs": 394497,
      "fuelConsumedMl": 4849,
      "fuelConsumedGallons": 1.281,
      "maxSpeedMph": 41.1,
      "averageSpeedMph": 17.2,
      "safetyEvents": []
    },
    {
      "id": "trip_42031656_20250203_002",
      "vehicleId": "42031656",
      "driverId": "20000003",
      "startMs": 1738588620000,
      "endMs": 1738600124231,
      "startAddress": "516 Parker Loaf",
      "endAddress": "33679 White Oval Suite 351",
      "startCoords": {
        "latitude": 39.750295,
        "longitude": -105.06552
      },
      "endCoords": {
        "latitude": 39.794135,
        "longitude": -104.91901
      },
      "distanceMeters": 64665.7,
      "durationMs": 11504231,
      "drivingDurationMs": 9927466,
      "idlingDurationMs": 1576766,
      "fuelConsumedMl": 8222,
      "fuelConsumedGallons": 2.172,
      "maxSpeedMph": 68.2,
      "averageSpeedMph": 12.6,
      "safetyEvents": [
        {
          "type": "speeding",
          "startMs": 1738597200000,
          "maxSpeedMph": 68.2
        }
      ]
    },
    {
      "id": "trip_42031656_20250203_003",
      "vehicleId": "42031656",
      "driverId": "20000003",
      "startMs": 1738569840000,
      "endMs": 1738578941829,
      "startAddress": "19062 Collins Vista",
      "endAddress": "73817 Steven Mills Apt. 447",
      "startCoords": {
        "latitude": 39.786666,
        "longitude": -105.077259
      },
      "endCoords": {
        "latitude": 39.790492,
        "longitude": -104.965262
      },
      "distanceMeters": 56835.3,
      "durationMs": 9101830,
      "drivingDurationMs": 7357215,
      "idlingDurationMs": 1744615,
      "fuelConsumedMl": 7226,
      "fuelConsumedGallons": 1.909,
      "maxSpeedMph": 49.3,
      "averageSpeedMph": 14.0,
      "safetyEvents": []
    },
    {
      "id": "trip_42031656_20250203_004",
      "vehicleId": "42031656",
      "driverId": "20000003",
      "startMs": 1738585080000,
      "endMs": 1738588154711,
      "startAddress": "101 Dean Points",
      "endAddress": "89066 Samantha Viaduct",
      "startCoords": {
        "latitude": 39.739517,
        "longitude": -104.960487
      },
      "endCoords": {
        "latitude": 39.736381,
        "longitude": -104.927394
      },
      "distanceMeters": 19216.2,
      "durationMs": 3074712,
      "drivingDurationMs": 2767755,
      "idlingDurationMs": 306956,
      "fuelConsumedMl": 2442,
      "fuelConsumedGallons": 0.645,
      "maxSpeedMph": 44.1,
      "averageSpeedMph": 14.0,
      "safetyEvents": []
    },
    {
      "id": "trip_42031656_20250203_005",
      "vehicleId": "42031656",
      "driverId": "20000003",
      "startMs": 1738588320000,
      "endMs": 1738590985093,
      "startAddress": "0884 Heather Rue Suite 105",
      "endAddress": "80240 Brandi Crossing",
      "startCoords": {
        "latitude": 39.728918,
        "longitude": -105.015694
      },
      "endCoords": {
        "latitude": 39.723239,
        "longitude": -105.010961
      },
      "distanceMeters": 12770.8,
      "durationMs": 2665094,
      "drivingDurationMs": 2395024,
      "idlingDurationMs": 270070,
      "fuelConsumedMl": 1624,
      "fuelConsumedGallons": 0.429,
      "maxSpeedMph": 40.7,
      "averageSpeedMph": 10.7,
      "safetyEvents": []
    },
    {
      "id": "trip_42031656_20250203_006",
      "vehicleId": "42031656",
      "driverId": "20000003",
      "startMs": 1738577940000,
      "endMs": 1738594273878,
      "startAddress": "919 Harding Mountains Suite 506",
      "endAddress": "8952 Anderson Orchard",
      "startCoords": {
        "latitude": 39.737571,
        "longitude": -105.01502
      },
      "endCoords": {
        "latitude": 39.712977,
        "longitude": -104.993586
      },
      "distanceMeters": 84977.5,
      "durationMs": 16333879,
      "drivingDurationMs": 15546059,
      "idlingDurationMs": 787820,
      "fuelConsumedMl": 10804,
      "fuelConsumedGallons": 2.854,
      "maxSpeedMph": 51.6,
      "averageSpeedMph": 11.6,
      "safetyEvents": []
    },
    {
      "id": "trip_42031656_20250204_001",
      "vehicleId": "42031656",
      "driverId": "20000009",
      "startMs": 1738686240000,
      "endMs": 1738692050266,
      "startAddress": "138 Jacob Estates",
      "endAddress": "4932 Andres Garden",
      "startCoords": {
        "latitude": 39.703137,
        "longitude": -104.981538
      },
      "endCoords": {
        "latitude": 39.74653,
        "longitude": -105.023427
      },
      "distanceMeters": 29512.4,
      "durationMs": 5810266,
      "drivingDurationMs": 5480405,
      "idlingDurationMs": 329861,
      "fuelConsumedMl": 3751,
      "fuelConsumedGallons": 0.991,
      "maxSpeedMph": 33.1,
      "averageSpeedMph": 11.4,
      "safetyEvents": []
    },
    {
      "id": "trip_42031656_20250204_002",
      "vehicleId": "42031656",
      "driverId": "20000009",
      "startMs": 1738678380000,
      "endMs": 1738687747223,
      "startAddress": "49842 Rebecca Prairie Apt. 191",
      "endAddress": "207 Thomas Parkways",
      "startCoords": {
        "latitude": 39.811991,
        "longitude": -104.944078
      },
      "endCoords": {
        "latitude": 39.703333,
        "longitude": -104.989666
      },
      "distanceMeters": 55427.0,
      "durationMs": 9367224,
      "drivingDurationMs": 8013158,
      "idlingDurationMs": 1354066,
      "fuelConsumedMl": 7048,
      "fuelConsumedGallons": 1.862,
      "maxSpeedMph": 68.3,
      "averageSpeedMph": 13.2,
      "safetyEvents": [
        {
          "type": "speeding",
          "startMs": 1738687620000,
          "maxSpeedMph": 68.3
        }
      ]
    },
    {
      "id": "trip_42031656_20250204_003",
      "vehicleId": "42031656",
      "driverId": "20000009",
      "startMs": 1738657740000,
      "endMs": 1738665650296,
      "startAddress": "7364 Taylor Skyway",
      "endAddress": "9322 Lisa Bridge Suite 402",
      "startCoords": {
        "latitude": 39.720088,
        "longitude": -105.084613
      },
      "endCoords": {
        "latitude": 39.721949,
        "longitude": -105.01203
      },
      "distanceMeters": 51305.0,
      "durationMs": 7910297,
      "drivingDurationMs": 7409318,
      "idlingDurationMs": 500978,
      "fuelConsumedMl": 6522,
      "fuelConsumedGallons": 1.723,
      "maxSpeedMph": 52.5,
      "averageSpeedMph": 14.5,
      "safetyEvents": []
    },
    {
      "id": "trip_42031656_20250204_004",
      "vehicleId": "42031656",
      "driverId": "20000009",
      "startMs": 1738681200000,
      "endMs": 1738683701088,
      "startAddress": "6526 Jason Ferry",
      "endAddress": "9748 Costa Unions Suite 549",
      "startCoords": {
        "latitude": 39.805735,
        "longitude": -105.081623
      },
      "endCoords": {
        "latitude": 39.776649,
        "longitude": -104.900233
      },
      "distanceMeters": 14547.2,
      "durationMs": 2501088,
      "drivingDurationMs": 2283824,
      "idlingDurationMs": 217264,
      "fuelConsumedMl": 1851,
      "fuelConsumedGallons": 0.489,
      "maxSpeedMph": 49.0,
      "averageSpeedMph": 13.0,
      "safetyEvents": []
    },
    {
      "id": "trip_42031656_20250205_001",
      "vehicleId": "42031656",
      "driverId": "20000009",
      "startMs": 1738768200000,
      "endMs": 1738780217458,
      "startAddress": "2632 Camacho Road Suite 013",
      "endAddress": "1627 Daniel Green Apt. 340",
      "startCoords": {
        "latitude": 39.727308,
        "longitude": -104.938007
      },
      "endCoords": {
        "latitude": 39.70406,
        "longitude": -104.990709
      },
      "distanceMeters": 59903.3,
      "durationMs": 12017459,
      "drivingDurationMs": 10293792,
      "idlingDurationMs": 1723666,
      "fuelConsumedMl": 7616,
      "fuelConsumedGallons": 2.012,
      "maxSpeedMph": 31.7,
      "averageSpeedMph": 11.2,
      "safetyEvents": []
    },
    {
      "id": "trip_42031656_20250205_002",
      "vehicleId": "42031656",
      "driverId": "20000009",
      "startMs": 1738774680000,
      "endMs": 1738777730444,
      "startAddress": "552 Richards Hollow",
      "endAddress": "0758 Michelle Turnpike Suite 308",
      "startCoords": {
        "latitude": 39.703859,
        "longitude": -104.995233
      },
      "endCoords": {
        "latitude": 39.744636,
        "longitude": -104.978609
      },
      "distanceMeters": 21226.0,
      "durationMs": 3050444,
      "drivingDurationMs": 2759282,
      "idlingDurationMs": 291162,
      "fuelConsumedMl": 2699,
      "fuelConsumedGallons": 0.713,
      "maxSpeedMph": 55.7,
      "averageSpeedMph": 15.6,
      "safetyEvents": []
    },
    {
      "id": "trip_42031656_20250205_003",
      "vehicleId": "42031656",
      "driverId": "20000009",
      "startMs": 1738752720000,
      "endMs": 1738761859921,
      "startAddress": "107 Theresa Wells Apt. 145",
      "endAddress": "455 Christopher Cliffs Apt. 579",
      "startCoords": {
        "latitude": 39.778066,
        "longitude": -105.04443
      },
      "endCoords": {
        "latitude": 39.770947,
        "longitude": -104.952004
      },
      "distanceMeters": 56949.3,
      "durationMs": 9139922,
      "drivingDurationMs": 7381451,
      "idlingDurationMs": 1758471,
      "fuelConsumedMl": 7241,
      "fuelConsumedGallons": 1.913,
      "maxSpeedMph": 39.6,
      "averageSpeedMph": 13.9,
      "safetyEvents": []
    },
    {
      "id": "trip_42031656_20250206_001",
      "vehicleId": "42031656",
      "driverId": "20000021",
      "startMs": 1738850940000,
      "endMs": 1738852470876,
      "startAddress": "30747 Shannon Ferry Suite 053",
      "endAddress": "54695 Kathleen Loop",
      "startCoords": {
        "latitude": 39.800858,
        "longitude": -105.039949
      },
      "endCoords": {
        "latitude": 39.725146,
        "longitude": -104.988304
      },
      "distanceMeters": 10594.5,
      "durationMs": 1530876,
      "drivingDurationMs": 1244632,
      "idlingDurationMs": 286244,
      "fuelConsumedMl": 1348,
      "fuelConsumedGallons": 0.356,
      "maxSpeedMph": 35.5,
      "averageSpeedMph": 15.5,
      "safetyEvents": []
    },
    {
      "id": "trip_42031656_20250206_002",
      "vehicleId": "42031656",
      "driverId": "20000021",
      "startMs": 1738864860000,
      "endMs": 1738866377714,
      "startAddress": "23763 Randolph Crossroad Apt. 655",
      "endAddress": "589 Atkins Ferry Suite 620",
      "startCoords": {
        "latitude": 39.695124,
        "longitude": -104.933025
      },
      "endCoords": {
        "latitude": 39.686367,
        "longitude": -104.972423
      },
      "distanceMeters": 10533.5,
      "durationMs": 1517714,
      "drivingDurationMs": 1236912,
      "idlingDurationMs": 280802,
      "fuelConsumedMl": 1340,
      "fuelConsumedGallons": 0.354,
      "maxSpeedMph": 60.2,
      "averageSpeedMph": 15.5,
      "safetyEvents": []
    },
    {
      "id": "trip_42031656_20250206_003",
      "vehicleId": "42031656",
      "driverId": "20000021",
      "startMs": 1738849620000,
      "endMs": 1738862374572,
      "startAddress": "27582 Martinez Roads Apt. 416",
      "endAddress": "50188 Sherry Manors",
      "startCoords": {
        "latitude": 39.720153,
        "longitude": -105.073236
      },
      "endCoords": {
        "latitude": 39.71586,
        "longitude": -105.053099
      },
      "distanceMeters": 70346.0,
      "durationMs": 12754573,
      "drivingDurationMs": 11194836,
      "idlingDurationMs": 1559736,
      "fuelConsumedMl": 8945,
      "fuelConsumedGallons": 2.363,
      "maxSpeedMph": 31.8,
      "averageSpeedMph": 12.3,
      "safetyEvents": []
    },
    {
      "id": "trip_42031656_20250206_004",
      "vehicleId": "42031656",
      "driverId": "20000021",
      "startMs": 1738835580000,
      "endMs": 1738837629771,
      "startAddress": "505 Marvin Forks",
      "endAddress": "687 Timothy Mills Suite 848",
      "startCoords": {
        "latitude": 39.70603,
        "longitude": -105.058299
      },
      "endCoords": {
        "latitude": 39.736633,
        "longitude": -104.972964
      },
      "distanceMeters": 12503.5,
      "durationMs": 2049772,
      "drivingDurationMs": 1718821,
      "idlingDurationMs": 330951,
      "fuelConsumedMl": 1590,
      "fuelConsumedGallons": 0.42,
      "maxSpeedMph": 67.4,
      "averageSpeedMph": 13.6,
      "safetyEvents": [
        {
          "type": "speeding",
          "startMs": 1738836420000,
          "maxSpeedMph": 67.4
        }
      ]
    },
    {
      "id": "trip_42031656_20250207_001",
      "vehicleId": "42031656",
      "driverId": "20000004",
      "startMs": 1738935780000,
      "endMs": 1738938286719,
      "startAddress": "2011 Ware Cape Apt. 439",
      "endAddress": "7120 Anthony Cape Apt. 748",
      "startCoords": {
        "latitude": 39.806067,
        "longitude": -104.902112
      },
      "endCoords": {
        "latitude": 39.792033,
        "longitude": -105.036269
      },
      "distanceMeters": 15487.3,
      "durationMs": 2506720,
      "drivingDurationMs": 2179733,
      "idlingDurationMs": 326986,
      "fuelConsumedMl": 1968,
      "fuelConsumedGallons": 0.52,
      "maxSpeedMph": 47.1,
      "averageSpeedMph": 13.8,
      "safetyEvents": []
    },
    {
      "id": "trip_42031656_20250207_002",
      "vehicleId": "42031656",
      "driverId": "20000004",
      "startMs": 1738924440000,
      "endMs": 1738932278004,
      "startAddress": "19069 Patrick Crest",
      "endAddress": "9318 Stephanie Tunnel Apt. 656",
      "startCoords": {
        "latitude": 39.70302,
        "longitude": -105.082239
      },
      "endCoords": {
        "latitude": 39.80632,
        "longitude": -105.035248
      },
      "distanceMeters": 44435.0,
      "durationMs": 7838005,
      "drivingDurationMs": 7261596,
      "idlingDurationMs": 576409,
      "fuelConsumedMl": 5648,
      "fuelConsumedGallons": 1.492,
      "maxSpeedMph": 47.9,
      "averageSpeedMph": 12.7,
      "safetyEvents": []
    },
    {
      "id": "trip_42031656_20250207_003",
      "vehicleId": "42031656",
      "driverId": "20000004",
      "startMs": 1738949700000,
      "endMs": 1738950756145,
      "startAddress": "15355 Leslie Ferry Apt. 693",
      "endAddress": "33614 Susan Turnpike Apt. 372",
      "startCoords": {
        "latitude": 39.757239,
        "longitude": -105.019321
      },
      "endCoords": {
        "latitude": 39.765988,
        "longitude": -104.926526
      },
      "distanceMeters": 7465.4,
      "durationMs": 1056145,
      "drivingDurationMs": 848100,
      "idlingDurationMs": 208045,
      "fuelConsumedMl": 950,
      "fuelConsumedGallons": 0.251,
      "maxSpeedMph": 40.5,
      "averageSpeedMph": 15.8,
      "safetyEvents": []
    },
    {
      "id": "trip_42031656_20250208_001",
      "vehicleId": "42031656",
      "driverId": "20000019",
      "startMs": 1739017740000,
      "endMs": 1739018831712,
      "startAddress": "93593 Stephanie Roads Suite 512",
      "endAddress": "147 Lopez Road",
      "startCoords": {
        "latitude": 39.819538,
        "longitude": -105.08598
      },
      "endCoords": {
        "latitude": 39.76487,
        "longitude": -105.001172
      },
      "distanceMeters": 5339.7,
      "durationMs": 1091712,
      "drivingDurationMs": 902314,
      "idlingDurationMs": 189399,
      "fuelConsumedMl": 678,
      "fuelConsumedGallons": 0.179,
      "maxSpeedMph": 50.9,
      "averageSpeedMph": 10.9,
      "safetyEvents": []
    },
    {
      "id": "trip_42031656_20250209_001",
      "vehicleId": "42031656",
      "driverId": "20000007",
      "startMs": 1739090940000,
      "endMs": 1739099079770,
      "startAddress": "7538 Jordan Parkways",
      "endAddress": "744 Jordan Garden Suite 500",
      "startCoords": {
        "latitude": 39.824635,
        "longitude": -105.048307
      },
      "endCoords": {
        "latitude": 39.688441,
        "longitude": -104.909623
      },
      "distanceMeters": 65824.9,
      "durationMs": 8139770,
      "drivingDurationMs": 7762935,
      "idlingDurationMs": 376835,
      "fuelConsumedMl": 8370,
      "fuelConsumedGallons": 2.211,
      "maxSpeedMph": 40.3,
      "averageSpeedMph": 18.1,
      "safetyEvents": []
    },
    {
      "id": "trip_42031656_20250209_002",
      "vehicleId": "42031656",
      "driverId": "20000007",
      "startMs": 1739125860000,
      "endMs": 1739127676788,
      "startAddress": "283 Delacruz Walk Suite 655",
      "endAddress": "1733 Lori Walks",
      "startCoords": {
        "latitude": 39.802423,
        "longitude": -104.924742
      },
      "endCoords": {
        "latitude": 39.704789,
        "longitude": -105.004362
      },
      "distanceMeters": 9534.5,
      "durationMs": 1816789,
      "drivingDurationMs": 1494157,
      "idlingDurationMs": 322632,
      "fuelConsumedMl": 1211,
      "fuelConsumedGallons": 0.32,
      "maxSpeedMph": 65.1,
      "averageSpeedMph": 11.7,
      "safetyEvents": [
        {
          "type": "speeding",
          "startMs": 1739127300000,
          "maxSpeedMph": 65.1
        }
      ]
    },
    {
      "id": "trip_42031656_20250210_001",
      "vehicleId": "42031656",
      "driverId": "20000006",
      "startMs": 1739181120000,
      "endMs": 1739191237100,
      "startAddress": "3112 Amanda Junctions",
      "endAddress": "0752 Christopher Ramp Apt. 985",
      "startCoords": {
        "latitude": 39.69484,
        "longitude": -104.953172
      },
      "endCoords": {
        "latitude": 39.692089,
        "longitude": -104.951954
      },
      "distanceMeters": 75355.8,
      "durationMs": 10117101,
      "drivingDurationMs": 9562954,
      "idlingDurationMs": 554147,
      "fuelConsumedMl": 9581,
      "fuelConsumedGallons": 2.531,
      "maxSpeedMph": 40.9,
      "averageSpeedMph": 16.7,
      "safetyEvents": []
    },
    {
      "id": "trip_42031656_20250210_002",
      "vehicleId": "42031656",
      "driverId": "20000006",
      "startMs": 1739187480000,
      "endMs": 1739196931618,
      "startAddress": "05815 Jensen Coves",
      "endAddress": "83682 Jeffery Union Suite 634",
      "startCoords": {
        "latitude": 39.82068,
        "longitude": -105.041342
      },
      "endCoords": {
        "latitude": 39.723503,
        "longitude": -105.04143
      },
      "distanceMeters": 62343.9,
      "durationMs": 9451619,
      "drivingDurationMs": 7928661,
      "idlingDurationMs": 1522958,
      "fuelConsumedMl": 7927,
      "fuelConsumedGallons": 2.094,
      "maxSpeedMph": 40.4,
      "averageSpeedMph": 14.8,
      "safetyEvents": []
    },
    {
      "id": "trip_42031656_20250210_003",
      "vehicleId": "42031656",
      "driverId": "20000006",
      "startMs": 1739182200000,
      "endMs": 1739187318099,
      "startAddress": "16321 Lisa Islands Suite 882",
      "endAddress": "974 Cortez Greens",
      "startCoords": {
        "latitude": 39.714338,
        "longitude": -105.027948
      },
      "endCoords": {
        "latitude": 39.77241,
        "longitude": -105.01009
      },
      "distanceMeters": 38108.0,
      "durationMs": 5118100,
      "drivingDurationMs": 4462578,
      "idlingDurationMs": 655521,
      "fuelConsumedMl": 4845,
      "fuelConsumedGallons": 1.28,
      "maxSpeedMph": 60.3,
      "averageSpeedMph": 16.7,
      "safetyEvents": []
    },
    {
      "id": "trip_42031656_20250210_004",
      "vehicleId": "42031656",
      "driverId": "20000006",
      "startMs": 1739207820000,
      "endMs": 1739213082038,
      "startAddress": "0682 Reeves Valley",
      "endAddress": "9251 Hicks Square Suite 254",
      "startCoords": {
        "latitude": 39.701379,
        "longitude": -104.994938
      },
      "endCoords": {
        "latitude": 39.76674,
        "longitude": -104.970518
      },
      "distanceMeters": 33584.9,
      "durationMs": 5262038,
      "drivingDurationMs": 4231581,
      "idlingDurationMs": 1030457,
      "fuelConsumedMl": 4270,
      "fuelConsumedGallons": 1.128,
      "maxSpeedMph": 37.9,
      "averageSpeedMph": 14.3,
      "safetyEvents": []
    },
    {
      "id": "trip_42031656_20250211_001",
      "vehicleId": "42031656",
      "driverId": "20000022",
      "startMs": 1739270640000,
      "endMs": 1739284449173,
      "startAddress": "7898 Benjamin Pass",
      "endAddress": "909 Katherine Falls Apt. 383",
      "startCoords": {
        "latitude": 39.803139,
        "longitude": -104.965231
      },
      "endCoords": {
        "latitude": 39.743518,
        "longitude": -105.070016
      },
      "distanceMeters": 72002.4,
      "durationMs": 13809173,
      "drivingDurationMs": 12884766,
      "idlingDurationMs": 924407,
      "fuelConsumedMl": 9153,
      "fuelConsumedGallons": 2.418,
      "maxSpeedMph": 54.3,
      "averageSpeedMph": 11.7,
      "safetyEvents": []
    },
    {
      "id": "trip_42031656_20250211_002",
      "vehicleId": "42031656",
      "driverId": "20000022",
      "startMs": 1739287980000,
      "endMs": 1739297739797,
      "startAddress": "9553 Sean Via",
      "endAddress": "766 James Glen Apt. 122",
      "startCoords": {
        "latitude": 39.823273,
        "longitude": -104.914707
      },
      "endCoords": {
        "latitude": 39.707185,
        "longitude": -104.971342
      },
      "distanceMeters": 77252.3,
      "durationMs": 9759798,
      "drivingDurationMs": 9370621,
      "idlingDurationMs": 389176,
      "fuelConsumedMl": 9823,
      "fuelConsumedGallons": 2.595,
      "maxSpeedMph": 50.7,
      "averageSpeedMph": 17.7,
      "safetyEvents": []
    },
    {
      "id": "trip_42031656_20250211_003",
      "vehicleId": "42031656",
      "driverId": "20000022",
      "startMs": 1739284800000,
      "endMs": 1739288428686,
      "startAddress": "62296 Quinn Ways Apt. 848",
      "endAddress": "2137 Thomas Hills Apt. 932",
      "startCoords": {
        "latitude": 39.722355,
        "longitude": -105.059757
      },
      "endCoords": {
        "latitude": 39.811941,
        "longitude": -104.927384
      },
      "distanceMeters": 16858.2,
      "durationMs": 3628686,
      "drivingDurationMs": 3067866,
      "idlingDurationMs": 560820,
      "fuelConsumedMl": 2143,
      "fuelConsumedGallons": 0.566,
      "maxSpeedMph": 43.3,
      "averageSpeedMph": 10.4,
      "safetyEvents": []
    },
    {
      "id": "trip_42031656_20250211_004",
      "vehicleId": "42031656",
      "driverId": "20000022",
      "startMs": 1739294520000,
      "endMs": 1739302156077,
      "startAddress": "11327 Vaughan Landing Apt. 912",
      "endAddress": "9278 Ross Path",
      "startCoords": {
        "latitude": 39.80864,
        "longitude": -104.953483
      },
      "endCoords": {
        "latitude": 39.755916,
        "longitude": -105.018892
      },
      "distanceMeters": 35089.5,
      "durationMs": 7636078,
      "drivingDurationMs": 6325378,
      "idlingDurationMs": 1310699,
      "fuelConsumedMl": 4463,
      "fuelConsumedGallons": 1.179,
      "maxSpeedMph": 58.7,
      "averageSpeedMph": 10.3,
      "safetyEvents": []
    },
    {
      "id": "trip_42031656_20250212_001",
      "vehicleId": "42031656",
      "driverId": "20000020",
      "startMs": 1739373240000,
      "endMs": 1739376017119,
      "startAddress": "10319 Erica Cape",
      "endAddress": "8330 Carson Isle Suite 010",
      "startCoords": {
        "latitude": 39.71087,
        "longitude": -105.003352
      },
      "endCoords": {
        "latitude": 39.820231,
        "longitude": -104.994488
      },
      "distanceMeters": 14833.7,
      "durationMs": 2777119,
      "drivingDurationMs": 2452752,
      "idlingDurationMs": 324367,
      "fuelConsumedMl": 1885,
      "fuelConsumedGallons": 0.498,
      "maxSpeedMph": 58.6,
      "averageSpeedMph": 11.9,
      "safetyEvents": []
    },
    {
      "id": "trip_42031656_20250212_002",
      "vehicleId": "42031656",
      "driverId": "20000020",
      "startMs": 1739369520000,
      "endMs": 1739384602080,
      "startAddress": "58818 Costa River Apt. 330",
      "endAddress": "525 Vincent Loop",
      "startCoords": {
        "latitude": 39.766157,
        "longitude": -104.989844
      },
      "endCoords": {
        "latitude": 39.82483,
        "longitude": -104.94724
      },
      "distanceMeters": 84170.3,
      "durationMs": 15082081,
      "drivingDurationMs": 12222348,
      "idlingDurationMs": 2859733,
      "fuelConsumedMl": 10701,
      "fuelConsumedGallons": 2.827,
      "maxSpeedMph": 66.8,
      "averageSpeedMph": 12.5,
      "safetyEvents": [
        {
          "type": "speeding",
          "startMs": 1739378460000,
          "maxSpeedMph": 66.8
        }
      ]
    },
    {
      "id": "trip_42031656_20250212_003",
      "vehicleId": "42031656",
      "driverId": "20000020",
      "startMs": 1739375160000,
      "endMs": 1739388631374,
      "startAddress": "257 Jacob Harbor Suite 821",
      "endAddress": "657 Joseph Heights Apt. 938",
      "startCoords": {
        "latitude": 39.708395,
        "longitude": -104.940906
      },
      "endCoords": {
        "latitude": 39.814245,
        "longitude": -105.046028
      },
      "distanceMeters": 65072.1,
      "durationMs": 13471375,
      "drivingDurationMs": 11853119,
      "idlingDurationMs": 1618255,
      "fuelConsumedMl": 8275,
      "fuelConsumedGallons": 2.186,
      "maxSpeedMph": 38.6,
      "averageSpeedMph": 10.8,
      "safetyEvents": []
    },
    {
      "id": "trip_42031656_20250212_004",
      "vehicleId": "42031656",
      "driverId": "20000020",
      "startMs": 1739375400000,
      "endMs": 1739390762978,
      "startAddress": "2230 Janet Court",
      "endAddress": "89988 Deanna View",
      "startCoords": {
        "latitude": 39.777477,
        "longitude": -104.95763
      },
      "endCoords": {
        "latitude": 39.68479,
        "longitude": -105.078285
      },
      "distanceMeters": 72443.5,
      "durationMs": 15362978,
      "drivingDurationMs": 14281750,
      "idlingDurationMs": 1081228,
      "fuelConsumedMl": 9210,
      "fuelConsumedGallons": 2.433,
      "maxSpeedMph": 30.8,
      "averageSpeedMph": 10.5,
      "safetyEvents": []
    },
    {
      "id": "trip_42031656_20250212_005",
      "vehicleId": "42031656",
      "driverId": "20000020",
      "startMs": 1739372940000,
      "endMs": 1739376395094,
      "startAddress": "8885 Kim Springs Apt. 479",
      "endAddress": "125 Aaron Burgs",
      "startCoords": {
        "latitude": 39.810728,
        "longitude": -104.928664
      },
      "endCoords": {
        "latitude": 39.746406,
        "longitude": -105.008621
      },
      "distanceMeters": 18297.6,
      "durationMs": 3455095,
      "drivingDurationMs": 3244919,
      "idlingDurationMs": 210176,
      "fuelConsumedMl": 2328,
      "fuelConsumedGallons": 0.615,
      "maxSpeedMph": 68.3,
      "averageSpeedMph": 11.8,
      "safetyEvents": [
        {
          "type": "speeding",
          "startMs": 1739376000000,
          "maxSpeedMph": 68.3
        }
      ]
    },
    {
      "id": "trip_42031656_20250213_001",
      "vehicleId": "42031656",
      "driverId": "20000015",
      "startMs": 1739427540000,
      "endMs": 1739430207660,
      "startAddress": "90516 Jeanette Keys",
      "endAddress": "82697 Garcia Alley",
      "startCoords": {
        "latitude": 39.759041,
        "longitude": -105.077511
      },
      "endCoords": {
        "latitude": 39.786946,
        "longitude": -104.953163
      },
      "distanceMeters": 19683.4,
      "durationMs": 2667661,
      "drivingDurationMs": 2419543,
      "idlingDurationMs": 248118,
      "fuelConsumedMl": 2502,
      "fuelConsumedGallons": 0.661,
      "maxSpeedMph": 40.3,
      "averageSpeedMph": 16.5,
      "safetyEvents": []
    },
    {
      "id": "trip_42031656_20250213_002",
      "vehicleId": "42031656",
      "driverId": "20000015",
      "startMs": 1739454540000,
      "endMs": 1739455671260,
      "startAddress": "70222 Maurice Points",
      "endAddress": "6204 Cameron Ways",
      "startCoords": {
        "latitude": 39.72117,
        "longitude": -104.965741
      },
      "endCoords": {
        "latitude": 39.699933,
        "longitude": -104.992084
      },
      "distanceMeters": 7710.4,
      "durationMs": 1131260,
      "drivingDurationMs": 906864,
      "idlingDurationMs": 224396,
      "fuelConsumedMl": 980,
      "fuelConsumedGallons": 0.259,
      "maxSpeedMph": 39.8,
      "averageSpeedMph": 15.2,
      "safetyEvents": []
    },
    {
      "id": "trip_42031656_20250213_003",
      "vehicleId": "42031656",
      "driverId": "20000015",
      "startMs": 1739460840000,
      "endMs": 1739469450929,
      "startAddress": "98165 Singleton Trafficway",
      "endAddress": "7865 Sara Trail",
      "startCoords": {
        "latitude": 39.826817,
        "longitude": -104.950425
      },
      "endCoords": {
        "latitude": 39.782656,
        "longitude": -104.982673
      },
      "distanceMeters": 43709.9,
      "durationMs": 8610929,
      "drivingDurationMs": 6977444,
      "idlingDurationMs": 1633485,
      "fuelConsumedMl": 5557,
      "fuelConsumedGallons": 1.468,
      "maxSpeedMph": 34.7,
      "averageSpeedMph": 11.4,
      "safetyEvents": []
    },
    {
      "id": "trip_42031656_20250213_004",
      "vehicleId": "42031656",
      "driverId": "20000015",
      "startMs": 1739449860000,
      "endMs": 1739464970229,
      "startAddress": "4234 James Orchard",
      "endAddress": "795 Mitchell Via",
      "startCoords": {
        "latitude": 39.740597,
        "longitude": -104.909419
      },
      "endCoords": {
        "latitude": 39.80628,
        "longitude": -105.071028
      },
      "distanceMeters": 66693.9,
      "durationMs": 15110229,
      "drivingDurationMs": 12243973,
      "idlingDurationMs": 2866256,
      "fuelConsumedMl": 8479,
      "fuelConsumedGallons": 2.24,
      "maxSpeedMph": 31.4,
      "averageSpeedMph": 9.9,
      "safetyEvents": []
    },
    {
      "id": "trip_42031656_20250213_005",
      "vehicleId": "42031656",
      "driverId": "20000015",
      "startMs": 1739464860000,
      "endMs": 1739472304994,
      "startAddress": "6091 Nichols Mount Apt. 147",
      "endAddress": "112 Stephen Manors",
      "startCoords": {
        "latitude": 39.760721,
        "longitude": -104.946508
      },
      "endCoords": {
        "latitude": 39.826491,
        "longitude": -105.059668
      },
      "distanceMeters": 50955.8,
      "durationMs": 7444995,
      "drivingDurationMs": 7104635,
      "idlingDurationMs": 340360,
      "fuelConsumedMl": 6477,
      "fuelConsumedGallons": 1.711,
      "maxSpeedMph": 70.5,
      "averageSpeedMph": 15.3,
      "safetyEvents": [
        {
          "type": "speeding",
          "startMs": 1739469780000,
          "maxSpeedMph": 70.5
        }
      ]
    },
    {
      "id": "trip_42031656_20250213_006",
      "vehicleId": "42031656",
      "driverId": "20000015",
      "startMs": 1739435220000,
      "endMs": 1739439845852,
      "startAddress": "6972 Stephanie Forge",
      "endAddress": "92038 Harrison Forest Suite 062",
      "startCoords": {
        "latitude": 39.70324,
        "longitude": -104.97284
      },
      "endCoords": {
        "latitude": 39.774699,
        "longitude": -105.018739
      },
      "distanceMeters": 27256.7,
      "durationMs": 4625852,
      "drivingDurationMs": 4379126,
      "idlingDurationMs": 246726,
      "fuelConsumedMl": 3464,
      "fuelConsumedGallons": 0.915,
      "maxSpeedMph": 55.0,
      "averageSpeedMph": 13.2,
      "safetyEvents": []
    },
    {
      "id": "trip_42031656_20250214_001",
      "vehicleId": "42031656",
      "driverId": "20000011",
      "startMs": 1739526420000,
      "endMs": 1739541200530,
      "startAddress": "5414 Brandt Squares",
      "endAddress": "174 Kristi Expressway Apt. 556",
      "startCoords": {
        "latitude": 39.81123,
        "longitude": -104.974671
      },
      "endCoords": {
        "latitude": 39.699373,
        "longitude": -104.972646
      },
      "distanceMeters": 81272.5,
      "durationMs": 14780530,
      "drivingDurationMs": 14228191,
      "idlingDurationMs": 552339,
      "fuelConsumedMl": 10334,
      "fuelConsumedGallons": 2.73,
      "maxSpeedMph": 44.5,
      "averageSpeedMph": 12.3,
      "safetyEvents": []
    },
    {
      "id": "trip_42031656_20250214_002",
      "vehicleId": "42031656",
      "driverId": "20000011",
      "startMs": 1739524020000,
      "endMs": 1739525245245,
      "startAddress": "37913 Craig Summit",
      "endAddress": "72623 Derek Streets",
      "startCoords": {
        "latitude": 39.705216,
        "longitude": -105.002558
      },
      "endCoords": {
        "latitude": 39.712903,
        "longitude": -105.03959
      },
      "distanceMeters": 8481.9,
      "durationMs": 1225246,
      "drivingDurationMs": 981062,
      "idlingDurationMs": 244184,
      "fuelConsumedMl": 1079,
      "fuelConsumedGallons": 0.285,
      "maxSpeedMph": 30.4,
      "averageSpeedMph": 15.5,
      "safetyEvents": []
    },
    {
      "id": "trip_42031656_20250214_003",
      "vehicleId": "42031656",
      "driverId": "20000011",
      "startMs": 1739518440000,
      "endMs": 1739527789264,
      "startAddress": "475 Chaney Meadows",
      "endAddress": "2172 Joel Spur",
      "startCoords": {
        "latitude": 39.684781,
        "longitude": -104.918933
      },
      "endCoords": {
        "latitude": 39.811303,
        "longitude": -105.020126
      },
      "distanceMeters": 56035.7,
      "durationMs": 9349264,
      "drivingDurationMs": 9051286,
      "idlingDurationMs": 297978,
      "fuelConsumedMl": 7124,
      "fuelConsumedGallons": 1.882,
      "maxSpeedMph": 41.2,
      "averageSpeedMph": 13.4,
      "safetyEvents": []
    },
    {
      "id": "trip_42031656_20250214_004",
      "vehicleId": "42031656",
      "driverId": "20000011",
      "startMs": 1739530020000,
      "endMs": 1739542455787,
      "startAddress": "7545 Luna Turnpike",
      "endAddress": "707 Matthew Key",
      "startCoords": {
        "latitude": 39.780144,
        "longitude": -105.027813
      },
      "endCoords": {
        "latitude": 39.73783,
        "longitude": -105.030422
      },
      "distanceMeters": 67251.2,
      "durationMs": 12435788,
      "drivingDurationMs": 10686142,
      "idlingDurationMs": 1749646,
      "fuelConsumedMl": 8551,
      "fuelConsumedGallons": 2.259,
      "maxSpeedMph": 61.4,
      "averageSpeedMph": 12.1,
      "safetyEvents": []
    },
    {
      "id": "trip_42031656_20250215_001",
      "vehicleId": "42031656",
      "driverId": "20000009",
      "startMs": 1739599500000,
      "endMs": 1739611881594,
      "startAddress": "603 Robinson Mills Suite 736",
      "endAddress": "7179 Harris Crossing",
      "startCoords": {
        "latitude": 39.757199,
        "longitude": -104.960282
      },
      "endCoords": {
        "latitude": 39.685782,
        "longitude": -105.009941
      },
      "distanceMeters": 75333.5,
      "durationMs": 12381595,
      "drivingDurationMs": 10578218,
      "idlingDurationMs": 1803377,
      "fuelConsumedMl": 9577,
      "fuelConsumedGallons": 2.53,
      "maxSpeedMph": 55.0,
      "averageSpeedMph": 13.6,
      "safetyEvents": []
    },
    {
      "id": "trip_42031656_20250216_001",
      "vehicleId": "42031656",
      "driverId": "20000022",
      "startMs": 1739704260000,
      "endMs": 1739717281703,
      "startAddress": "23038 Carter Ramp",
      "endAddress": "465 Lisa Freeway",
      "startCoords": {
        "latitude": 39.799453,
        "longitude": -105.007133
      },
      "endCoords": {
        "latitude": 39.809239,
        "longitude": -104.997763
      },
      "distanceMeters": 84731.1,
      "durationMs": 13021704,
      "drivingDurationMs": 12202610,
      "idlingDurationMs": 819093,
      "fuelConsumedMl": 10773,
      "fuelConsumedGallons": 2.846,
      "maxSpeedMph": 30.5,
      "averageSpeedMph": 14.6,
      "safetyEvents": []
    },
    {
      "id": "trip_42031656_20250217_001",
      "vehicleId": "42031656",
      "driverId": "20000012",
      "startMs": 1739796240000,
      "endMs": 1739805112166,
      "startAddress": "504 Lindsey Lakes",
      "endAddress": "076 Wright Viaduct",
      "startCoords": {
        "latitude": 39.784721,
        "longitude": -105.073894
      },
      "endCoords": {
        "latitude": 39.784352,
        "longitude": -104.93609
      },
      "distanceMeters": 65359.4,
      "durationMs": 8872166,
      "drivingDurationMs": 7570387,
      "idlingDurationMs": 1301779,
      "fuelConsumedMl": 8309,
      "fuelConsumedGallons": 2.195,
      "maxSpeedMph": 70.1,
      "averageSpeedMph": 16.5,
      "safetyEvents": [
        {
          "type": "speeding",
          "startMs": 1739798520000,
          "maxSpeedMph": 70.1
        }
      ]
    },
    {
      "id": "trip_42031656_20250217_002",
      "vehicleId": "42031656",
      "driverId": "20000012",
      "startMs": 1739773560000,
      "endMs": 1739776433181,
      "startAddress": "95387 Angela Light",
      "endAddress": "36256 Brian Squares Suite 120",
      "startCoords": {
        "latitude": 39.683941,
        "longitude": -105.011648
      },
      "endCoords": {
        "latitude": 39.810631,
        "longitude": -105.067444
      },
      "distanceMeters": 13499.3,
      "durationMs": 2873181,
      "drivingDurationMs": 2366157,
      "idlingDurationMs": 507024,
      "fuelConsumedMl": 1715,
      "fuelConsumedGallons": 0.453,
      "maxSpeedMph": 40.1,
      "averageSpeedMph": 10.5,
      "safetyEvents": []
    },
    {
      "id": "trip_42031656_20250217_003",
      "vehicleId": "42031656",
      "driverId": "20000012",
      "startMs": 1739812620000,
      "endMs": 1739824634297,
      "startAddress": "75305 Cynthia Lane Apt. 212",
      "endAddress": "0096 Roth Orchard Apt. 060",
      "startCoords": {
        "latitude": 39.69443,
        "longitude": -104.909577
      },
      "endCoords": {
        "latitude": 39.789281,
        "longitude": -104.919732
      },
      "distanceMeters": 82430.4,
      "durationMs": 12014297,
      "drivingDurationMs": 11523395,
      "idlingDurationMs": 490902,
      "fuelConsumedMl": 10482,
      "fuelConsumedGallons": 2.769,
      "maxSpeedMph": 36.9,
      "averageSpeedMph": 15.3,
      "safetyEvents": []
    },
    {
      "id": "trip_42031656_20250217_004",
      "vehicleId": "42031656",
      "driverId": "20000012",
      "startMs": 1739804040000,
      "endMs": 1739806126975,
      "startAddress": "441 Nicholas Square Suite 410",
      "endAddress": "23879 James Glen",
      "startCoords": {
        "latitude": 39.709234,
        "longitude": -105.079982
      },
      "endCoords": {
        "latitude": 39.745238,
        "longitude": -104.913
      },
      "distanceMeters": 14026.7,
      "durationMs": 2086976,
      "drivingDurationMs": 1882389,
      "idlingDurationMs": 204586,
      "fuelConsumedMl": 1783,
      "fuelConsumedGallons": 0.471,
      "maxSpeedMph": 30.7,
      "averageSpeedMph": 15.0,
      "safetyEvents": []
    },
    {
      "id": "trip_42031656_20250217_005",
      "vehicleId": "42031656",
      "driverId": "20000012",
      "startMs": 1739776080000,
      "endMs": 1739778443252,
      "startAddress": "88645 Burgess Pines Apt. 111",
      "endAddress": "259 Oscar Ridges Apt. 729",
      "startCoords": {
        "latitude": 39.708702,
        "longitude": -105.028889
      },
      "endCoords": {
        "latitude": 39.746158,
        "longitude": -105.072283
      },
      "distanceMeters": 16245.8,
      "durationMs": 2363253,
      "drivingDurationMs": 1970888,
      "idlingDurationMs": 392365,
      "fuelConsumedMl": 2067,
      "fuelConsumedGallons": 0.546,
      "maxSpeedMph": 58.5,
      "averageSpeedMph": 15.4,
      "safetyEvents": []
    },
    {
      "id": "trip_42031656_20250217_006",
      "vehicleId": "42031656",
      "driverId": "20000012",
      "startMs": 1739792820000,
      "endMs": 1739805909894,
      "startAddress": "620 Colon Loaf Suite 204",
      "endAddress": "06031 Curtis Heights Suite 922",
      "startCoords": {
        "latitude": 39.727164,
        "longitude": -104.982292
      },
      "endCoords": {
        "latitude": 39.750924,
        "longitude": -104.921262
      },
      "distanceMeters": 72674.6,
      "durationMs": 13089894,
      "drivingDurationMs": 12722051,
      "idlingDurationMs": 367843,
      "fuelConsumedMl": 9240,
      "fuelConsumedGallons": 2.441,
      "maxSpeedMph": 66.5,
      "averageSpeedMph": 12.4,
      "safetyEvents": [
        {
          "type": "speeding",
          "startMs": 1739796420000,
          "maxSpeedMph": 66.5
        }
      ]
    },
    {
      "id": "trip_42031656_20250218_001",
      "vehicleId": "42031656",
      "driverId": "20000021",
      "startMs": 1739876100000,
      "endMs": 1739882046658,
      "startAddress": "6690 Miller Unions",
      "endAddress": "11259 Daniel Lock",
      "startCoords": {
        "latitude": 39.797568,
        "longitude": -105.086731
      },
      "endCoords": {
        "latitude": 39.741683,
        "longitude": -104.993149
      },
      "distanceMeters": 33494.6,
      "durationMs": 5946659,
      "drivingDurationMs": 5635480,
      "idlingDurationMs": 311179,
      "fuelConsumedMl": 4259,
      "fuelConsumedGallons": 1.125,
      "maxSpeedMph": 70.1,
      "averageSpeedMph": 12.6,
      "safetyEvents": [
        {
          "type": "speeding",
          "startMs": 1739878320000,
          "maxSpeedMph": 70.1
        }
      ]
    },
    {
      "id": "trip_42031656_20250218_002",
      "vehicleId": "42031656",
      "driverId": "20000021",
      "startMs": 1739861460000,
      "endMs": 1739874779190,
      "startAddress": "17178 Long Lake Apt. 060",
      "endAddress": "441 Golden Greens Suite 715",
      "startCoords": {
        "latitude": 39.718194,
        "longitude": -104.916419
      },
      "endCoords": {
        "latitude": 39.747245,
        "longitude": -105.002667
      },
      "distanceMeters": 71235.6,
      "durationMs": 13319191,
      "drivingDurationMs": 11478869,
      "idlingDurationMs": 1840322,
      "fuelConsumedMl": 9058,
      "fuelConsumedGallons": 2.393,
      "maxSpeedMph": 60.6,
      "averageSpeedMph": 12.0,
      "safetyEvents": []
    },
    {
      "id": "trip_42031656_20250218_003",
      "vehicleId": "42031656",
      "driverId": "20000021",
      "startMs": 1739902500000,
      "endMs": 1739904977567,
      "startAddress": "680 Ryan Grove Suite 867",
      "endAddress": "095 Jacobs Plaza Suite 917",
      "startCoords": {
        "latitude": 39.69457,
        "longitude": -104.931119
      },
      "endCoords": {
        "latitude": 39.710426,
        "longitude": -105.00515
      },
      "distanceMeters": 14856.1,
      "durationMs": 2477567,
      "drivingDurationMs": 2102959,
      "idlingDurationMs": 374608,
      "fuelConsumedMl": 1889,
      "fuelConsumedGallons": 0.499,
      "maxSpeedMph": 47.3,
      "averageSpeedMph": 13.4,
      "safetyEvents": []
    },
    {
      "id": "trip_42031656_20250218_004",
      "vehicleId": "42031656",
      "driverId": null,
      "startMs": 1739890380000,
      "endMs": 1739904291785,
      "startAddress": "6866 Herrera Pike",
      "endAddress": "75927 Elizabeth Court",
      "startCoords": {
        "latitude": 39.744844,
        "longitude": -105.010986
      },
      "endCoords": {
        "latitude": 39.799835,
        "longitude": -105.06361
      },
      "distanceMeters": 77439.7,
      "durationMs": 13911785,
      "drivingDurationMs": 12155564,
      "idlingDurationMs": 1756221,
      "fuelConsumedMl": 9846,
      "fuelConsumedGallons": 2.601,
      "maxSpeedMph": 36.2,
      "averageSpeedMph": 12.5,
      "safetyEvents": []
    },
    {
      "id": "trip_42031656_20250218_005",
      "vehicleId": "42031656",
      "driverId": "20000021",
      "startMs": 1739866680000,
      "endMs": 1739867761670,
      "startAddress": "171 Barnes Corners",
      "endAddress": "51165 George Heights Apt. 439",
      "startCoords": {
        "latitude": 39.687953,
        "longitude": -104.932286
      },
      "endCoords": {
        "latitude": 39.803463,
        "longitude": -105.01199
      },
      "distanceMeters": 6622.5,
      "durationMs": 1081671,
      "drivingDurationMs": 870203,
      "idlingDurationMs": 211468,
      "fuelConsumedMl": 840,
      "fuelConsumedGallons": 0.222,
      "maxSpeedMph": 58.0,
      "averageSpeedMph": 13.7,
      "safetyEvents": []
    },
    {
      "id": "trip_42031656_20250218_006",
      "vehicleId": "42031656",
      "driverId": "20000021",
      "startMs": 1739898600000,
      "endMs": 1739903348034,
      "startAddress": "662 Heather Crossing",
      "endAddress": "6816 William Mountain Apt. 490",
      "startCoords": {
        "latitude": 39.818632,
        "longitude": -104.933351
      },
      "endCoords": {
        "latitude": 39.703949,
        "longitude": -104.976831
      },
      "distanceMeters": 28550.2,
      "durationMs": 4748035,
      "drivingDurationMs": 3862065,
      "idlingDurationMs": 885970,
      "fuelConsumedMl": 3630,
      "fuelConsumedGallons": 0.959,
      "maxSpeedMph": 51.9,
      "averageSpeedMph": 13.5,
      "safetyEvents": []
    },
    {
      "id": "trip_42031656_20250219_001",
      "vehicleId": "42031656",
      "driverId": "20000011",
      "startMs": 1739959380000,
      "endMs": 1739970097447,
      "startAddress": "44335 Mendez Inlet",
      "endAddress": "635 Berry Shores",
      "startCoords": {
        "latitude": 39.791936,
        "longitude": -104.952789
      },
      "endCoords": {
        "latitude": 39.772566,
        "longitude": -105.073134
      },
      "distanceMeters": 55398.2,
      "durationMs": 10717448,
      "drivingDurationMs": 9584012,
      "idlingDurationMs": 1133435,
      "fuelConsumedMl": 7045,
      "fuelConsumedGallons": 1.861,
      "maxSpeedMph": 67.1,
      "averageSpeedMph": 11.6,
      "safetyEvents": [
        {
          "type": "speeding",
          "startMs": 1739968380000,
          "maxSpeedMph": 67.1
        }
      ]
    },
    {
      "id": "trip_42031656_20250219_002",
      "vehicleId": "42031656",
      "driverId": "20000011",
      "startMs": 1739987340000,
      "endMs": 1739991010878,
      "startAddress": "183 Scott Glens Apt. 263",
      "endAddress": "7038 Jordan Roads Suite 494",
      "startCoords": {
        "latitude": 39.810349,
        "longitude": -105.07032
      },
      "endCoords": {
        "latitude": 39.704704,
        "longitude": -105.07419
      },
      "distanceMeters": 21054.6,
      "durationMs": 3670878,
      "drivingDurationMs": 3432385,
      "idlingDurationMs": 238493,
      "fuelConsumedMl": 2676,
      "fuelConsumedGallons": 0.707,
      "maxSpeedMph": 57.9,
      "averageSpeedMph": 12.8,
      "safetyEvents": []
    },
    {
      "id": "trip_42031656_20250219_003",
      "vehicleId": "42031656",
      "driverId": "20000011",
      "startMs": 1739964180000,
      "endMs": 1739981435571,
      "startAddress": "490 Eric Square Apt. 974",
      "endAddress": "400 Martha Loaf",
      "startCoords": {
        "latitude": 39.703645,
        "longitude": -104.932219
      },
      "endCoords": {
        "latitude": 39.807182,
        "longitude": -105.006896
      },
      "distanceMeters": 78837.1,
      "durationMs": 17255572,
      "drivingDurationMs": 15344749,
      "idlingDurationMs": 1910823,
      "fuelConsumedMl": 10024,
      "fuelConsumedGallons": 2.648,
      "maxSpeedMph": 62.3,
      "averageSpeedMph": 10.2,
      "safetyEvents": []
    },
    {
      "id": "trip_42031656_20250219_004",
      "vehicleId": "42031656",
      "driverId": "20000011",
      "startMs": 1739981820000,
      "endMs": 1739983822155,
      "startAddress": "76911 Nathan Locks Suite 032",
      "endAddress": "394 Moran Neck Suite 809",
      "startCoords": {
        "latitude": 39.723239,
        "longitude": -104.935263
      },
      "endCoords": {
        "latitude": 39.797029,
        "longitude": -104.984096
      },
      "distanceMeters": 11117.8,
      "durationMs": 2002156,
      "drivingDurationMs": 1620562,
      "idlingDurationMs": 381594,
      "fuelConsumedMl": 1412,
      "fuelConsumedGallons": 0.373,
      "maxSpeedMph": 71.1,
      "averageSpeedMph": 12.4,
      "safetyEvents": [
        {
          "type": "speeding",
          "startMs": 1739983440000,
          "maxSpeedMph": 71.1
        }
      ]
    },
    {
      "id": "trip_42031656_20250219_005",
      "vehicleId": "42031656",
      "driverId": "20000011",
      "startMs": 1739976780000,
      "endMs": 1739978301319,
      "startAddress": "2997 Murphy Cape",
      "endAddress": "3757 Ware Tunnel Apt. 263",
      "startCoords": {
        "latitude": 39.740374,
        "longitude": -104.943864
      },
      "endCoords": {
        "latitude": 39.762524,
        "longitude": -104.921397
      },
      "distanceMeters": 7563.9,
      "durationMs": 1521320,
      "drivingDurationMs": 1241718,
      "idlingDurationMs": 279601,
      "fuelConsumedMl": 961,
      "fuelConsumedGallons": 0.254,
      "maxSpeedMph": 57.7,
      "averageSpeedMph": 11.1,
      "safetyEvents": []
    },
    {
      "id": "trip_42031656_20250220_001",
      "vehicleId": "42031656",
      "driverId": "20000016",
      "startMs": 1740035520000,
      "endMs": 1740038852262,
      "startAddress": "3662 Morrison Road Apt. 556",
      "endAddress": "767 Jennifer Ridge",
      "startCoords": {
        "latitude": 39.702193,
        "longitude": -105.04699
      },
      "endCoords": {
        "latitude": 39.822725,
        "longitude": -104.945021
      },
      "distanceMeters": 20043.8,
      "durationMs": 3332262,
      "drivingDurationMs": 2741081,
      "idlingDurationMs": 591181,
      "fuelConsumedMl": 2548,
      "fuelConsumedGallons": 0.673,
      "maxSpeedMph": 54.4,
      "averageSpeedMph": 13.5,
      "safetyEvents": []
    },
    {
      "id": "trip_42031656_20250220_002",
      "vehicleId": "42031656",
      "driverId": "20000016",
      "startMs": 1740065040000,
      "endMs": 1740071536729,
      "startAddress": "596 Cantrell Springs Apt. 393",
      "endAddress": "8755 Mann Walks Suite 641",
      "startCoords": {
        "latitude": 39.691465,
        "longitude": -104.998437
      },
      "endCoords": {
        "latitude": 39.777119,
        "longitude": -104.950751
      },
      "distanceMeters": 34404.5,
      "durationMs": 6496729,
      "drivingDurationMs": 5919077,
      "idlingDurationMs": 577652,
      "fuelConsumedMl": 4376,
      "fuelConsumedGallons": 1.156,
      "maxSpeedMph": 31.8,
      "averageSpeedMph": 11.8,
      "safetyEvents": []
    },
    {
      "id": "trip_42031656_20250221_001",
      "vehicleId": "42031656",
      "driverId": "20000005",
      "startMs": 1740144360000,
      "endMs": 1740145736415,
      "startAddress": "42535 Mann Landing Suite 518",
      "endAddress": "2266 Campbell Neck Suite 202",
      "startCoords": {
        "latitude": 39.686586,
        "longitude": -105.013502
      },
      "endCoords": {
        "latitude": 39.741828,
        "longitude": -104.941129
      },
      "distanceMeters": 8552.5,
      "durationMs": 1376415,
      "drivingDurationMs": 1196362,
      "idlingDurationMs": 180054,
      "fuelConsumedMl": 1086,
      "fuelConsumedGallons": 0.287,
      "maxSpeedMph": 41.4,
      "averageSpeedMph": 13.9,
      "safetyEvents": []
    },
    {
      "id": "trip_42031656_20250221_002",
      "vehicleId": "42031656",
      "driverId": "20000005",
      "startMs": 1740149820000,
      "endMs": 1740151525564,
      "startAddress": "59267 Smith Trafficway Suite 410",
      "endAddress": "142 Schultz Lights Suite 621",
      "startCoords": {
        "latitude": 39.781981,
        "longitude": -104.911094
      },
      "endCoords": {
        "latitude": 39.720765,
        "longitude": -105.019545
      },
      "distanceMeters": 10246.9,
      "durationMs": 1705565,
      "drivingDurationMs": 1513071,
      "idlingDurationMs": 192494,
      "fuelConsumedMl": 1302,
      "fuelConsumedGallons": 0.344,
      "maxSpeedMph": 67.6,
      "averageSpeedMph": 13.4,
      "safetyEvents": [
        {
          "type": "speeding",
          "startMs": 1740150060000,
          "maxSpeedMph": 67.6
        }
      ]
    },
    {
      "id": "trip_42031656_20250221_003",
      "vehicleId": "42031656",
      "driverId": "20000005",
      "startMs": 1740148800000,
      "endMs": 1740159873076,
      "startAddress": "1761 Kelly Walks Suite 726",
      "endAddress": "813 Williams Highway Suite 446",
      "startCoords": {
        "latitude": 39.738485,
        "longitude": -105.071234
      },
      "endCoords": {
        "latitude": 39.7905,
        "longitude": -105.064117
      },
      "distanceMeters": 51699.2,
      "durationMs": 11073076,
      "drivingDurationMs": 9680137,
      "idlingDurationMs": 1392940,
      "fuelConsumedMl": 6571,
      "fuelConsumedGallons": 1.736,
      "maxSpeedMph": 49.1,
      "averageSpeedMph": 10.4,
      "safetyEvents": []
    },
    {
      "id": "trip_42031656_20250221_004",
      "vehicleId": "42031656",
      "driverId": "20000005",
      "startMs": 1740158520000,
      "endMs": 1740167743735,
      "startAddress": "559 Munoz Plain Apt. 250",
      "endAddress": "38454 Collins Corners",
      "startCoords": {
        "latitude": 39.768258,
        "longitude": -105.062578
      },
      "endCoords": {
        "latitude": 39.779083,
        "longitude": -105.07559
      },
      "distanceMeters": 77313.2,
      "durationMs": 9223735,
      "drivingDurationMs": 8710850,
      "idlingDurationMs": 512885,
      "fuelConsumedMl": 9831,
      "fuelConsumedGallons": 2.597,
      "maxSpeedMph": 55.4,
      "averageSpeedMph": 18.7,
      "safetyEvents": []
    },
    {
      "id": "trip_42031656_20250221_005",
      "vehicleId": "42031656",
      "driverId": "20000005",
      "startMs": 1740119100000,
      "endMs": 1740119976486,
      "startAddress": "7732 George Centers Suite 927",
      "endAddress": "0703 William Field",
      "startCoords": {
        "latitude": 39.707215,
        "longitude": -104.938133
      },
      "endCoords": {
        "latitude": 39.763563,
        "longitude": -104.938898
      },
      "distanceMeters": 5146.1,
      "durationMs": 876487,
      "drivingDurationMs": 700591,
      "idlingDurationMs": 175895,
      "fuelConsumedMl": 655,
      "fuelConsumedGallons": 0.173,
      "maxSpeedMph": 70.3,
      "averageSpeedMph": 13.1,
      "safetyEvents": [
        {
          "type": "speeding",
          "startMs": 1740119760000,
          "maxSpeedMph": 70.3
        }
      ]
    },
    {
      "id": "trip_42031656_20250222_001",
      "vehicleId": "42031656",
      "driverId": null,
      "startMs": 1740234960000,
      "endMs": 1740239379466,
      "startAddress": "1878 Cox Highway Apt. 754",
      "endAddress": "4489 Robert Unions",
      "startCoords": {
        "latitude": 39.729276,
        "longitude": -104.965452
      },
      "endCoords": {
        "latitude": 39.825694,
        "longitude": -105.000649
      },
      "distanceMeters": 27993.4,
      "durationMs": 4419466,
      "drivingDurationMs": 3827339,
      "idlingDurationMs": 592127,
      "fuelConsumedMl": 3558,
      "fuelConsumedGallons": 0.94,
      "maxSpeedMph": 40.8,
      "averageSpeedMph": 14.2,
      "safetyEvents": []
    },
    {
      "id": "trip_42031656_20250223_001",
      "vehicleId": "42031656",
      "driverId": "20000001",
      "startMs": 1740304080000,
      "endMs": 1740315241176,
      "startAddress": "419 Fisher Islands Apt. 664",
      "endAddress": "691 Evans Views Apt. 189",
      "startCoords": {
        "latitude": 39.827617,
        "longitude": -104.979153
      },
      "endCoords": {
        "latitude": 39.746189,
        "longitude": -104.9307
      },
      "distanceMeters": 59826.8,
      "durationMs": 11161177,
      "drivingDurationMs": 9061501,
      "idlingDurationMs": 2099676,
      "fuelConsumedMl": 7605,
      "fuelConsumedGallons": 2.009,
      "maxSpeedMph": 46.9,
      "averageSpeedMph": 12.0,
      "safetyEvents": []
    },
    {
      "id": "trip_42031656_20250223_002",
      "vehicleId": "42031656",
      "driverId": "20000001",
      "startMs": 1740299760000,
      "endMs": 1740302887712,
      "startAddress": "4312 Shannon Loop Apt. 688",
      "endAddress": "59705 Johnson Way",
      "startCoords": {
        "latitude": 39.809984,
        "longitude": -104.967902
      },
      "endCoords": {
        "latitude": 39.760368,
        "longitude": -105.063455
      },
      "distanceMeters": 21567.8,
      "durationMs": 3127713,
      "drivingDurationMs": 2518620,
      "idlingDurationMs": 609093,
      "fuelConsumedMl": 2741,
      "fuelConsumedGallons": 0.724,
      "maxSpeedMph": 55.5,
      "averageSpeedMph": 15.4,
      "safetyEvents": []
    },
    {
      "id": "trip_42031656_20250223_003",
      "vehicleId": "42031656",
      "driverId": "20000001",
      "startMs": 1740333360000,
      "endMs": 1740343650300,
      "startAddress": "6021 Thomas Estates",
      "endAddress": "476 Mary Pass",
      "startCoords": {
        "latitude": 39.737328,
        "longitude": -105.02839
      },
      "endCoords": {
        "latitude": 39.744793,
        "longitude": -104.988347
      },
      "distanceMeters": 72807.2,
      "durationMs": 10290301,
      "drivingDurationMs": 9051273,
      "idlingDurationMs": 1239027,
      "fuelConsumedMl": 9255,
      "fuelConsumedGallons": 2.445,
      "maxSpeedMph": 42.5,
      "averageSpeedMph": 15.8,
      "safetyEvents": []
    },
    {
      "id": "trip_42031656_20250223_004",
      "vehicleId": "42031656",
      "driverId": "20000001",
      "startMs": 1740317880000,
      "endMs": 1740329790357,
      "startAddress": "88806 Hudson Crossing",
      "endAddress": "752 Hays Villages Apt. 213",
      "startCoords": {
        "latitude": 39.75818,
        "longitude": -105.082674
      },
      "endCoords": {
        "latitude": 39.795971,
        "longitude": -104.939765
      },
      "distanceMeters": 83914.1,
      "durationMs": 11910357,
      "drivingDurationMs": 10005389,
      "idlingDurationMs": 1904968,
      "fuelConsumedMl": 10667,
      "fuelConsumedGallons": 2.818,
      "maxSpeedMph": 35.1,
      "averageSpeedMph": 15.8,
      "safetyEvents": []
    },
    {
      "id": "trip_42031656_20250224_001",
      "vehicleId": "42031656",
      "driverId": "20000006",
      "startMs": 1740405540000,
      "endMs": 1740418339581,
      "startAddress": "1671 Brown Haven",
      "endAddress": "293 Rebecca Terrace",
      "startCoords": {
        "latitude": 39.753321,
        "longitude": -104.97743
      },
      "endCoords": {
        "latitude": 39.767978,
        "longitude": -105.034022
      },
      "distanceMeters": 68860.8,
      "durationMs": 12799582,
      "drivingDurationMs": 11572259,
      "idlingDurationMs": 1227323,
      "fuelConsumedMl": 8756,
      "fuelConsumedGallons": 2.313,
      "maxSpeedMph": 69.4,
      "averageSpeedMph": 12.0,
      "safetyEvents": [
        {
          "type": "speeding",
          "startMs": 1740406260000,
          "maxSpeedMph": 69.4
        }
      ]
    },
    {
      "id": "trip_42031656_20250224_002",
      "vehicleId": "42031656",
      "driverId": "20000006",
      "startMs": 1740406320000,
      "endMs": 1740416480355,
      "startAddress": "10419 Young Stream Apt. 131",
      "endAddress": "3494 Heather Field Suite 412",
      "startCoords": {
        "latitude": 39.750471,
        "longitude": -104.979458
      },
      "endCoords": {
        "latitude": 39.813087,
        "longitude": -104.91669
      },
      "distanceMeters": 69922.3,
      "durationMs": 10160356,
      "drivingDurationMs": 9432851,
      "idlingDurationMs": 727505,
      "fuelConsumedMl": 8892,
      "fuelConsumedGallons": 2.349,
      "maxSpeedMph": 48.8,
      "averageSpeedMph": 15.4,
      "safetyEvents": []
    },
    {
      "id": "trip_42031656_20250224_003",
      "vehicleId": "42031656",
      "driverId": "20000006",
      "startMs": 1740423300000,
      "endMs": 1740428199822,
      "startAddress": "7760 Edward Crossing",
      "endAddress": "624 Sims Landing Suite 161",
      "startCoords": {
        "latitude": 39.756815,
        "longitude": -104.989332
      },
      "endCoords": {
        "latitude": 39.796814,
        "longitude": -104.929337
      },
      "distanceMeters": 36882.4,
      "durationMs": 4899823,
      "drivingDurationMs": 4574396,
      "idlingDurationMs": 325427,
      "fuelConsumedMl": 4690,
      "fuelConsumedGallons": 1.239,
      "maxSpeedMph": 35.3,
      "averageSpeedMph": 16.8,
      "safetyEvents": []
    },
    {
      "id": "trip_42031656_20250224_004",
      "vehicleId": "42031656",
      "driverId": "20000006",
      "startMs": 1740411000000,
      "endMs": 1740412277785,
      "startAddress": "647 Laura Estates",
      "endAddress": "244 Karen Circle Suite 038",
      "startCoords": {
        "latitude": 39.714389,
        "longitude": -105.019159
      },
      "endCoords": {
        "latitude": 39.801512,
        "longitude": -104.960592
      },
      "distanceMeters": 8522.7,
      "durationMs": 1277785,
      "drivingDurationMs": 1058336,
      "idlingDurationMs": 219449,
      "fuelConsumedMl": 1083,
      "fuelConsumedGallons": 0.286,
      "maxSpeedMph": 56.4,
      "averageSpeedMph": 14.9,
      "safetyEvents": []
    },
    {
      "id": "trip_42031656_20250225_001",
      "vehicleId": "42031656",
      "driverId": "20000021",
      "startMs": 1740476760000,
      "endMs": 1740483366017,
      "startAddress": "750 Jackson Port",
      "endAddress": "15213 Jose Ramp Suite 894",
      "startCoords": {
        "latitude": 39.685852,
        "longitude": -104.974009
      },
      "endCoords": {
        "latitude": 39.820766,
        "longitude": -105.029674
      },
      "distanceMeters": 43087.1,
      "durationMs": 6606018,
      "drivingDurationMs": 6175663,
      "idlingDurationMs": 430355,
      "fuelConsumedMl": 5477,
      "fuelConsumedGallons": 1.447,
      "maxSpeedMph": 28.4,
      "averageSpeedMph": 14.6,
      "safetyEvents": []
    },
    {
      "id": "trip_42031656_20250225_002",
      "vehicleId": "42031656",
      "driverId": "20000021",
      "startMs": 1740498540000,
      "endMs": 1740501439483,
      "startAddress": "377 Daniels Plaza Suite 851",
      "endAddress": "31269 Pham Forge Suite 276",
      "startCoords": {
        "latitude": 39.69958,
        "longitude": -105.034821
      },
      "endCoords": {
        "latitude": 39.760971,
        "longitude": -104.994587
      },
      "distanceMeters": 20309.5,
      "durationMs": 2899484,
      "drivingDurationMs": 2413204,
      "idlingDurationMs": 486280,
      "fuelConsumedMl": 2582,
      "fuelConsumedGallons": 0.682,
      "maxSpeedMph": 62.1,
      "averageSpeedMph": 15.7,
      "safetyEvents": []
    },
    {
      "id": "trip_42031656_20250225_003",
      "vehicleId": "42031656",
      "driverId": "20000021",
      "startMs": 1740479880000,
      "endMs": 1740482317959,
      "startAddress": "000 Daniel Curve",
      "endAddress": "636 Smith Field",
      "startCoords": {
        "latitude": 39.721858,
        "longitude": -105.048771
      },
      "endCoords": {
        "latitude": 39.769056,
        "longitude": -105.036468
      },
      "distanceMeters": 15522.1,
      "durationMs": 2437959,
      "drivingDurationMs": 2147750,
      "idlingDurationMs": 290209,
      "fuelConsumedMl": 1972,
      "fuelConsumedGallons": 0.521,
      "maxSpeedMph": 71.6,
      "averageSpeedMph": 14.2,
      "safetyEvents": [
        {
          "type": "speeding",
          "startMs": 1740481800000,
          "maxSpeedMph": 71.6
        }
      ]
    },
    {
      "id": "trip_42031656_20250225_004",
      "vehicleId": "42031656",
      "driverId": "20000021",
      "startMs": 1740492120000,
      "endMs": 1740502303572,
      "startAddress": "88783 Brown Prairie",
      "endAddress": "262 Kelli Points",
      "startCoords": {
        "latitude": 39.817072,
        "longitude": -104.930712
      },
      "endCoords": {
        "latitude": 39.733345,
        "longitude": -105.016563
      },
      "distanceMeters": 70151.3,
      "durationMs": 10183572,
      "drivingDurationMs": 9844098,
      "idlingDurationMs": 339475,
      "fuelConsumedMl": 8918,
      "fuelConsumedGallons": 2.356,
      "maxSpeedMph": 28.4,
      "averageSpeedMph": 15.4,
      "safetyEvents": []
    },
    {
      "id": "trip_42031656_20250225_005",
      "vehicleId": "42031656",
      "driverId": "20000021",
      "startMs": 1740485760000,
      "endMs": 1740487712638,
      "startAddress": "0324 Amber Ville",
      "endAddress": "0822 Melissa Shores Apt. 438",
      "startCoords": {
        "latitude": 39.81339,
        "longitude": -105.019189
      },
      "endCoords": {
        "latitude": 39.723487,
        "longitude": -105.0456
      },
      "distanceMeters": 11806.8,
      "durationMs": 1952638,
      "drivingDurationMs": 1607538,
      "idlingDurationMs": 345100,
      "fuelConsumedMl": 1503,
      "fuelConsumedGallons": 0.397,
      "maxSpeedMph": 46.0,
      "averageSpeedMph": 13.5,
      "safetyEvents": []
    },
    {
      "id": "trip_42031656_20250226_001",
      "vehicleId": "42031656",
      "driverId": "20000022",
      "startMs": 1740566700000,
      "endMs": 1740568248121,
      "startAddress": "496 Jenkins View Suite 731",
      "endAddress": "033 Nguyen Course",
      "startCoords": {
        "latitude": 39.760186,
        "longitude": -104.969699
      },
      "endCoords": {
        "latitude": 39.800183,
        "longitude": -104.948221
      },
      "distanceMeters": 10865.2,
      "durationMs": 1548121,
      "drivingDurationMs": 1315751,
      "idlingDurationMs": 232370,
      "fuelConsumedMl": 1382,
      "fuelConsumedGallons": 0.365,
      "maxSpeedMph": 50.8,
      "averageSpeedMph": 15.7,
      "safetyEvents": []
    },
    {
      "id": "trip_42031656_20250226_002",
      "vehicleId": "42031656",
      "driverId": "20000022",
      "startMs": 1740554940000,
      "endMs": 1740560348479,
      "startAddress": "0602 Rangel Drives",
      "endAddress": "581 Michelle Plaza",
      "startCoords": {
        "latitude": 39.7969,
        "longitude": -104.956766
      },
      "endCoords": {
        "latitude": 39.813452,
        "longitude": -105.038854
      },
      "distanceMeters": 35418.0,
      "durationMs": 5408480,
      "drivingDurationMs": 5106159,
      "idlingDurationMs": 302321,
      "fuelConsumedMl": 4505,
      "fuelConsumedGallons": 1.19,
      "maxSpeedMph": 62.9,
      "averageSpeedMph": 14.6,
      "safetyEvents": []
    },
    {
      "id": "trip_42031656_20250226_003",
      "vehicleId": "42031656",
      "driverId": "20000022",
      "startMs": 1740569760000,
      "endMs": 1740576998113,
      "startAddress": "7251 Wright Street Suite 755",
      "endAddress": "23034 Aguilar River Suite 243",
      "startCoords": {
        "latitude": 39.794204,
        "longitude": -104.991077
      },
      "endCoords": {
        "latitude": 39.754402,
        "longitude": -105.049401
      },
      "distanceMeters": 56143.4,
      "durationMs": 7238113,
      "drivingDurationMs": 6939505,
      "idlingDurationMs": 298609,
      "fuelConsumedMl": 7139,
      "fuelConsumedGallons": 1.886,
      "maxSpeedMph": 60.4,
      "averageSpeedMph": 17.4,
      "safetyEvents": []
    },
    {
      "id": "trip_42031656_20250227_001",
      "vehicleId": "42031656",
      "driverId": "20000013",
      "startMs": 1740679560000,
      "endMs": 1740686208298,
      "startAddress": "8969 Laura Ridge",
      "endAddress": "89142 Crosby Islands",
      "startCoords": {
        "latitude": 39.823992,
        "longitude": -105.048545
      },
      "endCoords": {
        "latitude": 39.811813,
        "longitude": -105.005976
      },
      "distanceMeters": 54690.6,
      "durationMs": 6648298,
      "drivingDurationMs": 6399664,
      "idlingDurationMs": 248634,
      "fuelConsumedMl": 6954,
      "fuelConsumedGallons": 1.837,
      "maxSpeedMph": 59.4,
      "averageSpeedMph": 18.4,
      "safetyEvents": []
    },
    {
      "id": "trip_42031656_20250227_002",
      "vehicleId": "42031656",
      "driverId": "20000013",
      "startMs": 1740651060000,
      "endMs": 1740658141093,
      "startAddress": "494 Mcneil Mountain Apt. 810",
      "endAddress": "353 Angel Fork",
      "startCoords": {
        "latitude": 39.733841,
        "longitude": -105.063326
      },
      "endCoords": {
        "latitude": 39.705779,
        "longitude": -104.976712
      },
      "distanceMeters": 40424.8,
      "durationMs": 7081094,
      "drivingDurationMs": 5852186,
      "idlingDurationMs": 1228908,
      "fuelConsumedMl": 5141,
      "fuelConsumedGallons": 1.358,
      "maxSpeedMph": 35.1,
      "averageSpeedMph": 12.8,
      "safetyEvents": []
    },
    {
      "id": "trip_42031656_20250227_003",
      "vehicleId": "42031656",
      "driverId": "20000013",
      "startMs": 1740661800000,
      "endMs": 1740663532204,
      "startAddress": "728 Austin Streets Suite 304",
      "endAddress": "61995 Rodriguez Ville",
      "startCoords": {
        "latitude": 39.760565,
        "longitude": -104.912294
      },
      "endCoords": {
        "latitude": 39.715383,
        "longitude": -105.033624
      },
      "distanceMeters": 10061.5,
      "durationMs": 1732205,
      "drivingDurationMs": 1536112,
      "idlingDurationMs": 196092,
      "fuelConsumedMl": 1279,
      "fuelConsumedGallons": 0.338,
      "maxSpeedMph": 30.7,
      "averageSpeedMph": 13.0,
      "safetyEvents": []
    },
    {
      "id": "trip_42031656_20250227_004",
      "vehicleId": "42031656",
      "driverId": "20000013",
      "startMs": 1740667740000,
      "endMs": 1740671195621,
      "startAddress": "08844 Shawn Mountains Apt. 451",
      "endAddress": "7643 Laura Valley Suite 814",
      "startCoords": {
        "latitude": 39.821124,
        "longitude": -105.069114
      },
      "endCoords": {
        "latitude": 39.766367,
        "longitude": -105.040435
      },
      "distanceMeters": 16531.6,
      "durationMs": 3455622,
      "drivingDurationMs": 2843516,
      "idlingDurationMs": 612105,
      "fuelConsumedMl": 2101,
      "fuelConsumedGallons": 0.555,
      "maxSpeedMph": 46.0,
      "averageSpeedMph": 10.7,
      "safetyEvents": []
    },
    {
      "id": "trip_42031656_20250228_001",
      "vehicleId": "42031656",
      "driverId": "20000020",
      "startMs": 1740730680000,
      "endMs": 1740736978738,
      "startAddress": "23007 Bailey Parkway",
      "endAddress": "5089 Hogan View Apt. 635",
      "startCoords": {
        "latitude": 39.816004,
        "longitude": -105.029186
      },
      "endCoords": {
        "latitude": 39.799723,
        "longitude": -105.057589
      },
      "distanceMeters": 36037.0,
      "durationMs": 6298739,
      "drivingDurationMs": 5843823,
      "idlingDurationMs": 454916,
      "fuelConsumedMl": 4580,
      "fuelConsumedGallons": 1.21,
      "maxSpeedMph": 68.3,
      "averageSpeedMph": 12.8,
      "safetyEvents": [
        {
          "type": "speeding",
          "startMs": 1740733320000,
          "maxSpeedMph": 68.3
        }
      ]
    },
    {
      "id": "trip_42031656_20250228_002",
      "vehicleId": "42031656",
      "driverId": "20000020",
      "startMs": 1740768360000,
      "endMs": 1740776400000,
      "startAddress": "326 Michael Green",
      "endAddress": "962 Andrew Bridge Suite 426",
      "startCoords": {
        "latitude": 39.683956,
        "longitude": -105.000481
      },
      "endCoords": {
        "latitude": 39.764339,
        "longitude": -105.002791
      },
      "distanceMeters": 45948.9,
      "durationMs": 8040000,
      "drivingDurationMs": 6773819,
      "idlingDurationMs": 1266181,
      "fuelConsumedMl": 5841,
      "fuelConsumedGallons": 1.543,
      "maxSpeedMph": 57.8,
      "averageSpeedMph": 12.8,
      "safetyEvents": []
    },
    {
      "id": "trip_42031656_20250228_003",
      "vehicleId": "42031656",
      "driverId": "20000020",
      "startMs": 1740753660000,
      "endMs": 1740774617827,
      "startAddress": "19025 Kenneth Garden",
      "endAddress": "6153 Michael Glens",
      "startCoords": {
        "latitude": 39.718416,
        "longitude": -104.934716
      },
      "endCoords": {
        "latitude": 39.700974,
        "longitude": -104.933009
      },
      "distanceMeters": 84900.2,
      "durationMs": 20957827,
      "drivingDurationMs": 16938562,
      "idlingDurationMs": 4019265,
      "fuelConsumedMl": 10796,
      "fuelConsumedGallons": 2.852,
      "maxSpeedMph": 65.7,
      "averageSpeedMph": 9.1,
      "safetyEvents": [
        {
          "type": "speeding",
          "startMs": 1740768660000,
          "maxSpeedMph": 65.7
        }
      ]
    }
  ]
}